timestamp,mode_time_elapsed,fps,person_detected,person_x_pixels,person_z_camera,person_confidence,servo_position,servo_is_moving,person_centered,pixel_error,total_moves,successful_centers,false_positive_rejections,detection_success_count,detection_failure_count,detection_rate,consecutive_successes,consecutive_failures,rolling_variance_pixels,rolling_std_dev_pixels,average_variance_pixels,reused_detection,last_good_age_ms,smoothing_applied,smoothed_position_x,raw_position_x,dynamic_offset_x,dynamic_offset_y,calibration_samples_count,movement_enabled,base_is_moving,base_direction,base_speed,movement_success_rate,total_movement_commands,avg_movement_duration,robot_pos_x,robot_pos_y,robot_orientation,robot_velocity_x,robot_velocity_y,total_distance_traveled,total_rotation,position_confidence,orientation_confidence,imu_initialized,imu_roll,imu_pitch,imu_yaw,imu_smoothed_yaw,imu_angular_vel_x,imu_angular_vel_y,imu_angular_vel_z,imu_accel_x,imu_accel_y,imu_accel_z,imu_update_rate,navigation_enabled,navigation_state,has_person_target,goal_reached,person_distance_mm,person_angle_deg,time_since_person_update,attractive_force_magnitude,repulsive_force_magnitude,total_force_magnitude,nav_movement_direction,nav_movement_speed,navigation_success_rate,goals_reached,force_calculations_count,obstacles_filtered_count
1764635320.02851,9.623363494873047,0.10400123304684566,True,340,956.0543823242188,0.9970703125,0.02,True,False,-570,1,0,0,1,0,100.0,1,0,0.0,0.0,0.0,0,0.0,0,340,340,0.0,0.0,0,False,False,NONE,0.0,0.0,0,0.0,0.0,0.0,0.0,0.0,0.0,0.0,0.0,1.0,1.0,True,144.86615072902137,88.75133499130743,144.82655744202324,144.82655744202324,-0.01065264455974102,-0.014913702383637428,-0.004261057823896408,-9.040505409240723,0.13407529890537262,-0.13407529890537262,9.995100515685023,False,IDLE,True,False,1180.964715529018,336.8725197595323,0.00012183189392089844,3.109287231278887,0.0,3.109287231278887,NONE,0.0,0.0,0,1,0
1764635320.0642285,9.659081935882568,12.209826395970824,True,340,956.0543823242188,0.9970703125,0.02,True,False,-570,1,0,0,2,0,100.0,2,0,0,0.0,0,1,36.078691482543945,1,340.0,340,0.0,0.0,0,False,False,NONE,0.0,0.0,0,0.0,0.0,0.0,144.82655744202324,0.0,0.0,0.0,0.0,1.0,0.9,True,144.86615072902137,88.75133499130743,144.82655744202324,144.82655744202324,0.009587380103766918,-0.007456851191818714,-0.007456851191818714,-9.08838939666748,0.10534487664699554,-0.13407529890537262,9.997804646949806,False,IDLE,True,False,1180.964715529018,335.7475197595323,8.58306884765625e-05,3.1092872312788864,0.0,3.1092872312788864,NONE,0.0,0.0,0,2,0
1764635320.1027875,9.697640895843506,16.44866153198952,True,340,956.0543823242188,0.9970703125,0.02,True,False,-570,1,0,0,3,0,100.0,3,0,0,0.0,0,1,74.72729682922363,2,340.0,340,0.0,0.0,0,False,False,NONE,0.0,0.0,0,0.0,0.0,0.0,144.82655744202324,0.0,0.0,0.0,0.0,1.0,0.9,True,144.86615072902137,88.75133499130743,144.82655744202324,144.82655744202324,-0.007456851191818714,0.0,-0.002130528911948204,-9.050082206726074,0.15322890877723694,-0.1628057211637497,9.998467998003948,False,IDLE,True,False,1180.964715529018,335.7475197595323,0.00011801719665527344,3.1092872312788864,0.0,3.1092872312788864,NONE,0.0,0.0,0,3,0
1764635320.1447995,9.739652872085571,18.516077016958477,True,340,956.0543823242188,0.9970703125,0.02,True,False,-570,1,0,0,4,0,100.0,4,0,0,0.0,0,1,116.82486534118652,3,340.0,340,0.0,0.0,0,False,False,NONE,0.0,0.0,0,0.0,0.0,0.0,144.82655744202324,0.0,0.0,0.0,0.0,1.0,0.9,True,144.86615072902137,88.75133499130743,144.82655744202324,144.82655744202324,-0.008522115647792816,-0.001065264455974102,-0.001065264455974102,-9.078812599182129,0.13407529890537262,-0.181959331035614,9.998680527288471,False,IDLE,True,False,1180.964715529018,335.7475197595323,0.0001087188720703125,3.1092872312788864,0.0,3.1092872312788864,NONE,0.0,0.0,0,4,0
1764635320.1823614,9.777214765548706,19.91796756665774,True,340,956.0543823242188,0.9970703125,0.02,True,False,-570,1,0,0,5,0,100.0,5,0,0,0.0,0,1,154.34837341308594,4,340.0,340,0.0,0.0,0,False,False,NONE,0.0,0.0,0,0.0,0.0,0.0,144.45202119149266,0.0,0.0,0.0,0.37453625053058204,1.0,0.9,True,142.9934603179015,88.73721243961417,142.95387618937048,144.45202119149266,-0.009587380103766918,-0.004261057823896408,0.004261057823896408,-9.059659004211426,0.1149216815829277,-0.1149216815829277,9.999165604600522,False,IDLE,True,False,1180.964715529018,335.7475197595323,0.00010991096496582031,3.1092872312788864,0.0,3.1092872312788864,NONE,0.0,0.0,0,5,0
1764635320.2250834,9.819936752319336,20.714873058976377,True,340,956.0543823242188,0.9970703125,0.02,True,False,-570,1,0,0,6,0,100.0,6,0,0,0.0,0,1,197.10016250610352,5,340.0,340,0.0,0.0,0,False,False,NONE,0.0,0.0,0,0.0,0.0,0.0,144.20233035780564,0.0,0.0,0.0,0.6242270842176083,1.0,0.9,True,142.9934603179015,88.73721243961417,142.95387618937048,144.20233035780564,-0.001065264455974102,-0.003195793367922306,-0.001065264455974102,-9.08838939666748,0.10534487664699554,-0.15322890877723694,9.999262546249794,False,IDLE,True,False,1180.964715529018,335.7475197595323,0.00011610984802246094,3.1092872312788864,0.0,3.1092872312788864,NONE,0.0,0.0,0,6,0
1764635320.2643883,9.859241724014282,21.330382710959174,True,340,956.0543823242188,0.9970703125,0.04,True,False,-570,2,0,0,7,0,100.0,7,0,0,0.0,0,1,234.86018180847168,6,340.0,340,0.0,0.0,0,False,False,NONE,0.0,0.0,0,0.0,0.0,0.0,144.02397976231492,0.0,0.0,0.0,0.8025776797083211,1.0,0.9,True,142.9934603179015,88.73721243961417,142.95387618937048,144.02397976231492,-0.001065264455974102,0.002130528911948204,-0.00532632227987051,-9.107542991638184,0.1149216815829277,-0.15322890877723694,9.998926550439869,False,IDLE,True,False,1180.964715529018,335.7475197595323,0.00017023086547851562,3.1092872312788864,0.0,3.1092872312788864,NONE,0.0,0.0,0,7,0
1764635320.3061182,9.90097165107727,21.76542647112389,True,340,954.2936808268229,0.9970703125,0.04,True,False,-570,2,0,0,8,0,100.0,8,0,0,0.0,0,0,0.0,7,340.0,340,0.0,0.0,0,False,False,NONE,0.0,0.0,0,0.0,0.0,0.0,143.89021681569685,0.0,0.0,0.0,0.9363406263263983,1.0,0.9,True,142.9934603179015,88.73721243961417,142.95387618937048,143.89021681569685,-0.0,0.002130528911948204,-0.004261057823896408,-9.078812599182129,0.13407529890537262,-0.15322890877723694,9.999282411573915,False,IDLE,True,False,1178.842321404145,334.6461812263583,0.0001475811004638672,3.101796428485217,0.0,3.101796428485217,NONE,0.0,0.0,0,8,0
1764635320.3452518,9.940105199813843,22.146249164835233,True,342,955.174462486313,0.998046875,0.04,True,False,-568,2,0,0,9,0,100.0,9,0,0.4444444444444444,0.6666666666666666,0.4444444444444444,0,0.0,8,340.6666666666667,342,0.0,0.0,0,False,False,NONE,0.0,0.0,0,0.0,0.0,0.0,143.78617896832728,0.0,0.0,0.0,1.0403784736959665,1.0,0.9,True,142.9934603179015,88.73721243961417,142.95387618937048,143.78617896832728,-0.006391586735844612,-0.001065264455974102,-0.001065264455974102,-9.050082206726074,0.09576806426048279,-0.12449848651885986,9.999289033366162,False,IDLE,True,False,1179.4948103135446,334.68094567082346,0.00012445449829101562,3.104099330518393,0.0,3.104099330518393,NONE,0.0,0.0,0,9,0
1764635320.3830523,9.977905750274658,22.404782928250054,True,342,955.174462486313,0.998046875,0.04,True,False,-568,2,0,0,10,0,100.0,10,0,0.7111111111111111,0.8432740427115678,0.7111111111111111,1,37.989139556884766,9,341.2,342,0.0,0.0,0,False,False,NONE,0.0,0.0,0,0.0,0.0,0.0,143.55864223773227,0.0,0.0,0.0,1.267915204290972,1.0,0.9,True,141.5504067708509,88.75614368180342,141.51081166237742,143.55864223773227,-0.008522115647792816,0.001065264455974102,0.0,-9.117119789123535,0.09576806426048279,-0.19153612852096558,9.99964238492066,False,IDLE,True,False,1179.4948103135446,334.68094567082346,0.0001423358917236328,3.104099330518393,0.0,3.104099330518393,NONE,0.0,0.0,0,10,0
1764635320.4259136,10.020766973495483,22.624026108009584,True,343,955.6145659250568,0.998046875,0.04,True,False,-567,2,0,0,11,0,100.0,11,0,1.2545454545454546,1.1200649331826502,1.2545454545454546,0,0.0,10,341.93333333333334,343,0.0,0.0,0,False,False,NONE,0.0,0.0,0,0.0,0.0,0.0,143.41705959605986,0.0,0.0,0.0,1.4094978459633865,1.0,0.9,True,143.4503360654136,88.77048362880427,143.41073102529896,143.41705959605986,0.015978965908288956,-0.004261057823896408,0.0,-9.08838939666748,0.13407529890537262,-0.17238251864910126,9.999532721420909,False,IDLE,True,False,1179.5702264273266,334.72694411436555,0.00017952919006347656,3.1043655050376233,0.0,3.1043655050376233,NONE,0.0,0.0,0,11,0
1764635320.4663498,10.061203241348267,22.821119824385374,True,343,955.6145659250568,0.998046875,0.06,True,False,-567,3,0,0,12,0,100.0,12,0,1.606060606060606,1.2673044646258476,1.606060606060606,1,39.63494300842285,11,342.46666666666664,343,0.0,0.0,0,False,False,NONE,0.0,0.0,0,0.0,0.0,0.0,143.27547695438741,0.0,0.0,0.0,1.5510804876358293,1.0,0.9,True,143.4503360654136,88.77048362880427,143.41073102529896,143.27547695438741,0.001065264455974102,-0.008522115647792816,-0.008522115647792816,-9.069235801696777,0.1149216815829277,-0.1628057211637497,9.999588347533225,False,IDLE,True,False,1179.5702264273266,334.72694411436555,0.0001735687255859375,3.1043655050376233,0.0,3.1043655050376233,NONE,0.0,0.0,0,12,0
1764635320.5068905,10.101743936538696,22.968606196704005,True,344,956.0543823242188,0.998046875,0.06,True,False,-566,3,0,0,13,0,100.0,13,0,2.2435897435897436,1.4978617237881953,2.2435897435897436,0,0.0,12,343.1333333333333,344,0.0,0.0,0,False,False,NONE,0.0,0.0,0,0.0,0.0,0.0,143.133894312715,0.0,0.0,0.0,1.6926631293082437,1.0,0.9,True,143.4503360654136,88.77048362880427,143.41073102529896,143.133894312715,-0.006391586735844612,-0.007456851191818714,0.004261057823896408,-9.069235801696777,0.14365209639072418,-0.17238251864910126,9.999501546617587,False,IDLE,True,False,1179.6461384420863,333.647931204521,0.00021338462829589844,3.104633429795599,0.0,3.104633429795599,NONE,0.0,0.0,0,13,0
1764635320.5443032,10.139156579971313,23.117301605777406,True,344,956.0543823242188,0.998046875,0.06,True,False,-566,3,0,0,14,0,100.0,14,0,2.681318681318681,1.6374732612530445,2.681318681318681,1,37.442922592163086,13,343.53333333333336,344,0.0,0.0,0,False,False,NONE,0.0,0.0,0,0.0,0.0,0.0,142.8023197347504,0.0,0.0,0.0,2.024237707272846,1.0,0.9,True,141.5504067708509,88.75614368180342,141.51081166237742,142.8023197347504,-0.003195793367922306,0.004261057823896408,0.006391586735844612,-9.08838939666748,0.07661445438861847,-0.15322890877723694,9.999537829915619,False,IDLE,True,False,1179.6461384420863,333.647931204521,0.0002148151397705078,3.104633429795599,0.0,3.104633429795599,NONE,0.0,0.0,0,14,0
1764635320.5865633,10.181416749954224,23.245891730637503,True,344,956.0543823242188,0.998046875,0.06,True,False,-566,3,0,0,15,0,100.0,15,0,2.980952380952381,1.7265434778633235,2.980952380952381,1,79.64563369750977,14,343.8,344,0.0,0.0,0,False,False,NONE,0.0,0.0,0,0.0,0.0,0.0,142.6580132820511,0.0,0.0,0.0,2.168544159972157,1.0,0.9,True,141.5504067708509,88.75614368180342,141.51081166237742,142.6580132820511,0.001065264455974102,-0.00532632227987051,0.001065264455974102,-9.08838939666748,0.10534487664699554,-0.13407529890537262,9.999572454295127,False,IDLE,True,False,1179.6461384420863,333.647931204521,0.000209808349609375,3.104633429795599,0.0,3.104633429795599,NONE,0.0,0.0,0,15,0
1764635320.62414,10.218993425369263,23.353125860145994,True,344,956.0543823242188,0.998046875,0.06,True,False,-566,3,0,0,16,0,100.0,16,0,3.183333333333333,1.7841898254763513,3.183333333333333,1,117.4309253692627,15,343.93333333333334,344,0.0,0.0,0,False,False,NONE,0.0,0.0,0,0.0,0.0,0.0,142.51370682935178,0.0,0.0,0.0,2.3128506126714683,1.0,0.9,True,141.5504067708509,88.75614368180342,141.51081166237742,142.51370682935178,-0.029827404767274857,0.002130528911948204,-0.004261057823896408,-9.050082206726074,0.0,-0.23942017555236816,9.999596790836513,False,IDLE,True,False,1179.6461384420863,333.647931204521,0.00020360946655273438,3.104633429795599,0.0,3.104633429795599,NONE,0.0,0.0,0,16,0
1764635320.6673467,10.262200117111206,23.458004509638855,True,344,956.0543823242188,0.998046875,0.08,True,False,-566,4,0,0,17,0,100.0,17,0,3.3161764705882355,1.8210371963768988,3.3161764705882355,1,159.5151424407959,16,344.0,344,0.0,0.0,0,False,False,NONE,0.0,0.0,0,0.0,0.0,0.0,142.6137121805887,0.0,0.0,0.0,2.4128559639083846,1.0,0.9,True,143.87967364611373,88.76889309240816,143.95392970173947,142.6137121805887,-0.16298545897006989,0.00532632227987051,-0.004261057823896408,-9.126696586608887,-0.12449848651885986,-0.12449848651885986,9.99962948320761,False,IDLE,True,False,1179.6461384420863,333.647931204521,0.00021338462829589844,3.104633429795599,0.0,3.104633429795599,NONE,0.0,0.0,0,17,0
1764635320.706564,10.301417350769043,23.530056563619667,True,344,956.0543823242188,0.998046875,0.08,True,False,-566,4,0,0,18,0,100.0,18,0,3.3986928104575163,1.8435543958499072,3.3986928104575163,1,199.88059997558594,17,344.0,344,0.0,0.0,0,False,False,NONE,0.0,0.0,0,0.0,0.0,0.0,142.92400940723644,0.0,0.0,0.0,2.7231531905561326,1.0,0.9,True,145.54257993919262,88.79977917612497,146.05684845584793,142.92400940723644,-0.185356006026268,0.006391586735844612,0.01065264455974102,-9.040505409240723,-0.07661445438861847,-0.181959331035614,9.999657218815456,False,IDLE,True,False,1179.6461384420863,332.52293120452106,0.0002117156982421875,3.1046334297955984,0.0,3.1046334297955984,NONE,0.0,0.0,0,18,0
1764635320.7443993,10.339252710342407,23.610150330612264,True,344,956.0543823242188,0.998046875,0.08,True,False,-566,4,0,0,19,0,100.0,19,0,3.4444444444444446,1.855921454276674,3.4444444444444446,1,237.50567436218262,18,344.0,344,0.0,0.0,0,False,False,NONE,0.0,0.0,0,0.0,0.0,0.0,144.4519908829937,0.0,0.0,0.0,4.251134666313391,1.0,0.9,True,157.20765161372347,89.00379876951135,158.23369094694334,144.4519908829937,-0.2034655064344406,-0.009587380103766918,0.01065264455974102,-9.002198219299316,0.23942017555236816,-0.2777273952960968,9.999735989764835,False,IDLE,True,False,1179.6461384420863,332.52293120452106,0.0001976490020751953,3.1046334297955984,0.0,3.1046334297955984,NONE,0.0,0.0,0,19,0
1764635320.7863307,10.381184101104736,23.677717276532032,True,341,954.7332104671264,0.9990234375,0.08,True,False,-569,4,0,0,20,0,100.0,20,0,3.3131578947368423,1.820208200931103,3.3131578947368423,0,0.0,19,343.0,341,0.0,0.0,0,False,False,NONE,0.0,0.0,0,0.0,0.0,0.0,146.39676342865062,0.0,0.0,0.0,6.195907211970308,1.0,0.9,True,159.360629803081,88.83542326517261,160.95853711894634,146.39676342865062,-0.17044231295585632,0.006391586735844612,-0.003195793367922306,-9.155426979064941,0.40222588181495667,0.181959331035614,9.999805692633641,False,IDLE,True,False,1178.9175435969544,332.44209271764663,0.0001742839813232422,3.102061918577486,0.0,3.102061918577486,NONE,0.0,0.0,0,20,0
1764635320.8233118,10.41816520690918,23.75029803191698,True,341,954.7332104671264,0.9990234375,0.08,True,False,-569,4,0,0,21,0,100.0,21,0,3.1904761904761907,1.7861904127153383,3.1904761904761907,1,37.29248046875,20,342.2,341,0.0,0.0,0,False,False,NONE,0.0,0.0,0,0.0,0.0,0.0,148.22943106713075,0.0,0.0,0.0,8.02857485045044,1.0,0.9,True,159.84716021799804,88.80026839785167,161.73740741010027,148.22943106713075,-0.10546118021011353,0.003195793367922306,-0.011717909015715122,-9.030928611755371,0.2106897532939911,-0.2777273952960968,9.99987784035369,False,IDLE,True,False,1178.9175435969544,332.44209271764663,8.487701416015625e-05,3.102061918577486,0.0,3.102061918577486,NONE,0.0,0.0,0,21,0
1764635320.8664002,10.461253643035889,23.80958138364249,True,342,953.8531468282486,0.9990234375,0.08,True,False,-568,4,0,0,22,0,100.0,22,0,3.038961038961039,1.7432616094439293,3.038961038961039,0,0.0,21,341.93333333333334,342,0.0,0.0,0,False,False,NONE,0.0,0.0,0,0.0,0.0,0.0,150.16673679460928,0.0,0.0,0.0,9.96588057792897,1.0,0.9,True,160.6298774830715,89.0545672132939,162.78378830008404,150.16673679460928,-0.10865697264671326,-0.00532632227987051,-0.01065264455974102,-9.02135181427002,-0.009576806798577309,-0.363918662071228,9.99979171319796,False,IDLE,True,False,1177.7790516509087,332.46290309101187,0.00019431114196777344,3.09804371170909,0.0,3.09804371170909,NONE,0.0,0.0,0,22,0
1764635320.904694,10.499547481536865,23.850157007687848,True,342,953.8531468282486,0.9990234375,0.1,True,False,-568,5,0,0,23,0,100.0,23,0,2.9011857707509883,1.7032867552913655,2.9011857707509883,1,37.98413276672363,22,341.8,342,0.0,0.0,0,False,False,NONE,0.0,0.0,0,0.0,0.0,0.0,152.094874832764,0.0,0.0,0.0,11.894018616083684,1.0,0.9,True,160.27261346782498,89.08833777595272,162.69211140684624,152.094874832764,-0.17470335960388184,-0.006391586735844612,-0.002130528911948204,-9.155426979064941,-0.028730420395731926,-0.07661445438861847,9.999798073907023,False,IDLE,True,False,1177.7790516509087,332.46290309101187,0.0001385211944580078,3.09804371170909,0.0,3.09804371170909,NONE,0.0,0.0,0,23,0
1764635320.9471555,10.542008876800537,23.893204591654776,True,352,954.7332104671264,0.998046875,0.1,True,False,-558,5,0,0,24,0,100.0,24,0,7.0144927536231885,2.6484887678869224,7.0144927536231885,0,0.0,23,345.1333333333333,352,0.0,0.0,0,False,False,NONE,0.0,0.0,0,0.0,0.0,0.0,154.18481549124456,0.0,0.0,0.0,13.983959274564256,1.0,0.9,True,159.60386564580287,89.02181187018576,162.41021824718322,154.18481549124456,-0.19281286001205444,0.00532632227987051,0.009587380103766918,-9.155426979064941,0.028730420395731926,0.07661445438861847,9.999759203033564,False,IDLE,True,False,1175.4899146831829,331.712793923126,0.00021982192993164062,3.089964404764174,0.0,3.089964404764174,NONE,0.0,0.0,0,24,0
1764635320.9850616,10.579915046691895,23.93555582736453,True,352,954.7332104671264,0.998046875,0.1,True,False,-558,5,0,0,25,0,100.0,25,0,10.46,3.234192325759246,10.46,1,37.637948989868164,24,347.93333333333334,352,0.0,0.0,0,False,False,NONE,0.0,0.0,0,0.0,0.0,0.0,156.2323370781611,0.0,0.0,0.0,16.031480861480787,1.0,0.9,True,158.83260034552836,88.9581209064809,161.98602753154262,156.2323370781611,-0.18216021358966827,0.007456851191818714,0.012783173471689224,-9.078812599182129,0.13407529890537262,-0.22026655077934265,9.999714859510137,False,IDLE,True,False,1175.4899146831829,331.712793923126,0.00024318695068359375,3.089964404764174,0.0,3.089964404764174,NONE,0.0,0.0,0,25,0
1764635321.0277715,10.62262487411499,23.968590321990686,True,364,959.6168169379429,0.9970703125,0.1,True,False,-546,5,0,0,26,0,100.0,26,0,27.45846153846154,5.240082207223617,27.45846153846154,0,0.0,25,354.0,364,0.0,0.0,0,False,False,NONE,0.0,0.0,0,0.0,0.0,0.0,158.21027394524754,0.0,0.0,0.0,18.00941772856723,1.0,0.9,True,157.71976851613343,88.80400529292042,161.29018033324203,158.21027394524754,-0.1395496428012848,0.013848437927663326,0.001065264455974102,-9.107542991638184,0.2777273952960968,-0.20111294090747833,9.999764704738833,False,IDLE,True,False,1176.5962213073622,332.20607891718635,0.00022792816162109375,3.0938690163789255,0.0,3.0938690163789255,NONE,0.0,0.0,0,26,0
1764635321.0662243,10.661077737808228,24.007542750838454,True,380,964.0796531003588,0.9970703125,0.1,True,False,-530,5,0,0,27,0,100.0,27,0,75.64102564102564,8.69718492622904,75.64102564102564,0,0.0,26,363.8666666666667,380,0.0,0.0,0,False,False,NONE,0.0,0.0,0,0.0,0.0,0.0,159.91684501877032,0.0,0.0,0.0,19.71598880209001,1.0,0.9,True,157.1339740360106,88.82222367810651,161.01964043696736,159.91684501877032,-0.17257283627986908,-0.007456851191818714,-0.012783173471689224,-9.059659004211426,0.10534487664699554,-0.2298433631658554,9.999835582186963,False,IDLE,True,False,1175.1976060756692,332.9623215019433,0.00013518333435058594,3.0889327273258917,0.0,3.0889327273258917,NONE,0.0,0.0,0,27,0
1764635321.106161,10.701014518737793,24.033703644656544,True,380,964.0796531003588,0.9970703125,0.12000000000000001,True,False,-530,6,0,0,28,0,100.0,28,0,116.86772486772487,10.810537677087337,116.86772486772487,1,38.67387771606445,27,371.2,380,0.0,0.0,0,False,False,NONE,0.0,0.0,0,0.0,0.0,0.0,161.5112536437793,0.0,0.0,0.0,21.31039742709899,1.0,0.9,True,157.57059895519495,88.82947339253492,162.00093470593748,161.5112536437793,-0.27590349316596985,-0.002130528911948204,-0.017044231295585632,-9.107542991638184,-0.2106897532939911,-0.06703764945268631,9.999786449633193,False,IDLE,True,False,1175.1976060756692,332.9623215019433,0.00023555755615234375,3.0889327273258917,0.0,3.0889327273258917,NONE,0.0,0.0,0,28,0
1764635321.1475863,10.74243974685669,24.07177837028201,True,380,964.0796531003588,0.9970703125,0.12000000000000001,True,False,-530,6,0,0,29,0,100.0,29,0,152.2216748768473,12.33781483395043,152.2216748768473,1,80.70683479309082,28,376.0,380,0.0,0.0,0,False,False,NONE,0.0,0.0,0,0.0,0.0,0.0,161.9277130246073,0.0,0.0,0.0,21.726856807926993,1.0,0.9,True,157.34600458882295,88.61331365918528,162.3982847552234,161.9277130246073,-0.23861923813819885,0.01065264455974102,0.01065264455974102,-9.08838939666748,-0.15322890877723694,-0.2106897532939911,9.999780166460193,False,IDLE,True,False,1175.197606075669,331.8373215019433,0.00023126602172851562,3.0889327273258913,0.0,3.0889327273258913,NONE,0.0,0.0,0,29,0
1764635321.1850703,10.779923677444458,24.096292789885464,True,380,964.0796531003588,0.9970703125,0.12000000000000001,True,False,-530,6,0,0,30,0,100.0,30,0,182.59310344827585,13.512701559950026,182.59310344827585,1,118.76463890075684,29,378.93333333333334,380,0.0,0.0,0,False,False,NONE,0.0,0.0,0,0.0,0.0,0.0,161.91762910426183,0.0,0.0,0.0,21.736940728272458,1.0,0.9,True,155.37137578814452,88.89327617852324,160.85769791549168,161.91762910426183,-0.185356006026268,0.007456851191818714,0.02130528911948204,-9.059659004211426,0.2298433631658554,-0.028730420395731926,9.999834699184303,False,IDLE,True,False,1175.197606075669,331.8373215019433,0.0001418590545654297,3.0889327273258913,0.0,3.0889327273258913,NONE,0.0,0.0,0,30,0
1764635321.227627,10.82248044013977,24.932657727499297,True,380,964.0796531003588,0.9970703125,0.12000000000000001,True,False,-530,6,0,0,31,0,100.0,31,0,208.71827956989247,14.447085504346282,208.71827956989247,1,160.82358360290527,30,380.0,380,0.0,0.0,0,False,False,NONE,0.0,0.0,0,0.0,0.0,0.0,161.65684972058366,0.0,0.0,0.0,21.997720111950628,1.0,0.9,True,153.25605642523755,88.8466513887155,159.1296135733186,161.65684972058366,-0.09374327212572098,0.01065264455974102,0.004261057823896408,-9.107542991638184,0.6512228846549988,0.019153613597154617,9.999782659270725,False,IDLE,True,False,1175.197606075669,331.8373215019433,0.00024437904357910156,3.0889327273258913,0.0,3.0889327273258913,NONE,0.0,0.0,0,31,0
1764635321.2651787,10.860032081604004,24.94746147128584,True,380,964.0796531003588,0.9970703125,0.12000000000000001,True,False,-530,6,0,0,32,0,100.0,32,0,231.20967741935485,15.20558046966162,231.20967741935485,1,198.8503932952881,31,380.0,380,0.0,0.0,0,False,False,NONE,0.0,0.0,0,0.0,0.0,0.0,161.3551105656854,0.0,0.0,0.0,22.299459266848885,1.0,0.9,True,153.7166748178322,88.7959538154075,159.7663967511015,161.3551105656854,-0.041545312851667404,-0.00532632227987051,-0.014913702383637428,-9.011775016784668,0.20111294090747833,-0.3926490843296051,9.999854566781861,False,IDLE,True,False,1175.197606075669,331.8373215019433,0.0001423358917236328,3.0889327273258913,0.0,3.0889327273258913,NONE,0.0,0.0,0,32,0
1764635321.3084142,10.903267621994019,24.960542052666362,True,380,964.0796531003588,0.9970703125,0.14,True,False,-530,7,0,0,33,0,100.0,33,0,250.57954545454547,15.829704528339922,250.57954545454547,1,240.5991554260254,32,380.0,380,0.0,0.0,0,False,False,NONE,0.0,0.0,0,0.0,0.0,0.0,161.17881219684176,0.0,0.0,0.0,22.47575763569253,1.0,0.9,True,154.70944425074617,88.75888015999091,160.92912771840966,161.17881219684176,-0.11291802674531937,-0.013848437927663326,-0.012783173471689224,-9.040505409240723,0.009576806798577309,-0.14365209639072418,9.99981374798513,False,IDLE,True,False,1175.197606075669,331.8373215019433,0.00029015541076660156,3.0889327273258913,0.0,3.0889327273258913,NONE,0.0,0.0,0,33,0
1764635321.345717,10.94057035446167,24.9699320650002,True,380,964.0796531003588,0.9970703125,0.14,True,False,-530,7,0,0,34,0,100.0,34,0,267.2584670231729,16.348041687712108,267.2584670231729,1,279.4051170349121,33,380.0,380,0.0,0.0,0,False,False,NONE,0.0,0.0,0,0.0,0.0,0.0,161.10963033028418,0.0,0.0,0.0,22.544939502250116,1.0,0.9,True,155.2188416748323,88.81419291222471,161.71839958160749,161.10963033028418,-0.11824434995651245,0.004261057823896408,0.004261057823896408,-9.14585018157959,-0.17238251864910126,0.22026655077934265,9.999862280105717,False,IDLE,True,False,1175.197606075669,330.7123215019433,0.0001494884490966797,3.0889327273258913,0.0,3.0889327273258913,NONE,0.0,0.0,0,34,0
1764635321.3858118,10.98066520690918,24.9410294627472,False,0,0,0.0,0.14,True,False,0,7,0,0,34,1,97.14285714285714,0,1,267.2584670231729,16.348041687712108,267.2584670231729,0,0.0,33,380.0,0,0.0,0.0,0,False,False,NONE,0.0,0.0,0,0.0,0.0,0.0,160.97217768583852,0.0,0.0,0.0,22.682392146695776,1.0,0.9,True,153.84274944276012,88.85465343326855,160.61150108708608,160.97217768583852,-0.08309062570333481,0.008522115647792816,0.023435818031430244,-9.078812599182129,0.12449848651885986,-0.15322890877723694,9.999811312284912,False,IDLE,True,False,1175.197606075669,330.7123215019433,0.03990936279296875,3.0889327273258913,0.0,3.0889327273258913,NONE,0.0,0.0,0,35,0
1764635321.4276268,11.022480249404907,24.965476702742514,False,0,0,0.0,0.14,True,False,0,7,0,0,34,2,94.44444444444444,0,2,267.2584670231729,16.348041687712108,267.2584670231729,0,0.0,33,380.0,0,0.0,0.0,0,False,False,NONE,0.0,0.0,0,0.0,0.0,0.0,160.76299644457282,0.0,0.0,0.0,22.891573387961472,1.0,0.9,True,152.2742842787185,88.8007374225833,159.1983679205848,160.76299644457282,-0.06391586363315582,0.007456851191818714,0.024501081556081772,-9.059659004211426,0.45010992884635925,-0.2777273952960968,9.999813507167259,False,IDLE,True,False,1175.197606075669,330.7123215019433,0.0819997787475586,3.0889327273258913,0.0,3.0889327273258913,NONE,0.0,0.0,0,36,0
1764635321.465315,11.060168504714966,24.958308175044586,False,0,0,0.0,0.14,True,False,0,7,0,0,34,3,91.8918918918919,0,3,267.2584670231729,16.348041687712108,267.2584670231729,0,0.0,33,380.0,0,0.0,0.0,0,False,False,NONE,0.0,0.0,0,0.0,0.0,0.0,160.55875537463314,0.0,0.0,0.0,23.095814457901156,1.0,0.9,True,151.82848011841168,88.72925686038667,158.97722973757064,160.55875537463314,-0.14274543523788452,-0.014913702383637428,-0.02130528911948204,-9.011775016784668,0.31603461503982544,-0.24899697303771973,9.999852955892631,False,IDLE,True,False,1175.197606075669,330.7123215019433,0.11945724487304688,3.0889327273258913,0.0,3.0889327273258913,NONE,0.0,0.0,0,37,0
1764635321.507271,11.102124452590942,24.962932490743793,False,0,0,0.0,0.14,True,False,0,7,0,0,34,4,89.47368421052632,0,4,267.2584670231729,16.348041687712108,267.2584670231729,0,0.0,33,380.0,0,0.0,0.0,0,False,False,NONE,0.0,0.0,0,0.0,0.0,0.0,160.38743802696,0.0,0.0,0.0,23.26713180557428,1.0,0.9,True,152.76065512847035,88.70096735456734,160.28776122920618,160.38743802696,-0.1896170675754547,-0.007456851191818714,-0.012783173471689224,-9.040505409240723,0.028730420395731926,-0.17238251864910126,9.999880917611991,False,IDLE,True,False,1175.197606075669,330.7123215019433,0.16172051429748535,3.0889327273258913,0.0,3.0889327273258913,NONE,0.0,0.0,0,38,0
1764635321.545732,11.14058542251587,24.961155735381457,False,0,0,0.0,0.16,True,False,0,8,0,0,34,5,87.17948717948718,0,5,267.2584670231729,16.348041687712108,267.2584670231729,0,0.0,33,380.0,0,0.0,0.0,0,False,False,NONE,0.0,0.0,0,0.0,0.0,0.0,160.23043790620181,0.0,0.0,0.0,23.42413192633248,1.0,0.9,True,152.92942588597953,88.72215449253362,160.82828354764143,160.23043790620181,-0.14168016612529755,-0.003195793367922306,0.006391586735844612,-9.097966194152832,-0.2106897532939911,0.047884032130241394,9.99987198920161,False,IDLE,True,False,1175.197606075669,330.7123215019433,0.19907665252685547,3.0889327273258913,0.0,3.0889327273258913,NONE,0.0,0.0,0,39,0
1764635321.5875342,11.182387590408325,24.973219659414454,True,382,977.3911604606383,0.99609375,0.16,True,False,-528,8,0,0,35,5,87.5,1,0,284.9109243697479,16.87930461748196,284.9109243697479,0,0.0,34,380.6666666666667,382,0.0,0.0,0,False,False,NONE,0.0,0.0,0,0.0,0.0,0.0,160.072282373945,0.0,0.0,0.0,23.582287458589292,1.0,0.9,True,151.13104826219143,88.91621212665501,159.27614259292346,160.072282373945,-0.07350324839353561,0.00532632227987051,0.027696875855326653,-9.069235801696777,0.20111294090747833,0.038307227194309235,9.999879004035126,False,IDLE,True,False,1190.2285366910548,329.497585990956,0.00023126602172851562,3.141983070674311,0.0,3.141983070674311,NONE,0.0,0.0,0,40,0
1764635321.6257145,11.22056794166565,24.96587534497176,True,382,977.3911604606383,0.99609375,0.16,True,False,-528,8,0,0,36,5,87.8048780487805,2,0,300.1777777777778,17.325639318010108,300.1777777777778,1,38.208961486816406,35,381.2,382,0.0,0.0,0,False,False,NONE,0.0,0.0,0,0.0,0.0,0.0,159.96374653844921,0.0,0.0,0.0,23.690823294085078,1.0,0.9,True,149.79735049711832,88.6957055824565,158.04425521836083,159.96374653844921,-0.017044231295585632,0.011717909015715122,0.024501081556081772,-9.097966194152832,0.5650315880775452,-0.09576806426048279,9.999873465301581,False,IDLE,True,False,1190.2285366910548,329.497585990956,0.0002703666687011719,3.141983070674311,0.0,3.141983070674311,NONE,0.0,0.0,0,41,0
1764635321.667893,11.262746334075928,24.964883977552134,True,438,988.0930775484253,1.0,0.16,True,False,-472,8,0,0,37,5,88.09523809523809,3,0,483.5525525525525,21.989828388428876,483.5525525525525,0,0.0,36,400.26666666666665,438,0.0,0.0,0,False,False,NONE,0.0,0.0,0,0.0,0.0,0.0,159.7859195339339,0.0,0.0,0.0,23.868650298600386,1.0,0.9,True,149.67109898058555,88.69987566766325,157.9881267059486,159.7859195339339,-0.08735167980194092,-0.001065264455974102,-0.015978965908288956,-8.992621421813965,0.40222588181495667,-0.47884035110473633,9.999893166911374,False,IDLE,True,False,1180.9359321615352,332.2242463437786,0.00021266937255859375,3.109185642923065,0.0,3.109185642923065,NONE,0.0,0.0,0,42,0
1764635321.705391,11.300244331359863,24.970342862510158,True,438,988.0930775484253,1.0,0.16,True,False,-472,8,0,0,38,5,88.37209302325581,4,0,647.1977240398293,25.440081054112806,647.1977240398293,1,37.90569305419922,37,415.46666666666664,438,0.0,0.0,0,False,False,NONE,0.0,0.0,0,0.0,0.0,0.0,159.64432188903365,0.0,0.0,0.0,24.010247943500644,1.0,0.9,True,150.8916704315956,88.53479758503437,159.51315126940682,159.64432188903365,-0.22050973773002625,-0.01065264455974102,-0.012783173471689224,-9.097966194152832,-0.181959331035614,-0.4884171485900879,9.99992193238635,False,IDLE,True,False,1180.9359321615352,332.2242463437786,0.0001251697540283203,3.109185642923065,0.0,3.109185642923065,NONE,0.0,0.0,0,43,0
1764635321.7495148,11.34436821937561,24.961124909586136,True,469,995.118542878092,1.0,0.18,True,False,-441,9,0,0,39,5,88.63636363636364,5,0,944.8920377867746,30.739096242192524,944.8920377867746,0,0.0,38,437.1333333333333,469,0.0,0.0,0,False,False,NONE,0.0,0.0,0,0.0,0.0,0.0,159.52637327531562,0.0,0.0,0.0,24.128196557218672,1.0,0.9,True,151.44543967782008,88.66744904456708,160.53891344442727,159.52637327531562,-0.23009711503982544,-0.017044231295585632,0.002130528911948204,-9.117119789123535,-0.45010992884635925,0.009576806798577309,9.9999049585879,False,IDLE,True,False,1177.6557123616233,333.82132301522313,0.00021886825561523438,3.0976083965704353,0.0,3.0976083965704353,NONE,0.0,0.0,0,44,0
1764635321.786817,11.381670475006104,24.95385522798126,True,469,995.118542878092,1.0,0.18,True,False,-441,9,0,0,40,5,88.88888888888889,6,0,1211.9871794871794,34.81360624076712,1211.9871794871794,1,37.96076774597168,39,452.8666666666667,469,0.0,0.0,0,False,False,NONE,0.0,0.0,0,0.0,0.0,0.0,159.38426127905015,0.0,0.0,0.0,24.270308553484142,1.0,0.9,True,149.71584238217858,88.77984984832372,159.19038112443152,159.38426127905015,-0.15978966653347015,-0.015978965908288956,0.02130528911948204,-9.136273384094238,-0.047884032130241394,0.2106897532939911,9.999858540310846,False,IDLE,True,False,1177.6557123616233,332.69632301522313,0.0002617835998535156,3.0976083965704344,0.0,3.0976083965704344,NONE,0.0,0.0,0,45,0
1764635321.8288555,11.42370891571045,24.960594331059763,True,469,995.118542878092,1.0,0.18,True,False,-441,9,0,0,41,5,89.13043478260869,7,0,1451.871951219512,38.10343752497289,1451.871951219512,1,79.94771003723145,40,462.8,469,0.0,0.0,0,False,False,NONE,0.0,0.0,0,0.0,0.0,0.0,159.2334202407799,0.0,0.0,0.0,24.421149591754386,1.0,0.9,True,147.99102118471237,88.67797216912996,157.68995753788224,159.2334202407799,-0.09374327212572098,0.008522115647792816,0.024501081556081772,-9.136273384094238,0.28730419278144836,0.19153612852096558,9.99985819478646,False,IDLE,True,False,1177.6557123616233,332.69632301522313,0.00032067298889160156,3.0976083965704344,0.0,3.0976083965704344,NONE,0.0,0.0,0,46,0
1764635321.8662586,11.461112022399902,24.962663167678816,True,469,995.118542878092,1.0,0.18,True,False,-441,9,0,0,42,5,89.36170212765957,8,0,1667.5029036004646,40.83506953098604,1667.5029036004646,1,117.37418174743652,41,466.93333333333334,469,0.0,0.0,0,False,False,NONE,0.0,0.0,0,0.0,0.0,0.0,159.0239136558801,0.0,0.0,0.0,24.630656176654185,1.0,0.9,True,147.06319142151034,88.71585308368647,156.88216388857262,159.0239136558801,-0.041545312851667404,0.01810949482023716,0.004261057823896408,-8.973467826843262,0.6703764796257019,-0.33518823981285095,9.999845182502538,False,IDLE,True,False,1177.6557123616233,332.69632301522313,0.00026726722717285156,3.0976083965704344,0.0,3.0976083965704344,NONE,0.0,0.0,0,47,0
1764635321.9089952,11.503848552703857,24.960424119012615,True,469,995.118542878092,1.0,0.18,True,False,-441,9,0,0,43,5,89.58333333333334,9,0,1861.4673311184938,43.14472541480006,1861.4673311184938,1,160.13836860656738,42,469.0,469,0.0,0.0,0,False,False,NONE,0.0,0.0,0,0.0,0.0,0.0,158.68137469692238,0.0,0.0,0.0,24.973195135611917,1.0,0.9,True,146.95489339373063,88.50865277577202,156.86237163962895,158.68137469692238,-0.0,-0.00532632227987051,-0.006391586735844612,-9.030928611755371,0.4692635238170624,-0.4692635238170624,9.999863507226518,False,IDLE,True,False,1177.6557123616233,332.69632301522313,0.0003058910369873047,3.0976083965704344,0.0,3.0976083965704344,NONE,0.0,0.0,0,48,0
1764635321.9478903,11.542743682861328,24.971748011905575,True,469,995.118542878092,1.0,0.18,True,False,-441,9,0,0,44,5,89.79591836734694,10,0,2036.0359408033826,45.122454950981805,2036.0359408033826,1,199.5096206665039,43,469.0,469,0.0,0.0,0,False,False,NONE,0.0,0.0,0,0.0,0.0,0.0,158.35244042864838,0.0,0.0,0.0,25.302129403885914,1.0,0.9,True,147.6620940491897,88.71743506981147,157.53894086490138,158.35244042864838,-0.015978965908288956,-0.01810949482023716,-0.026631610468029976,-9.107542991638184,0.009576806798577309,-0.15322890877723694,9.999868433600813,False,IDLE,True,False,1177.6557123616233,332.69632301522313,0.00017189979553222656,3.0976083965704344,0.0,3.0976083965704344,NONE,0.0,0.0,0,49,0
1764635321.986357,11.581210374832153,24.97407688887008,True,469,995.118542878092,1.0,0.19999999999999998,True,False,-441,10,0,0,45,5,90.0,11,0,2193.2070707070707,46.8316887449841,2193.2070707070707,1,237.19382286071777,44,469.0,469,0.0,0.0,0,False,False,NONE,0.0,0.0,0,0.0,0.0,0.0,158.3546219311468,0.0,0.0,0.0,25.30431090638433,1.0,0.9,True,149.13855289614494,88.70204111371548,159.29795761790774,158.3546219311468,-0.1810949593782425,0.004261057823896408,-0.013848437927663326,-9.14585018157959,-0.5554547905921936,-0.028730420395731926,9.999904156649805,False,IDLE,True,False,1177.6557123616233,332.69632301522313,0.0001571178436279297,3.0976083965704344,0.0,3.0976083965704344,NONE,0.0,0.0,0,50,0
1764635322.0290167,11.623870134353638,24.954095667324797,True,469,995.118542878092,1.0,0.19999999999999998,True,False,-441,10,0,0,46,5,90.19607843137256,12,0,2334.743961352657,48.31918833499438,2334.743961352657,1,280.1077365875244,45,469.0,469,0.0,0.0,0,False,False,NONE,0.0,0.0,0,0.0,0.0,0.0,158.4886505431976,0.0,0.0,0.0,25.43833951843513,1.0,0.9,True,148.7776153333548,88.85237057667568,159.38454133886873,158.4886505431976,-0.17044231295585632,0.00532632227987051,0.026631610468029976,-9.08838939666748,-0.23942017555236816,-0.38307225704193115,9.99987209708056,False,IDLE,True,False,1177.6557123616233,331.57132301522313,0.00031280517578125,3.097608396570435,0.0,3.097608396570435,NONE,0.0,0.0,0,51,0
1764635322.0662994,11.661152839660645,24.958206575549188,False,0,0,0.0,0.19999999999999998,True,False,0,10,0,0,46,6,88.46153846153845,0,1,2334.743961352657,48.31918833499438,2334.743961352657,0,0.0,45,469.0,0,0.0,0.0,0,False,False,NONE,0.0,0.0,0,0.0,0.0,0.0,158.27896539901633,0.0,0.0,0.0,25.648024662616393,1.0,0.9,True,144.7820583647148,88.6226413253747,155.89127526413583,158.27896539901633,-0.1299622654914856,0.003195793367922306,0.02130528911948204,-8.96389102935791,0.6607996821403503,-0.181959331035614,9.999874740115542,False,IDLE,True,False,1177.6557123616233,331.57132301522313,0.037712812423706055,3.097608396570435,0.0,3.097608396570435,NONE,0.0,0.0,0,52,0
1764635322.1090894,11.703942775726318,24.964323611127234,False,0,0,0.0,0.19999999999999998,True,False,0,10,0,0,46,7,86.79245283018868,0,2,2334.743961352657,48.31918833499438,2334.743961352657,0,0.0,45,469.0,0,0.0,0.0,0,False,False,NONE,0.0,0.0,0,0.0,0.0,0.0,157.83778142750234,0.0,0.0,0.0,26.089208634130387,1.0,0.9,True,143.6939663999446,88.56485624503924,155.10131155426697,157.83778142750234,-0.12357067316770554,-0.001065264455974102,-0.026631610468029976,-9.040505409240723,0.4596867263317108,-0.13407529890537262,9.999866937212673,False,IDLE,True,False,1177.6557123616233,331.57132301522313,0.08038640022277832,3.097608396570435,0.0,3.097608396570435,NONE,0.0,0.0,0,53,0
1764635322.1464584,11.74131178855896,24.96888055692713,False,0,0,0.0,0.19999999999999998,True,False,0,10,0,0,46,8,85.18518518518519,0,3,2334.743961352657,48.31918833499438,2334.743961352657,0,0.0,45,469.0,0,0.0,0.0,0,False,False,NONE,0.0,0.0,0,0.0,0.0,0.0,157.60878157514898,0.0,0.0,0.0,26.31820848648374,1.0,0.9,True,146.34776613036215,88.62376062711297,158.24891492089387,157.60878157514898,-0.3014698326587677,0.004261057823896408,-0.034088462591171265,-9.040505409240723,-0.363918662071228,-0.4596867263317108,9.999877083487862,False,IDLE,True,False,1177.6557123616233,331.57132301522313,0.11770987510681152,3.097608396570435,0.0,3.097608396570435,NONE,0.0,0.0,0,54,0
1764635322.1916258,11.786479234695435,24.95724468852022,True,525,1007.3213907877604,1.0,0.21999999999999997,True,False,-385,11,0,0,47,8,85.45454545454545,1,0,2747.0240518038854,52.41206017515325,2747.0240518038854,0,0.0,46,487.6666666666667,525,0.0,0.0,0,False,False,NONE,0.0,0.0,0,0.0,0.0,0.0,157.6548860718379,0.0,0.0,0.0,26.364312983172653,1.0,0.9,True,146.8745796413484,88.50409987505942,159.65142609132047,157.6548860718379,-0.3579288423061371,-0.004261057823896408,0.011717909015715122,-9.117119789123535,-0.4884171485900879,-0.028730420395731926,9.999896830842896,False,IDLE,True,False,1174.9427743845872,334.21174267143834,0.0009584426879882812,3.088033321357366,3.5,1.1462501747567946,NONE,0.0,0.0,0,55,1
1764635322.2272744,11.82212781906128,24.966433143399293,True,525,1007.3213907877604,1.0,0.21999999999999997,True,False,-385,11,0,0,48,8,85.71428571428571,2,0,3122.877659574468,55.88271342351289,3122.877659574468,1,37.52541542053223,47,502.6,525,0.0,0.0,0,False,False,NONE,0.0,0.0,0,0.0,0.0,0.0,157.70822339109833,0.0,0.0,0.0,26.41765030243309,1.0,0.9,True,144.83972193811928,88.77347144296168,158.22333073048685,157.70822339109833,-0.2865561246871948,-0.004261057823896408,0.04261057823896408,-9.117119789123535,-0.028730420395731926,0.05746084079146385,9.999889051442198,False,IDLE,True,False,1174.942774384587,333.08674267143834,0.0004029273986816406,3.0880333213573663,3.5000000000000004,1.0173357679151689,NONE,0.0,0.0,0,56,0
1764635322.2711143,11.865967750549316,24.958040835762763,True,526,1014.6662902832031,1.0,0.21999999999999997,True,False,-384,11,0,0,49,8,85.96491228070175,3,0,3471.5042517006805,58.9194726020242,3471.5042517006805,0,0.0,48,514.1333333333333,526,0.0,0.0,0,False,False,NONE,0.0,0.0,0,0.0,0.0,0.0,157.5425442969301,0.0,0.0,0.0,26.58332939660133,1.0,0.9,True,141.3061202265119,88.70734759256835,155.22537294689022,157.5425442969301,-0.22903184592723846,0.006391586735844612,0.04793689772486687,-9.069235801696777,0.6991068720817566,0.17238251864910126,9.999914588319253,False,IDLE,True,False,1182.0539299227662,333.17611246732554,0.0009634494781494141,3.1131315173744696,3.4999999999999996,1.1663379389938502,NONE,0.0,0.0,0,57,2
1764635322.3093548,11.904208183288574,24.954881465746038,True,526,1014.6662902832031,1.0,0.21999999999999997,True,False,-384,11,0,0,50,8,86.20689655172413,4,0,3789.691428571429,61.56046969095857,3789.691428571429,1,38.16843032836914,49,521.8666666666667,526,0.0,0.0,0,False,False,NONE,0.0,0.0,0,0.0,0.0,0.0,157.29147538421026,0.0,0.0,0.0,26.83439830932116,1.0,0.9,True,140.03552190684567,88.48381322523319,154.35168251243059,157.29147538421026,-0.1576591283082962,0.011717909015715122,-0.002130528911948204,-8.973467826843262,0.9576807022094727,-0.3447650372982025,9.999901016162811,False,IDLE,True,False,1182.0539299227662,333.17611246732554,0.0011682510375976562,3.1131315173744696,3.4999999999999996,1.1663379389938502,NONE,0.0,0.0,0,58,2
1764635322.3527193,11.947572708129883,24.93260467422706,True,531,1019.6052551269531,1.0,0.21999999999999997,True,False,-379,11,0,0,51,8,86.4406779661017,5,0,4107.490196078431,64.08970429077068,4107.490196078431,0,0.0,50,527.4666666666667,531,0.0,0.0,0,False,False,NONE,0.0,0.0,0,0.0,0.0,0.0,157.1114367628813,0.0,0.0,0.0,27.014436930650106,1.0,0.9,True,141.18744281994276,88.65282568339447,155.73855465161176,157.1114367628813,-0.09693906456232071,-0.002130528911948204,-0.03302319720387459,-9.050082206726074,0.5171475410461426,-0.4884171485900879,9.999911341402559,False,IDLE,True,False,1185.7216053846773,333.44726803614117,0.0010035037994384766,3.126076254298861,3.5000000000000004,1.0888299688159213,NONE,0.0,0.0,0,59,2
1764635322.3899963,11.984849691390991,24.918443298844185,True,531,1019.6052551269531,1.0,0.21999999999999997,True,False,-379,11,0,0,52,8,86.66666666666667,6,0,4397.984917043741,66.31730480835105,4397.984917043741,1,38.625478744506836,51,528.9333333333333,531,0.0,0.0,0,False,False,NONE,0.0,0.0,0,0.0,0.0,0.0,156.8429204609977,0.0,0.0,0.0,27.282953232533714,1.0,0.9,True,141.8973556941479,88.5506264039871,156.61279459907155,156.8429204609977,-0.03302319720387459,-0.024501081556081772,-0.02130528911948204,-9.08838939666748,-0.10534487664699554,0.047884032130241394,9.99988993130084,False,IDLE,True,False,1185.7216053846773,333.44726803614117,0.0004169940948486328,3.126076254298861,3.5000000000000004,1.0888299688159213,NONE,0.0,0.0,0,60,2
1764635322.4367435,12.031596899032593,24.892990593758917,True,531,1019.6052551269531,1.0,0.23999999999999996,True,False,-379,12,0,0,53,8,86.88524590163934,7,0,4663.574746008709,68.29037081469619,4663.574746008709,1,81.8486213684082,52,530.0,531,0.0,0.0,0,False,False,NONE,0.0,0.0,0,0.0,0.0,0.0,156.6052433246427,0.0,0.0,0.0,27.52063036888873,1.0,0.9,True,142.25264945855469,88.68522659533826,157.00776997531867,156.6052433246427,-0.026631610468029976,-0.00532632227987051,0.004261057823896408,-9.136273384094238,-0.19153612852096558,0.24899697303771973,9.999798481734183,False,IDLE,True,False,1185.7216053846773,333.44726803614117,0.001107931137084961,3.126076254298861,3.5000000000000004,1.210934628149986,NONE,0.0,0.0,0,61,2
1764635322.471989,12.066842317581177,24.896557669676547,True,531,1019.6052551269531,1.0,0.23999999999999996,True,False,-379,12,0,0,54,8,87.09677419354838,8,0,4906.417889587701,70.04582706762552,4906.417889587701,1,119.77863311767578,53,530.6666666666666,531,0.0,0.0,0,False,False,NONE,0.0,0.0,0,0.0,0.0,0.0,156.7126811782754,0.0,0.0,0.0,27.62806822252145,1.0,0.9,True,142.1722738260224,88.6297278235739,156.96565380046303,156.7126811782754,-0.013848437927663326,0.007456851191818714,0.019174760207533836,-9.078812599182129,-0.07661445438861847,-0.14365209639072418,9.999896481262763,False,IDLE,True,False,1185.7216053846773,332.32226803614117,0.0007677078247070312,3.126076254298862,3.5,1.0951988876658594,NONE,0.0,0.0,0,62,1
1764635322.5150898,12.109943151473999,24.88291455749787,True,531,1019.6052551269531,1.0,0.23999999999999996,True,False,-379,12,0,0,55,8,87.3015873015873,9,0,5128.459259259259,71.61326175548254,5128.459259259259,1,162.09912300109863,54,531.0,531,0.0,0.0,0,False,False,NONE,0.0,0.0,0,0.0,0.0,0.0,156.79915511182654,0.0,0.0,0.0,27.714542156072582,1.0,0.9,True,141.05912910583837,88.40012955389211,155.96605088977836,156.79915511182654,-0.027696875855326653,-0.008522115647792816,0.015978965908288956,-9.107542991638184,0.35434186458587646,-0.3926490843296051,9.999914548483915,False,IDLE,True,False,1185.7216053846773,332.32226803614117,0.0010676383972167969,3.126076254298862,3.5,1.1468453424627172,NONE,0.0,0.0,0,63,2
1764635322.553164,12.148017406463623,24.872336600149616,True,531,1019.6052551269531,1.0,0.23999999999999996,True,False,-379,12,0,0,56,8,87.5,10,0,5331.454545454545,73.01681001971083,5331.454545454545,1,201.97534561157227,55,531.0,531,0.0,0.0,0,False,False,NONE,0.0,0.0,0,0.0,0.0,0.0,156.55935823459586,0.0,0.0,0.0,27.954339033303256,1.0,0.9,True,140.79300202163427,88.5175694912093,155.8509461485871,156.55935823459586,-0.13635385036468506,-0.004261057823896408,-0.02130528911948204,-9.059659004211426,0.17238251864910126,-0.10534487664699554,9.999937266504926,False,IDLE,True,False,1185.7216053846773,332.32226803614117,0.00044655799865722656,3.126076254298862,3.4999999999999996,1.0788478065526805,NONE,0.0,0.0,0,64,2
1764635322.5967367,12.191590070724487,24.86774755528942,True,531,1019.6052551269531,1.0,0.23999999999999996,True,False,-379,12,0,0,57,8,87.6923076923077,11,0,5516.991228070176,74.27645136966477,5516.991228070176,1,241.23048782348633,56,531.0,531,0.0,0.0,0,False,False,NONE,0.0,0.0,0,0.0,0.0,0.0,156.32387861795775,0.0,0.0,0.0,28.189818649941373,1.0,0.9,True,141.89961086797558,88.54501713596451,157.29662992493942,156.32387861795775,-0.18855179846286774,-0.011717909015715122,-0.020240023732185364,-9.136273384094238,-0.181959331035614,-0.05746084079146385,9.999897297666868,False,IDLE,True,False,1185.7216053846773,332.32226803614117,0.003332853317260742,3.126076254298862,3.5,1.1641477628996555,NONE,0.0,0.0,0,65,2
1764635322.6364791,12.231332540512085,24.858976969069136,True,531,1019.6052551269531,1.0,0.23999999999999996,True,False,-379,12,0,0,58,8,87.87878787878788,12,0,5686.506957047792,75.40893154691818,5686.506957047792,1,283.2367420196533,57,531.0,531,0.0,0.0,0,False,False,NONE,0.0,0.0,0,0.0,0.0,0.0,156.25335437391203,0.0,0.0,0.0,28.260342893987087,1.0,0.9,True,141.6556642346589,88.65979797386998,157.5180882900297,156.25335437391203,-0.1438107043504715,-0.001065264455974102,0.02876213937997818,-9.107542991638184,-0.19153612852096558,-0.07661445438861847,9.999901888104901,False,IDLE,True,False,1185.7216053846773,332.32226803614117,0.001132965087890625,3.126076254298862,3.5,1.144675221909793,NONE,0.0,0.0,0,66,2
1764635322.6742902,12.26914358139038,24.85348177751892,False,0,0,0.0,0.25999999999999995,True,False,0,13,0,0,58,9,86.56716417910447,0,1,5686.506957047792,75.40893154691818,5686.506957047792,0,0.0,57,531.0,0,0.0,0.0,0,False,False,NONE,0.0,0.0,0,0.0,0.0,0.0,156.29011043473452,0.0,0.0,0.0,28.29709895480957,1.0,0.9,True,139.44147739986687,88.47623320654778,155.59293355511494,156.29011043473452,-0.08948221057653427,-0.006391586735844612,0.03302319720387459,-9.069235801696777,0.4596867263317108,-0.028730420395731926,9.99991239083594,False,IDLE,True,False,1185.7216053846773,332.32226803614117,0.038492679595947266,3.126076254298862,3.4999999999999996,1.1480246819262372,NONE,0.0,0.0,0,67,0
1764635322.7166235,12.311476945877075,24.856979105689884,True,589,1027.0217058501712,0.73388671875,0.25999999999999995,True,False,-321,13,0,0,59,9,86.76470588235294,1,0,6138.45821157218,78.34831339328358,6138.45821157218,0,0.0,58,550.3333333333334,589,0.0,0.0,0,False,False,NONE,0.0,0.0,0,0.0,0.0,0.0,156.28718522834382,0.0,0.0,0.0,28.30002416120027,1.0,0.9,True,138.072207980091,88.51298929537549,154.32243044852368,156.28718522834382,-0.009587380103766918,0.006391586735844612,0.004261057823896408,-9.08838939666748,0.7565677165985107,-0.09576806426048279,9.999911715782039,False,IDLE,True,False,1179.6573774611397,334.13274883064497,0.00107574462890625,3.1046730969216694,3.5,1.0403732685173623,NONE,0.0,0.0,0,68,2
1764635322.7542882,12.349141597747803,24.85690879446302,True,589,1027.0217058501712,0.73388671875,0.25999999999999995,True,False,-321,13,0,0,60,9,86.95652173913044,2,0,6557.066666666667,80.97571652456473,6557.066666666667,1,37.35685348510742,59,565.8,589,0.0,0.0,0,False,False,NONE,0.0,0.0,0,0.0,0.0,0.0,156.2541696626069,0.0,0.0,0.0,28.333039726937187,1.0,0.9,True,139.15091731509497,88.44323145109712,155.4083989942425,156.2541696626069,0.027696875855326653,-0.003195793367922306,-0.01810949482023716,-9.059659004211426,0.12449848651885986,-0.22026655077934265,9.999908641599404,False,IDLE,True,False,1179.6573774611397,334.13274883064497,0.001087188720703125,3.1046730969216694,3.5000000000000004,1.0814410223245738,NONE,0.0,0.0,0,69,2
1764635322.7968605,12.391713857650757,24.86061833067315,True,587,1033.2264758589668,0.76611328125,0.25999999999999995,True,False,-323,13,0,0,61,9,87.14285714285714,3,0,6933.518032786886,83.26774905560306,6933.518032786886,0,0.0,60,576.7333333333333,587,0.0,0.0,0,False,False,NONE,0.0,0.0,0,0.0,0.0,0.0,156.21890211704402,0.0,0.0,0.0,28.36830727250006,1.0,0.9,True,140.0410703124944,88.5992552369624,156.2601191434428,156.21890211704402,-0.029827404767274857,-0.013848437927663326,-0.02876213937997818,-9.078812599182129,-0.26815059781074524,-0.17238251864910126,9.999913148271942,False,IDLE,True,False,1186.2777836437504,334.06147373783006,0.0010914802551269531,3.128039236389707,3.5000000000000004,1.0102209385101841,NONE,0.0,0.0,0,70,2
1764635322.83583,12.430683374404907,24.846003243947997,True,587,1033.2264758589668,0.76611328125,0.25999999999999995,True,False,-323,13,0,0,62,9,87.32394366197182,4,0,7282.214701216288,85.33589339320406,7282.214701216288,1,38.782358169555664,61,583.9333333333333,587,0.0,0.0,0,False,False,NONE,0.0,0.0,0,0.0,0.0,0.0,156.19174711644973,0.0,0.0,0.0,28.395462273094353,1.0,0.9,True,140.2692408518531,88.58924972136684,156.73621996937584,156.19174711644973,-0.20240023732185364,0.009587380103766918,-0.009587380103766918,-9.097966194152832,-0.5171475410461426,-0.047884032130241394,9.999893350798372,False,IDLE,True,False,1186.2777836437504,334.06147373783006,0.001092672348022461,3.128039236389707,3.5000000000000004,1.060921690715947,NONE,0.0,0.0,0,71,2
1764635322.876574,12.47142744064331,24.850618221144778,True,587,1038.0407331832732,0.79150390625,0.27999999999999997,True,False,-323,14,0,0,63,9,87.5,5,0,7605.221710189452,87.20792229029111,7605.221710189452,0,0.0,62,587.4,587,0.0,0.0,0,False,False,NONE,0.0,0.0,0,0.0,0.0,0.0,156.19993607782982,0.0,0.0,0.0,28.403651234474438,1.0,0.9,True,139.98429982616594,88.69039023429062,157.04754341426366,156.19993607782982,-0.28016453981399536,0.006391586735844612,0.019174760207533836,-9.040505409240723,-0.2777273952960968,-0.2298433631658554,9.999942647415184,False,IDLE,True,False,1191.1360351892538,334.07384057366806,0.0004546642303466797,3.1451860065503077,3.5000000000000004,1.0278027988014695,NONE,0.0,0.0,0,72,2
1764635322.915695,12.51054835319519,24.843450873497783,True,587,1038.0407331832732,0.79150390625,0.27999999999999997,True,False,-323,14,0,0,64,9,87.67123287671232,6,0,7904.428571428572,88.906853343421,7904.428571428572,1,38.72203826904297,63,587.1333333333333,587,0.0,0.0,0,False,False,NONE,0.0,0.0,0,0.0,0.0,0.0,156.16062252307776,0.0,0.0,0.0,28.442964789226494,1.0,0.9,True,138.0109469778639,88.5307629611328,155.57291534225794,156.16062252307776,-0.2599245309829712,0.0,0.02130528911948204,-9.002198219299316,0.4118026793003082,-0.26815059781074524,9.999911883882422,False,IDLE,True,False,1191.1360351892536,332.94884057366806,0.0010726451873779297,3.145186006550307,3.5000000000000004,1.0992431716761644,NONE,0.0,0.0,0,73,2
1764635322.9591236,12.553977012634277,24.86615375322236,True,588,1039.0969116210938,0.91943359375,0.27999999999999997,True,False,-322,14,0,0,65,9,87.83783783783784,7,0,8186.547115384616,90.47953976112288,8186.547115384616,0,0.0,64,587.3333333333334,588,0.0,0.0,0,False,False,NONE,0.0,0.0,0,0.0,0.0,0.0,155.92113336528058,0.0,0.0,0.0,28.682453947023674,1.0,0.9,True,135.35097736681863,88.4785627354207,153.45605457061558,155.92113336528058,-0.16618125140666962,-0.013848437927663326,-0.007456851191818714,-9.078812599182129,0.8619126081466675,0.08619125932455063,9.999916103139013,False,IDLE,True,False,1192.1717530259791,332.9587877955379,0.0011227130889892578,3.148841481268162,3.5000000000000004,1.052809481024541,NONE,0.0,0.0,0,74,2
1764635322.9933984,12.588251829147339,24.86776374034698,True,588,1039.0969116210938,0.91943359375,0.27999999999999997,True,False,-322,14,0,0,66,9,88.0,8,0,8447.882517482518,91.91236324609719,8447.882517482518,1,37.67824172973633,65,587.6,588,0.0,0.0,0,False,False,NONE,0.0,0.0,0,0.0,0.0,0.0,155.54442414543246,0.0,0.0,0.0,29.059163166871798,1.0,0.9,True,135.1764061040915,88.51766850033916,153.52953772645807,155.54442414543246,-0.09161274135112762,0.006391586735844612,-0.017044231295585632,-9.078812599182129,0.5171475410461426,0.05746084079146385,9.999919256226505,False,IDLE,True,False,1192.1717530259791,332.9587877955379,0.0004839897155761719,3.148841481268162,3.4999999999999996,1.1338536554428242,NONE,0.0,0.0,0,75,2
1764635323.0392432,12.634096622467041,24.85098125797541,True,588,1039.0969116210938,0.91943359375,0.27999999999999997,True,False,-322,14,0,0,67,9,88.1578947368421,9,0,8689.9131614654,93.21970371903893,8689.9131614654,1,80.43265342712402,66,587.8,588,0.0,0.0,0,False,False,NONE,0.0,0.0,0,0.0,0.0,0.0,155.29847420858295,0.0,0.0,0.0,29.30511310372131,1.0,0.9,True,136.54388413853064,88.50858716787866,155.0585889215345,155.29847420858295,-0.044741105288267136,-0.008522115647792816,-0.01065264455974102,-9.050082206726074,-0.07661445438861847,-0.24899697303771973,9.999933933393379,False,IDLE,True,False,1192.1717530259791,332.9587877955379,0.001148223876953125,3.148841481268162,3.4999999999999996,1.074022328793427,NONE,0.0,0.0,0,76,2
1764635323.0780647,12.67291808128357,24.82820713337335,True,588,1039.0969116210938,0.91943359375,0.3,True,False,-322,15,0,0,68,9,88.31168831168831,10,0,8913.99824407375,94.4139727162974,8913.99824407375,1,121.0787296295166,67,587.9333333333333,588,0.0,0.0,0,False,False,NONE,0.0,0.0,0,0.0,0.0,0.0,155.3056833444325,0.0,0.0,0.0,29.312322239570875,1.0,0.9,True,136.99269648393414,88.498550342656,155.66502491361055,155.3056833444325,-0.09480853378772736,-0.007456851191818714,-0.002130528911948204,-9.097966194152832,-0.26815059781074524,-0.14365209639072418,9.999964020598425,False,IDLE,True,False,1192.1717530259791,332.9587877955379,0.0004634857177734375,3.148841481268162,3.499999999999999,1.107727157874268,NONE,0.0,0.0,0,77,3
1764635323.1158419,12.710695266723633,24.84642681676913,True,588,1039.0969116210938,0.91943359375,0.3,True,False,-322,15,0,0,69,9,88.46153846153845,11,0,9121.38874680307,95.5059618390552,9121.38874680307,1,158.62107276916504,68,588.0,588,0.0,0.0,0,False,False,NONE,0.0,0.0,0,0.0,0.0,0.0,155.3546434970374,0.0,0.0,0.0,29.361282392175752,1.0,0.9,True,135.96608234436565,88.54214508620657,154.81203197457234,155.3546434970374,-0.05432848632335663,-0.003195793367922306,0.027696875855326653,-9.050082206726074,0.19153612852096558,0.05746084079146385,9.999946875732158,False,IDLE,True,False,1192.1717530259791,331.8337877955379,0.0010685920715332031,3.1488414812681613,3.5,1.1775677588832465,NONE,0.0,0.0,0,78,1
1764635323.1564264,12.751279830932617,24.83722306674355,True,588,1039.0969116210938,0.91943359375,0.3,True,False,-322,15,0,0,70,9,88.60759493670885,12,0,9313.237267080745,96.505115237902,9313.237267080745,1,200.76417922973633,69,588.0,588,0.0,0.0,0,False,False,NONE,0.0,0.0,0,0.0,0.0,0.0,155.1830459886025,0.0,0.0,0.0,29.532879900610652,1.0,0.9,True,134.78515146090004,88.45715272747292,153.69242390989365,155.1830459886025,-0.004261057823896408,0.009587380103766918,-0.001065264455974102,-9.050082206726074,0.6033388376235962,-0.12449848651885986,9.999954006551471,False,IDLE,True,False,1192.1717530259791,331.8337877955379,0.0004494190216064453,3.1488414812681613,3.5000000000000004,1.1259389309157566,NONE,0.0,0.0,0,79,2
1764635323.1955307,12.79038405418396,24.827012089223125,True,588,1039.0969116210938,0.91943359375,0.3,True,False,-322,15,0,0,71,9,88.75,13,0,9490.606841046278,97.41974564248399,9490.606841046278,1,238.861083984375,70,588.0,588,0.0,0.0,0,False,False,NONE,0.0,0.0,0,0.0,0.0,0.0,155.00381201094604,0.0,0.0,0.0,29.712113878267104,1.0,0.9,True,135.60351925459904,88.58711860878017,154.46777936687815,155.00381201094604,0.008522115647792816,-0.012783173471689224,-0.01810949482023716,-9.011775016784668,0.1628057211637497,-0.2298433631658554,9.999973476003428,False,IDLE,True,False,1192.1717530259791,331.8337877955379,0.0010693073272705078,3.1488414812681613,3.5000000000000004,1.1259389309157566,NONE,0.0,0.0,0,80,2
1764635323.2383761,12.833229541778564,24.833851243879298,True,588,1039.0969116210938,0.91943359375,0.3,True,False,-322,15,0,0,72,9,88.88888888888889,14,0,9654.478873239437,98.25720774192312,9654.478873239437,1,281.83460235595703,71,588.0,588,0.0,0.0,0,False,False,NONE,0.0,0.0,0,0.0,0.0,0.0,154.87223654643483,0.0,0.0,0.0,29.843689342778305,1.0,0.9,True,136.42190564210168,88.5494960697586,155.42046532426403,154.87223654643483,-0.11504855751991272,-0.006391586735844612,-0.014913702383637428,-9.02135181427002,-0.33518823981285095,-0.07661445438861847,9.999947430451385,False,IDLE,True,False,1192.1717530259791,331.8337877955379,0.0007202625274658203,3.1488414812681613,3.4999999999999996,1.1755769700558707,NONE,0.0,0.0,0,81,2
1764635323.2741184,12.868971824645996,24.839572827468135,False,0,0,0.0,0.3,True,False,0,15,0,0,72,10,87.8048780487805,0,1,9654.478873239437,98.25720774192312,9654.478873239437,0,0.0,71,588.0,0,0.0,0.0,0,False,False,NONE,0.0,0.0,0,0.0,0.0,0.0,154.73828202352817,0.0,0.0,0.0,29.977643865684968,1.0,0.9,True,136.3865631377431,88.57462189877316,155.70799818519717,154.73828202352817,-0.15659387409687042,-0.002130528911948204,0.013848437927663326,-9.107542991638184,-0.3064578175544739,0.0,9.999962143925018,False,IDLE,True,False,1192.1717530259791,331.8337877955379,0.036199331283569336,3.1488414812681613,3.4999999999999996,1.1377122427545043,NONE,0.0,0.0,0,82,0
1764635323.3204787,12.915332078933716,24.82837378020861,True,653,1044.6067253093565,0.99609375,0.32,True,False,-257,16,0,0,73,10,87.95180722891565,1,0,10120.668949771689,100.60153552392572,10120.668949771689,0,0.0,72,609.6666666666666,653,0.0,0.0,0,False,False,NONE,0.0,0.0,0,0.0,0.0,0.0,154.62087823380512,0.0,0.0,0.0,30.095047655408024,1.0,0.9,True,134.726088686845,88.4892438641992,154.39887744502698,154.62087823380512,-0.10865697264671326,0.0,0.024501081556081772,-9.117119789123535,0.2968810200691223,-0.20111294090747833,9.999946628993285,False,IDLE,True,False,1185.804345579974,335.24481654443906,0.0004971027374267578,3.1263682785175564,3.4999999999999996,0.9573588205914954,NONE,0.0,0.0,0,83,2
1764635323.3580403,12.952893733978271,24.81248378522453,True,653,1044.6067253093565,0.99609375,0.32,True,False,-257,16,0,0,74,10,88.09523809523809,2,0,10558.085153646798,102.75254329527225,10558.085153646798,1,36.70859336853027,73,627.0,653,0.0,0.0,0,False,False,NONE,0.0,0.0,0,0.0,0.0,0.0,154.64688190515258,0.0,0.0,0.0,30.12105132675549,1.0,0.9,True,133.91930129797234,88.38344343499386,153.7160912840905,154.64688190515258,-0.055393751710653305,-0.007456851191818714,0.024501081556081772,-9.030928611755371,0.689530074596405,-0.10534487664699554,9.999909344995453,False,IDLE,True,False,1185.8043455799739,334.11981654443906,0.0012362003326416016,3.1263682785175546,3.4999999999999996,0.9539372938082818,NONE,0.0,0.0,0,84,1
