timestamp,mode_time_elapsed,fps,person_detected,person_x_pixels,person_z_camera,person_confidence,servo_position,servo_is_moving,person_centered,pixel_error,total_moves,successful_centers,false_positive_rejections,detection_success_count,detection_failure_count,detection_rate,consecutive_successes,consecutive_failures,rolling_variance_pixels,rolling_std_dev_pixels,average_variance_pixels,reused_detection,last_good_age_ms,smoothing_applied,smoothed_position_x,raw_position_x,dynamic_offset_x,dynamic_offset_y,calibration_samples_count,movement_enabled,base_is_moving,base_direction,base_speed,movement_success_rate,total_movement_commands,avg_movement_duration,robot_pos_x,robot_pos_y,robot_orientation,robot_velocity_x,robot_velocity_y,total_distance_traveled,total_rotation,position_confidence,orientation_confidence,imu_initialized,imu_roll,imu_pitch,imu_yaw,imu_smoothed_yaw,imu_angular_vel_x,imu_angular_vel_y,imu_angular_vel_z,imu_accel_x,imu_accel_y,imu_accel_z,imu_update_rate,navigation_enabled,navigation_state,has_person_target,goal_reached,person_distance_mm,person_angle_deg,time_since_person_update,attractive_force_magnitude,repulsive_force_magnitude,total_force_magnitude,nav_movement_direction,nav_movement_speed,navigation_success_rate,goals_reached,force_calculations_count,obstacles_filtered_count
1764118013.7586288,9.546189308166504,0.10492837943835014,True,779,1142.833251953125,1.0,0.02,True,False,-131,1,0,0,1,0,100.0,1,0,0.0,0.0,0.0,0,0.0,0,779,779,0.0,0.0,0,False,False,NONE,0.0,0.0,0,0.0,0.0,0.0,0.0,0.0,0.0,0.0,0.0,1.0,1.0,True,169.6934667905398,87.7429217304765,169.6538980162854,169.6538980162854,-0.004261057823896408,0.008522115647792816,0.014913702383637428,-9.251194953918457,0.028730420395731926,-0.3256114423274994,9.995648371237307,False,IDLE,True,False,1273.0818525405214,358.8676840908527,0.0001239776611328125,1.5461637050810428,0.0,1.5461637050810428,NONE,0.0,0.0,0,1,0
1764118013.7838297,9.571390151977539,12.790190515482502,True,779,1142.833251953125,1.0,0.02,True,False,-131,1,0,0,2,0,100.0,2,0,0,0.0,0,1,26.21769905090332,1,779.0,779,0.0,0.0,0,False,False,NONE,0.0,0.0,0,0.0,0.0,0.0,169.6538980162854,0.0,0.0,0.0,0.0,1.0,0.9,True,169.6934667905398,87.7429217304765,169.6538980162854,169.6538980162854,-0.003195793367922306,0.003195793367922306,0.003195793367922306,-9.232041358947754,0.08619125932455063,-0.35434186458587646,9.998185963745497,False,IDLE,True,False,1273.0818525405211,357.7426840908527,7.271766662597656e-05,1.5461637050810422,0.0,1.5461637050810422,NONE,0.0,0.0,0,2,0
1764118013.8233142,9.610874652862549,16.823343163881763,True,779,1142.833251953125,1.0,0.02,True,False,-131,1,0,0,3,0,100.0,3,0,0,0.0,0,1,65.4299259185791,2,779.0,779,0.0,0.0,0,False,False,NONE,0.0,0.0,0,0.0,0.0,0.0,169.6538980162854,0.0,0.0,0.0,0.0,1.0,0.9,True,169.6934667905398,87.7429217304765,169.6538980162854,169.6538980162854,0.01065264455974102,-0.001065264455974102,0.001065264455974102,-9.232041358947754,0.06703764945268631,-0.2968810200691223,9.99830910350702,False,IDLE,True,False,1273.0818525405211,357.7426840908527,0.00015163421630859375,1.5461637050810422,0.0,1.5461637050810422,NONE,0.0,0.0,0,3,0
1764118013.865707,9.65326738357544,18.783389027141276,True,779,1142.833251953125,1.0,0.02,True,False,-131,1,0,0,4,0,100.0,4,0,0,0.0,0,1,107.94949531555176,3,779.0,779,0.0,0.0,0,False,False,NONE,0.0,0.0,0,0.0,0.0,0.0,169.6538980162854,0.0,0.0,0.0,0.0,1.0,0.9,True,169.6934667905398,87.7429217304765,169.6538980162854,169.6538980162854,0.008522115647792816,0.0,0.007456851191818714,-9.232041358947754,0.019153613597154617,-0.3256114423274994,9.99891292946438,False,IDLE,True,False,1273.0818525405211,357.7426840908527,0.0001068115234375,1.5461637050810422,0.0,1.5461637050810422,NONE,0.0,0.0,0,4,0
1764118013.9049985,9.692559003829956,20.09753193633984,True,779,1142.833251953125,1.0,0.02,True,False,-131,1,0,0,5,0,100.0,5,0,0,0.0,0,1,147.18031883239746,4,779.0,779,0.0,0.0,0,False,False,NONE,0.0,0.0,0,0.0,0.0,0.0,169.6538980162854,0.0,0.0,0.0,0.0,1.0,0.9,True,169.6934667905398,87.7429217304765,169.6538980162854,169.6538980162854,0.009587380103766918,-0.011717909015715122,-0.001065264455974102,-9.279925346374512,0.05746084079146385,-0.31603461503982544,9.999055951557919,False,IDLE,True,False,1273.0818525405211,357.7426840908527,0.00011444091796875,1.5461637050810422,0.0,1.5461637050810422,NONE,0.0,0.0,0,5,0
1764118013.9434662,9.731026649475098,20.875545232731636,True,779,1142.833251953125,1.0,0.02,True,False,-131,1,0,0,6,0,100.0,6,0,0,0.0,0,1,185.79554557800293,5,779.0,779,0.0,0.0,0,False,False,NONE,0.0,0.0,0,0.0,0.0,0.0,169.6538980162854,0.0,0.0,0.0,0.0,1.0,0.9,True,169.6934667905398,87.7429217304765,169.6538980162854,169.6538980162854,-0.007456851191818714,-0.004261057823896408,-0.001065264455974102,-9.184157371520996,0.05746084079146385,-0.40222588181495667,9.999175139761363,False,IDLE,True,False,1273.0818525405211,357.7426840908527,0.00010180473327636719,1.5461637050810422,0.0,1.5461637050810422,NONE,0.0,0.0,0,6,0
1764118013.9863338,9.773894309997559,21.485137731297847,True,779,1142.833251953125,1.0,0.04,True,False,-131,2,0,0,7,0,100.0,7,0,0,0.0,0,1,227.6623249053955,6,779.0,779,0.0,0.0,0,False,False,NONE,0.0,0.0,0,0.0,0.0,0.0,169.64732991535357,0.0,0.0,0.0,0.006568100931843901,1.0,0.9,True,169.64749338193724,87.74779383029544,169.60792130976256,169.64732991535357,0.007456851191818714,0.0,0.002130528911948204,-9.251194953918457,0.08619125932455063,-0.28730419278144836,9.999260275932063,False,IDLE,True,False,1273.0818525405211,357.7426840908527,0.00013327598571777344,1.5461637050810422,0.0,1.5461637050810422,NONE,0.0,0.0,0,7,0
1764118014.0239027,9.811463117599487,21.883433728831008,True,779,1142.833251953125,1.0,0.04,True,False,-131,2,0,0,8,0,100.0,8,0,0,0.0,0,1,266.101598739624,7,779.0,779,0.0,0.0,0,False,False,NONE,0.0,0.0,0,0.0,0.0,0.0,169.6424038396547,0.0,0.0,0.0,0.011494176630719721,1.0,0.9,True,169.64749338193724,87.74779383029544,169.60792130976256,169.6424038396547,0.004261057823896408,-0.00532632227987051,-0.004261057823896408,-9.260771751403809,0.047884032130241394,-0.363918662071228,9.99948504238864,False,IDLE,True,False,1273.0818525405214,356.6176840908527,0.00011706352233886719,1.5461637050810428,0.0,1.5461637050810428,NONE,0.0,0.0,0,8,0
1764118014.0666382,9.854198694229126,22.195543415225657,False,0,0,0.0,0.04,True,False,0,2,0,0,8,1,88.88888888888889,0,1,0,0.0,0,0,0.0,7,779.0,0,0.0,0.0,0,False,False,NONE,0.0,0.0,0,0.0,0.0,0.0,169.63857244744446,0.0,0.0,0.0,0.015325568840950154,1.0,0.9,True,169.64749338193724,87.74779383029544,169.60792130976256,169.63857244744446,-0.0,0.012783173471689224,-0.006391586735844612,-9.251194953918457,0.038307227194309235,-0.33518823981285095,9.99943736381105,False,IDLE,True,False,1273.0818525405214,356.6176840908527,0.042848825454711914,1.5461637050810428,0.0,1.5461637050810428,NONE,0.0,0.0,0,9,0
1764118014.1049337,9.892494201660156,22.45767891454091,False,0,0,0.0,0.04,True,False,0,2,0,0,8,2,80.0,0,2,0,0.0,0,0,0.0,7,779.0,0,0.0,0.0,0,False,False,NONE,0.0,0.0,0,0.0,0.0,0.0,169.63550733367626,0.0,0.0,0.0,0.018390682609151554,1.0,0.9,True,169.64749338193724,87.74779383029544,169.60792130976256,169.63550733367626,-0.002130528911948204,0.006391586735844612,-0.002130528911948204,-9.299078941345215,0.047884032130241394,-0.3447650372982025,9.999454051261488,False,IDLE,True,False,1273.0818525405214,356.6176840908527,0.08110213279724121,1.5461637050810428,0.0,1.5461637050810428,NONE,0.0,0.0,0,10,0
1764118014.1454484,9.933008909225464,22.697599720365265,True,782,1142.833251953125,0.9990234375,0.04,True,False,-128,2,0,0,9,2,81.81818181818183,1,0,1,1.0,1,0,0.0,8,780.0,782,0.0,0.0,0,False,False,NONE,0.0,0.0,0,0.0,0.0,0.0,169.630909663024,0.0,0.0,0.0,0.02298835326141102,1.0,0.9,True,169.64749338193724,87.74779383029544,169.60792130976256,169.630909663024,-0.05752427875995636,0.0,0.008522115647792816,-9.222464561462402,0.047884032130241394,-0.3447650372982025,9.999684430457663,False,IDLE,True,False,1272.9923619158494,356.84410483458925,8.988380432128906e-05,1.5459847238316986,0.0,1.5459847238316986,NONE,0.0,0.0,0,11,0
1764118014.1883662,9.975926637649536,22.869873125614447,True,783,1142.833251953125,0.9990234375,0.06,True,False,-127,3,0,0,10,2,83.33333333333334,2,0,2.2333333333333334,1.4944341180973264,2.2333333333333334,0,0.0,9,781.1333333333333,783,0.0,0.0,0,False,False,NONE,0.0,0.0,0,0.0,0.0,0.0,169.65750800584468,0.0,0.0,0.0,0.049586696082087656,1.0,0.9,True,169.83084403131397,87.74938034774888,169.91988144449218,169.65750800584468,-0.05645901337265968,-0.004261057823896408,0.009587380103766918,-9.279925346374512,0.028730420395731926,-0.2777273952960968,9.9996121874851,False,IDLE,True,False,1272.9923619158494,356.84410483458925,0.00014710426330566406,1.5459847238316986,0.0,1.5459847238316986,NONE,0.0,0.0,0,12,0
1764118014.2252293,10.012789726257324,23.01876368644036,True,783,1142.833251953125,0.9990234375,0.06,True,False,-127,3,0,0,11,2,84.61538461538461,3,0,3,1.7320508075688772,3,1,37.9331111907959,10,782.0,783,0.0,0.0,0,False,False,NONE,0.0,0.0,0,0.0,0.0,0.0,169.63964267645184,0.0,0.0,0.0,0.06745202547492113,1.0,0.9,True,169.2872925143323,87.75064166578221,169.47524472235702,169.63964267645184,-0.04261057823896408,-0.006391586735844612,0.007456851191818714,-9.222464561462402,0.14365209639072418,-0.38307225704193115,9.999626246997185,False,IDLE,True,False,1272.9923619158494,355.71910483458925,0.00011372566223144531,1.5459847238316988,0.0,1.5459847238316988,NONE,0.0,0.0,0,13,0
1764118014.2667847,10.05434513092041,23.13246346121239,True,783,1144.7316284179688,0.9990234375,0.06,True,False,-127,3,0,0,12,2,85.71428571428571,4,0,3.477272727272727,1.864744681524183,3.477272727272727,0,0.0,11,782.6,783,0.0,0.0,0,False,False,NONE,0.0,0.0,0,0.0,0.0,0.0,169.62479718430464,0.0,0.0,0.0,0.08229751762212345,1.0,0.9,True,169.25814987290485,87.75351489019083,169.50544309481353,169.62479718430464,-0.008522115647792816,-0.007456851191818714,0.00532632227987051,-9.299078941345215,0.2298433631658554,-0.19153612852096558,9.999745579789431,False,IDLE,True,False,1274.9079504800857,355.6720797650866,8.845329284667969e-05,1.5498159009601713,0.0,1.5498159009601713,NONE,0.0,0.0,0,14,0
1764118014.3057845,10.093344926834106,23.27632281057335,True,783,1144.7316284179688,0.9990234375,0.06,True,False,-127,3,0,0,13,2,86.66666666666667,5,0,3.769230769230769,1.941450686788302,3.769230769230769,1,38.430213928222656,12,782.9333333333333,783,0.0,0.0,0,False,False,NONE,0.0,0.0,0,0.0,0.0,0.0,169.62204965030566,0.0,0.0,0.0,0.08504505162110831,1.0,0.9,True,169.38407232797428,87.7537000343119,169.62642267629533,169.62204965030566,0.003195793367922306,0.009587380103766918,-0.015978965908288956,-9.251194953918457,0.06703764945268631,-0.33518823981285095,9.999636027550649,False,IDLE,True,False,1274.9079504800857,355.6720797650866,0.00014495849609375,1.5498159009601713,0.0,1.5498159009601713,NONE,0.0,0.0,0,15,0
1764118014.3475237,10.13508415222168,23.372590431045335,True,783,1145.997521859352,1.0,0.06,True,False,-127,3,0,0,14,2,87.5,6,0,3.9395604395604398,1.9848325973644325,3.9395604395604398,0,0.0,13,783.0,783,0.0,0.0,0,False,False,NONE,0.0,0.0,0,0.0,0.0,0.0,169.64453693934257,0.0,0.0,0.0,0.1075323406580253,1.0,0.9,True,169.62652728165926,87.75513814328367,169.8787709066549,169.64453693934257,-0.02130528911948204,-0.006391586735844612,0.0,-9.232041358947754,-0.047884032130241394,-0.3926490843296051,9.999707051753047,False,IDLE,True,False,1276.1417167216798,355.7636747872343,0.00015592575073242188,1.5522834334433597,0.0,1.5522834334433597,NONE,0.0,0.0,0,16,0
1764118014.3855686,10.173129081726074,23.486935518552436,True,783,1145.997521859352,1.0,0.06,True,False,-127,3,0,0,15,2,88.23529411764706,7,0,4.0285714285714285,2.007130147392398,4.0285714285714285,1,38.33436965942383,14,783.0,783,0.0,0.0,0,False,False,NONE,0.0,0.0,0,0.0,0.0,0.0,169.69186130969766,0.0,0.0,0.0,0.15485671101311027,1.0,0.9,True,169.67567290642066,87.76684065931636,170.08116501331344,169.69186130969766,-0.11291802674531937,0.004261057823896408,-0.020240023732185364,-9.232041358947754,-0.09576806426048279,-0.2777273952960968,9.999679968361464,False,IDLE,True,False,1276.1417167216798,355.7636747872343,0.00014638900756835938,1.5522834334433597,0.0,1.5522834334433597,NONE,0.0,0.0,0,17,0
1764118014.428349,10.215909481048584,23.573060376076327,True,783,1145.997521859352,1.0,0.08,True,False,-127,4,0,0,16,2,88.88888888888889,8,0,4.0625,2.0155644370746373,4.0625,1,80.4283618927002,15,783.0,783,0.0,0.0,0,False,False,NONE,0.0,0.0,0,0.0,0.0,0.0,169.74810484650024,0.0,0.0,0.0,0.21110024781569336,1.0,0.9,True,169.44401169499017,87.80253339727275,170.17035667778833,169.74810484650024,-0.14594122767448425,0.0,0.013848437927663326,-9.241618156433105,-0.009576806798577309,-0.3926490843296051,9.999703575020355,False,IDLE,True,False,1276.1417167216798,355.7636747872343,0.00015282630920410156,1.5522834334433597,0.0,1.5522834334433597,NONE,0.0,0.0,0,18,0
1764118014.4655104,10.253070831298828,23.635456916042642,True,783,1145.997521859352,1.0,0.08,True,False,-127,4,0,0,17,2,89.47368421052632,9,0,4.0588235294117645,2.014652210534554,4.0588235294117645,1,118.65687370300293,16,783.0,783,0.0,0.0,0,False,False,NONE,0.0,0.0,0,0.0,0.0,0.0,169.7418318796444,0.0,0.0,0.0,0.21737321467153947,1.0,0.9,True,168.5211616584084,87.73347876772308,169.545191641204,169.7418318796444,-0.11398329585790634,-0.001065264455974102,0.009587380103766918,-9.251194953918457,0.2298433631658554,-0.3447650372982025,9.999789945095864,False,IDLE,True,False,1276.1417167216796,354.6386747872343,0.00012183189392089844,1.5522834334433593,0.0,1.5522834334433593,NONE,0.0,0.0,0,19,0
1764118014.507075,10.294635534286499,23.719216647648437,True,783,1145.997521859352,1.0,0.08,True,False,-127,4,0,0,18,2,90.0,10,0,4.029411764705882,2.007339474206065,4.029411764705882,1,159.895658493042,17,783.0,783,0.0,0.0,0,False,False,NONE,0.0,0.0,0,0.0,0.0,0.0,169.75231853693452,0.0,0.0,0.0,0.22785987196166957,1.0,0.9,True,168.38388515212625,87.81456791251136,169.7127878826639,169.75231853693452,-0.12250541150569916,-0.008522115647792816,-0.019174760207533836,-9.27034854888916,0.181959331035614,-0.22026655077934265,9.999705561724454,False,IDLE,True,False,1276.1417167216796,354.6386747872343,0.00016045570373535156,1.5522834334433593,0.0,1.5522834334433593,NONE,0.0,0.0,0,20,0
1764118014.5482905,10.335850954055786,23.764197601350375,True,783,1145.997521859352,1.0,0.08,True,False,-127,4,0,0,19,2,90.47619047619048,11,0,3.982456140350877,1.9956092153402372,3.982456140350877,1,201.019287109375,18,783.0,783,0.0,0.0,0,False,False,NONE,0.0,0.0,0,0.0,0.0,0.0,169.79822726125514,0.0,0.0,0.0,0.2737685962822809,1.0,0.9,True,168.4603610029852,87.78172375183475,170.06700855296853,169.79822726125514,-0.13209278881549835,0.00532632227987051,0.006391586735844612,-9.279925346374512,-0.019153613597154617,-0.33518823981285095,9.99974047108245,False,IDLE,True,False,1276.1417167216796,354.6386747872343,0.0001583099365234375,1.5522834334433593,0.0,1.5522834334433593,NONE,0.0,0.0,0,21,0
1764118014.5848496,10.37241005897522,23.83959551646336,True,783,1145.997521859352,1.0,0.08,True,False,-127,4,0,0,20,2,90.9090909090909,12,0,3.9236842105263157,1.9808291724745766,3.9236842105263157,1,238.05737495422363,19,783.0,783,0.0,0.0,0,False,False,NONE,0.0,0.0,0,0.0,0.0,0.0,169.8456502323431,0.0,0.0,0.0,0.32119156737024923,1.0,0.9,True,168.43274336462278,87.66594153772662,170.39411115537203,169.8456502323431,-0.17789915204048157,-0.002130528911948204,-0.00532632227987051,-9.289502143859863,-0.22026655077934265,-0.4213795065879822,9.999810135718283,False,IDLE,True,False,1276.1417167216796,354.6386747872343,0.00010228157043457031,1.5522834334433593,0.0,1.5522834334433593,NONE,0.0,0.0,0,22,0
1764118014.6273096,10.414870023727417,23.879069293515474,True,783,1145.997521859352,1.0,0.08,True,False,-127,4,0,0,21,2,91.30434782608695,13,0,3.857142857142857,1.9639610121239315,3.857142857142857,1,279.998779296875,20,783.0,783,0.0,0.0,0,False,False,NONE,0.0,0.0,0,0.0,0.0,0.0,169.92772983774134,0.0,0.0,0.0,0.4032711727684841,1.0,0.9,True,167.87825783582204,87.75835543217653,170.29604077633942,169.92772983774134,-0.2045307755470276,0.004261057823896408,0.02130528911948204,-9.251194953918457,-0.019153613597154617,-0.33518823981285095,9.999763867522423,False,IDLE,True,False,1276.1417167216796,354.6386747872343,0.00015878677368164062,1.5522834334433593,0.0,1.5522834334433593,NONE,0.0,0.0,0,23,0
1764118014.668869,10.456429481506348,23.90956614615016,False,0,0,0.0,0.1,True,False,0,5,0,0,21,3,87.5,0,1,3.857142857142857,1.9639610121239315,3.857142857142857,0,0.0,20,783.0,0,0.0,0.0,0,False,False,NONE,0.0,0.0,0,0.0,0.0,0.0,169.9782832142013,0.0,0.0,0.0,0.4538245492284432,1.0,0.9,True,166.98778855510955,87.6130098617955,170.01097685941306,169.9782832142013,-0.2034655064344406,0.004261057823896408,-0.003195793367922306,-9.222464561462402,0.2106897532939911,-0.40222588181495667,9.999802911192418,False,IDLE,True,False,1276.1417167216796,354.6386747872343,0.041214942932128906,1.5522834334433593,0.0,1.5522834334433593,NONE,0.0,0.0,0,24,0
1764118014.709027,10.49658751487732,23.942551980327742,False,0,0,0.0,0.1,True,False,0,5,0,0,21,4,84.0,0,2,3.857142857142857,1.9639610121239315,3.857142857142857,0,0.0,20,783.0,0,0.0,0.0,0,False,False,NONE,0.0,0.0,0,0.0,0.0,0.0,170.03770575842324,0.0,0.0,0.0,0.5132470934503885,1.0,0.9,True,166.793216689969,87.64952157263046,170.22064811851456,170.03770575842324,-0.16085493564605713,0.002130528911948204,-0.003195793367922306,-9.260771751403809,0.23942017555236816,-0.3447650372982025,9.999779706085958,False,IDLE,True,False,1276.1417167216796,354.6386747872343,0.08191561698913574,1.5522834334433593,0.0,1.5522834334433593,NONE,0.0,0.0,0,25,0
1764118014.7470434,10.534603834152222,23.975689603153814,False,0,0,0.0,0.1,True,False,0,5,0,0,21,5,80.76923076923077,0,3,3.857142857142857,1.9639610121239315,3.857142857142857,0,0.0,20,783.0,0,0.0,0.0,0,False,False,NONE,0.0,0.0,0,0.0,0.0,0.0,170.09601090709762,0.0,0.0,0.0,0.571552242124767,1.0,0.9,True,166.77675768844904,87.73146115729232,170.46182239339876,170.09601090709762,-0.0884169489145279,-0.004261057823896408,0.0,-9.27034854888916,0.1149216815829277,-0.2585737705230713,9.999786711620448,False,IDLE,True,False,1276.1417167216796,354.6386747872343,0.1199498176574707,1.5522834334433593,0.0,1.5522834334433593,NONE,0.0,0.0,0,26,0
1764118014.7889667,10.576527118682861,24.01526994598261,False,0,0,0.0,0.1,True,False,0,5,0,0,21,6,77.77777777777779,0,4,3.857142857142857,1.9639610121239315,3.857142857142857,0,0.0,20,783.0,0,0.0,0.0,0,False,False,NONE,0.0,0.0,0,0.0,0.0,0.0,170.1414988085558,0.0,0.0,0.0,0.6170401435829547,1.0,0.9,True,166.6649218460234,87.76585489668932,170.53604402789537,170.1414988085558,-0.1161138191819191,-0.003195793367922306,-0.014913702383637428,-9.251194953918457,-0.06703764945268631,-0.3447650372982025,9.9998338161818,False,IDLE,True,False,1276.1417167216796,354.6386747872343,0.16193556785583496,1.5522834334433593,0.0,1.5522834334433593,NONE,0.0,0.0,0,27,0
1764118014.8291717,10.616732120513916,24.051975057338034,False,0,0,0.0,0.1,True,False,0,5,0,0,21,7,75.0,0,5,3.857142857142857,1.9639610121239315,3.857142857142857,0,0.0,20,783.0,0,0.0,0.0,0,False,False,NONE,0.0,0.0,0,0.0,0.0,0.0,170.22682144802883,0.0,0.0,0.0,0.7023627830559747,1.0,0.9,True,166.7186852782706,87.64696239865488,171.02358307251868,170.22682144802883,-0.23861923813819885,0.006391586735844612,-0.00532632227987051,-9.241618156433105,-0.23942017555236816,-0.4405331015586853,9.999806884680352,False,IDLE,True,False,1276.1417167216796,354.6386747872343,0.20209550857543945,1.5522834334433593,0.0,1.5522834334433593,NONE,0.0,0.0,0,28,0
1764118014.8671825,10.654742956161499,24.079832778766697,False,0,0,0.0,0.1,True,False,0,5,0,0,21,8,72.41379310344827,0,6,3.857142857142857,1.9639610121239315,3.857142857142857,0,0.0,20,783.0,0,0.0,0.0,0,False,False,NONE,0.0,0.0,0,0.0,0.0,0.0,170.35973780186742,0.0,0.0,0.0,0.8352791368945702,1.0,0.9,True,166.01989214013005,87.69815474583793,170.87435517958997,170.35973780186742,-0.2460760772228241,0.00532632227987051,0.012783173471689224,-9.232041358947754,0.038307227194309235,-0.40222588181495667,9.999805651528586,False,IDLE,True,False,1276.1417167216796,354.6386747872343,0.24007678031921387,1.5522834334433593,0.0,1.5522834334433593,NONE,0.0,0.0,0,29,0
1764118014.909569,10.697129487991333,24.111027682451283,False,0,0,0.0,0.12000000000000001,True,False,0,6,0,0,21,9,70.0,0,7,3.857142857142857,1.9639610121239315,3.857142857142857,0,0.0,20,783.0,0,0.0,0.0,0,False,False,NONE,0.0,0.0,0,0.0,0.0,0.0,170.42458524879933,0.0,0.0,0.0,0.9001265838264771,1.0,0.9,True,165.00541321865438,87.63144846678331,170.36126235198304,170.42458524879933,-0.18322548270225525,0.00532632227987051,0.004261057823896408,-9.21288776397705,0.3926490843296051,-0.3447650372982025,9.999810063472973,False,IDLE,True,False,1276.1417167216796,354.6386747872343,0.28208351135253906,1.5522834334433593,0.0,1.5522834334433593,NONE,0.0,0.0,0,30,0
1764118014.9465578,10.734118223190308,24.945343602886986,True,783,1146.6300048828125,0.9990234375,0.12000000000000001,True,False,-127,6,0,0,22,9,70.96774193548387,1,0,3.7857142857142856,1.9456912102680337,3.7857142857142856,0,0.0,21,783.0,783,0.0,0.0,0,False,False,NONE,0.0,0.0,0,0.0,0.0,0.0,170.43294353879725,0.0,0.0,0.0,0.908484873824392,1.0,0.9,True,164.45651826305698,87.67158767411341,170.15059145294757,170.43294353879725,-0.1299622654914856,0.003195793367922306,0.001065264455974102,-9.260771751403809,0.3734954595565796,-0.2106897532939911,9.999892635882903,False,IDLE,True,False,1276.7896974447478,352.3437984175452,0.00010919570922851562,1.5535793948894954,0.0,1.5535793948894954,NONE,0.0,0.0,0,31,0
1764118014.9886765,10.77623701095581,24.94076765654695,True,783,1146.6300048828125,0.9990234375,0.12000000000000001,True,False,-127,6,0,0,23,9,71.875,2,0,3.7114624505928853,1.926515624279462,3.7114624505928853,1,41.57876968383789,22,783.0,783,0.0,0.0,0,False,False,NONE,0.0,0.0,0,0.0,0.0,0.0,170.45505647088152,0.0,0.0,0.0,0.9305978059086613,1.0,0.9,True,164.71875500791293,87.68222442484716,170.6152404762149,170.45505647088152,-0.06391586363315582,0.004261057823896408,-0.009587380103766918,-9.260771751403809,0.14365209639072418,-0.3256114423274994,9.999834450839835,False,IDLE,True,False,1276.7896974447478,352.3437984175452,0.0001742839813232422,1.5535793948894954,0.0,1.5535793948894954,NONE,0.0,0.0,0,32,0
1764118015.0262866,10.813847064971924,24.939892233705198,True,783,1146.6300048828125,0.9990234375,0.12000000000000001,True,False,-127,6,0,0,24,9,72.72727272727273,3,0,3.635869565217391,1.9067956275430755,3.635869565217391,1,79.50782775878906,23,783.0,783,0.0,0.0,0,False,False,NONE,0.0,0.0,0,0.0,0.0,0.0,170.51599836178065,0.0,0.0,0.0,0.9915396968077914,1.0,0.9,True,164.94479983337203,87.63505618296047,170.90545968533056,170.51599836178065,0.002130528911948204,-0.009587380103766918,-0.00532632227987051,-9.222464561462402,0.047884032130241394,-0.3734954595565796,9.99990405550447,False,IDLE,True,False,1276.7896974447478,352.3437984175452,0.0001742839813232422,1.5535793948894954,0.0,1.5535793948894954,NONE,0.0,0.0,0,33,0
1764118015.0689456,10.856506109237671,24.94071487871972,True,783,1146.6300048828125,0.9990234375,0.12000000000000001,True,False,-127,6,0,0,25,9,73.52941176470588,4,0,3.56,1.8867962264113207,3.56,1,121.7339038848877,24,783.0,783,0.0,0.0,0,False,False,NONE,0.0,0.0,0,0.0,0.0,0.0,170.60545850206336,0.0,0.0,0.0,1.080999837090502,1.0,0.9,True,164.9488966820402,87.77357739071896,170.90557826224017,170.60545850206336,-0.034088462591171265,0.004261057823896408,0.0,-9.299078941345215,-0.06703764945268631,-0.3447650372982025,9.999837036544625,False,IDLE,True,False,1276.7896974447478,352.3437984175452,0.00018024444580078125,1.5535793948894954,0.0,1.5535793948894954,NONE,0.0,0.0,0,34,0
1764118015.1071243,10.894684791564941,24.932373681436196,True,783,1146.6300048828125,0.9990234375,0.12000000000000001,True,False,-127,6,0,0,26,9,74.28571428571429,5,0,3.4846153846153847,1.8667124536509057,3.4846153846153847,1,159.8987579345703,25,783.0,783,0.0,0.0,0,False,False,NONE,0.0,0.0,0,0.0,0.0,0.0,170.67552569202192,0.0,0.0,0.0,1.1510670270490664,1.0,0.9,True,164.79001302170445,87.74906512861867,170.9213200181002,170.67552569202192,-0.13848437368869781,0.008522115647792816,0.001065264455974102,-9.279925346374512,-0.12449848651885986,-0.4118026793003082,9.999840602690762,False,IDLE,True,False,1276.7896974447478,352.3437984175452,0.00017714500427246094,1.5535793948894954,0.0,1.5535793948894954,NONE,0.0,0.0,0,35,0
1764118015.1488154,10.936375856399536,24.937030437988447,True,783,1146.6300048828125,0.9990234375,0.14,True,False,-127,7,0,0,27,9,75.0,6,0,3.41025641025641,1.84668795692624,3.41025641025641,1,201.04598999023438,26,783.0,783,0.0,0.0,0,False,False,NONE,0.0,0.0,0,0.0,0.0,0.0,170.71984452174354,0.0,0.0,0.0,1.1953858567706845,1.0,0.9,True,164.42588734499776,87.72536527936775,170.905010690615,170.71984452174354,-0.1299622654914856,-0.013848437927663326,0.002130528911948204,-9.279925346374512,0.06703764945268631,-0.35434186458587646,9.9998532422729,False,IDLE,True,False,1276.7896974447478,352.3437984175452,0.00018072128295898438,1.5535793948894954,0.0,1.5535793948894954,NONE,0.0,0.0,0,36,0
1764118015.1873286,10.974889039993286,24.932428816043984,True,783,1146.6300048828125,0.9990234375,0.14,True,False,-127,7,0,0,28,9,75.67567567567568,7,0,3.3373015873015874,1.826828286211265,3.3373015873015874,1,240.05532264709473,27,783.0,783,0.0,0.0,0,False,False,NONE,0.0,0.0,0,0.0,0.0,0.0,170.7184341693874,0.0,0.0,0.0,1.1967962091268305,1.0,0.9,True,163.79358059128768,87.71151111163789,170.52194050433377,170.7184341693874,-0.10546118021011353,0.002130528911948204,0.012783173471689224,-9.251194953918457,0.2968810200691223,-0.3734954595565796,9.99984844540555,False,IDLE,True,False,1276.7896974447478,351.2187984175452,0.00018358230590820312,1.5535793948894956,0.0,1.5535793948894956,NONE,0.0,0.0,0,37,0
1764118015.2284322,11.015992641448975,24.938888691008728,True,783,1146.6300048828125,0.9990234375,0.14,True,False,-127,7,0,0,29,9,76.31578947368422,8,0,3.2660098522167487,1.8072105168509696,3.2660098522167487,1,281.8930149078369,28,783.0,783,0.0,0.0,0,False,False,NONE,0.0,0.0,0,0.0,0.0,0.0,170.6764013986996,0.0,0.0,0.0,1.2388289798146275,1.0,0.9,True,163.64308024853725,87.68335414799976,170.60325536564065,170.6764013986996,-0.01065264455974102,-0.011717909015715122,0.001065264455974102,-9.251194953918457,0.23942017555236816,-0.22026655077934265,9.99990350414835,False,IDLE,True,False,1276.7896974447478,351.2187984175452,0.00010371208190917969,1.5535793948894956,0.0,1.5535793948894956,NONE,0.0,0.0,0,38,0
1764118015.2705185,11.05807900428772,24.92991663501191,False,0,0,0.0,0.14,True,False,0,7,0,0,29,10,74.35897435897436,0,1,3.2660098522167487,1.8072105168509696,3.2660098522167487,0,0.0,28,783.0,0,0.0,0.0,0,False,False,NONE,0.0,0.0,0,0.0,0.0,0.0,170.67787898745735,0.0,0.0,0.0,1.2403065685723789,1.0,0.9,True,163.94388496720862,87.8074597861423,170.88913106716765,170.67787898745735,-0.012783173471689224,0.008522115647792816,0.001065264455974102,-9.232041358947754,0.019153613597154617,-0.4213795065879822,9.999853649814082,False,IDLE,True,False,1276.7896974447478,351.2187984175452,0.04190468788146973,1.5535793948894956,0.0,1.5535793948894956,NONE,0.0,0.0,0,39,0
1764118015.3073058,11.094866275787354,24.947159856745014,False,0,0,0.0,0.14,True,False,0,7,0,0,29,11,72.5,0,2,3.2660098522167487,1.8072105168509696,3.2660098522167487,0,0.0,28,783.0,0,0.0,0.0,0,False,False,NONE,0.0,0.0,0,0.0,0.0,0.0,170.80317414273296,0.0,0.0,0.0,1.3656017238479876,1.0,0.9,True,164.44406674323497,87.62317869469325,171.61421390473907,170.80317414273296,-0.15446333587169647,0.0,-0.01065264455974102,-9.279925346374512,-0.31603461503982544,-0.43095630407333374,9.999895692959651,False,IDLE,True,False,1276.7896974447478,351.2187984175452,0.07899880409240723,1.5535793948894956,0.0,1.5535793948894956,NONE,0.0,0.0,0,40,0
1764118015.3505204,11.138080835342407,24.93531163769573,False,0,0,0.0,0.16,True,False,0,8,0,0,29,12,70.73170731707317,0,3,3.2660098522167487,1.8072105168509696,3.2660098522167487,0,0.0,28,783.0,0,0.0,0.0,0,False,False,NONE,0.0,0.0,0,0.0,0.0,0.0,170.91972037065568,0.0,0.0,0.0,1.4821479517707132,1.0,0.9,True,163.6700426450072,87.64877225793519,171.31605373217488,170.91972037065568,-0.16937704384326935,0.0,0.007456851191818714,-9.251194953918457,0.038307227194309235,-0.38307225704193115,9.99989788810979,False,IDLE,True,False,1276.7896974447478,351.2187984175452,0.12164115905761719,1.5535793948894956,0.0,1.5535793948894956,NONE,0.0,0.0,0,41,0
1764118015.3888447,11.176405191421509,24.938496897417266,False,0,0,0.0,0.16,True,False,0,8,0,0,29,13,69.04761904761905,0,4,3.2660098522167487,1.8072105168509696,3.2660098522167487,0,0.0,28,783.0,0,0.0,0.0,0,False,False,NONE,0.0,0.0,0,0.0,0.0,0.0,170.91489008793377,0.0,0.0,0.0,1.486978234492625,1.0,0.9,True,162.5798541542614,87.7577661597222,170.56693764899563,170.91489008793377,-0.1438107043504715,-0.002130528911948204,0.01065264455974102,-9.241618156433105,0.45010992884635925,-0.38307225704193115,9.999908493516038,False,IDLE,True,False,1276.7896974447478,351.2187984175452,0.16053986549377441,1.5535793948894956,0.0,1.5535793948894956,NONE,0.0,0.0,0,42,0
1764118015.4282014,11.21576189994812,24.938966608654084,False,0,0,0.0,0.16,True,False,0,8,0,0,29,14,67.44186046511628,0,5,3.2660098522167487,1.8072105168509696,3.2660098522167487,0,0.0,28,783.0,0,0.0,0.0,0,False,False,NONE,0.0,0.0,0,0.0,0.0,0.0,170.89162662387668,0.0,0.0,0.0,1.51024169854972,1.0,0.9,True,162.37575813767285,87.6704426494999,170.6728250447595,170.89162662387668,-0.07989483326673508,-0.002130528911948204,-0.004261057823896408,-9.222464561462402,0.363918662071228,-0.2298433631658554,9.999910288883656,False,IDLE,True,False,1276.7896974447478,351.2187984175452,0.19990253448486328,1.5535793948894956,0.0,1.5535793948894956,NONE,0.0,0.0,0,43,0
1764118015.469701,11.257261514663696,24.944783779798936,False,0,0,0.0,0.16,True,False,0,8,0,0,29,15,65.9090909090909,0,6,3.2660098522167487,1.8072105168509696,3.2660098522167487,0,0.0,28,783.0,0,0.0,0.0,0,False,False,NONE,0.0,0.0,0,0.0,0.0,0.0,170.9178862160175,0.0,0.0,0.0,1.536501290690552,1.0,0.9,True,162.78670203922243,87.71345762810431,171.16817418364872,170.9178862160175,-0.007456851191818714,-0.003195793367922306,-0.004261057823896408,-9.289502143859863,0.06703764945268631,-0.23942017555236816,9.999917421155898,False,IDLE,True,False,1276.7896974447478,351.2187984175452,0.24112486839294434,1.5535793948894956,0.0,1.5535793948894956,NONE,0.0,0.0,0,44,0
1764118015.5079432,11.295503616333008,24.943069186426303,False,0,0,0.0,0.16,True,False,0,8,0,0,29,16,64.44444444444444,0,7,3.2660098522167487,1.8072105168509696,3.2660098522167487,0,0.0,28,783.0,0,0.0,0.0,0,False,False,NONE,0.0,0.0,0,0.0,0.0,0.0,170.9778677564137,0.0,0.0,0.0,1.596482831086746,1.0,0.9,True,163.0811727679956,87.69407697316915,171.52113542206214,170.9778677564137,-0.09054747968912125,0.002130528911948204,0.001065264455974102,-9.222464561462402,-0.181959331035614,-0.47884035110473633,9.999927415314998,False,IDLE,True,False,1276.7896974447478,351.2187984175452,0.2796356678009033,1.5535793948894956,0.0,1.5535793948894956,NONE,0.0,0.0,0,45,0
1764118015.5501091,11.337669610977173,24.947928381759642,False,0,0,0.0,0.16,True,False,0,8,0,0,29,17,63.04347826086957,0,8,3.2660098522167487,1.8072105168509696,3.2660098522167487,0,0.0,28,783.0,0,0.0,0.0,0,False,False,NONE,0.0,0.0,0,0.0,0.0,0.0,171.07988804647118,0.0,0.0,0.0,1.6985031211442276,1.0,0.9,True,163.2402697510283,87.64098104110599,171.92521359118973,171.07988804647118,-0.18216021358966827,0.007456851191818714,-0.002130528911948204,-9.289502143859863,-0.2777273952960968,-0.40222588181495667,9.999909505419128,False,IDLE,True,False,1276.7896974447478,351.2187984175452,0.3217895030975342,1.5535793948894956,0.0,1.5535793948894956,NONE,0.0,0.0,0,46,0
1764118015.5903978,11.377958297729492,24.91799871821377,False,0,0,0.0,0.18,True,False,0,9,0,0,29,18,61.702127659574465,0,9,3.2660098522167487,1.8072105168509696,3.2660098522167487,0,0.0,28,783.0,0,0.0,0.0,0,False,False,NONE,0.0,0.0,0,0.0,0.0,0.0,171.20128047323615,0.0,0.0,0.0,1.8198955479091978,1.0,0.9,True,162.69203575124695,87.74078739768379,171.73586477198356,171.20128047323615,-0.18002969026565552,0.004261057823896408,0.022370552644133568,-9.222464561462402,0.05746084079146385,-0.4118026793003082,9.999904024761205,False,IDLE,True,False,1276.7896974447478,351.2187984175452,0.36088061332702637,1.5535793948894956,0.0,1.5535793948894956,NONE,0.0,0.0,0,47,0
1764118015.6308446,11.418405055999756,24.901612807640024,False,0,0,0.0,0.18,True,False,0,9,0,0,29,19,60.416666666666664,0,10,3.2660098522167487,1.8072105168509696,3.2660098522167487,0,0.0,28,783.0,0,0.0,0.0,0,False,False,NONE,0.0,0.0,0,0.0,0.0,0.0,171.25536811774333,0.0,0.0,0.0,1.8739831924163752,1.0,0.9,True,161.68446074306826,87.69998359128283,171.1441318107124,171.25536811774333,-0.1395496428012848,-0.007456851191818714,0.001065264455974102,-9.193734169006348,0.4405331015586853,-0.43095630407333374,9.999922613901733,False,IDLE,True,False,1276.7896974447478,351.2187984175452,0.40254783630371094,1.5535793948894956,0.0,1.5535793948894956,NONE,0.0,0.0,0,48,0
1764118015.6710837,11.458644151687622,24.90471299862498,True,835,1146.6300048828125,0.9990234375,0.18,True,True,-75,9,1,0,30,19,61.224489795918366,1,0,97.27471264367816,9.862794362840491,97.27471264367816,0,0.0,29,800.3333333333334,835,0.0,0.0,0,False,False,NONE,0.0,0.0,0,0.0,0.0,0.0,171.27091137541152,0.0,0.0,0.0,1.8895264500845599,1.0,0.9,True,161.3825524357027,87.59545517214647,171.04456364384944,171.27091137541152,-0.1438107043504715,-0.01065264455974102,-0.007456851191818714,-9.241618156433105,0.35434186458587646,-0.35434186458587646,9.999902006058594,False,IDLE,True,False,1277.3680164925286,351.82274509910235,0.0002090930938720703,1.5547360329850568,0.0,1.5547360329850568,NONE,0.0,0.0,0,49,0
1764118015.7130315,11.50059199333191,24.883926062978784,True,865,1146.6300048828125,0.994140625,0.18,True,True,-45,9,2,0,31,19,62.0,2,0,307.5978494623656,17.538467705656775,307.5978494623656,0,0.0,30,824.2,865,0.0,0.0,0,False,False,NONE,0.0,0.0,0,0.0,0.0,0.0,171.32535004408177,0.0,0.0,0.0,1.943965118754818,1.0,0.9,True,161.9330369151811,87.76708168967133,172.15860059144174,171.32535004408177,-0.25672873854637146,-0.006391586735844612,-0.015978965908288956,-9.241618156433105,-0.31603461503982544,-0.3926490843296051,9.999897004234652,False,IDLE,True,False,1279.1193372152975,353.45014776093325,0.00020051002502441406,1.5582386744305952,0.0,1.5582386744305952,NONE,0.0,0.0,0,50,0
1764118015.750446,11.53800654411316,24.897993850772952,True,865,1146.6300048828125,0.994140625,0.18,True,True,-45,9,3,0,32,19,62.745098039215684,3,0,491.4344758064516,22.168321447652538,491.4344758064516,1,38.04278373718262,31,842.6,865,0.0,0.0,0,False,False,NONE,0.0,0.0,0,0.0,0.0,0.0,171.46217004194898,0.0,0.0,0.0,2.0807851166220246,1.0,0.9,True,161.9450801195076,87.6621605996894,172.68425371084686,171.46217004194898,-0.31744879484176636,0.01065264455974102,0.00532632227987051,-9.279925346374512,-0.33518823981285095,-0.2777273952960968,9.999934739183464,False,IDLE,True,False,1279.1193372152975,353.45014776093325,0.00013709068298339844,1.5582386744305952,0.0,1.5582386744305952,NONE,0.0,0.0,0,51,0
1764118015.7925851,11.580145597457886,24.895928868761647,True,865,1146.6300048828125,0.994140625,0.18,False,True,-45,9,4,0,33,19,63.46153846153846,4,0,652.405303030303,25.542225882453998,652.405303030303,1,79.76508140563965,32,855.5333333333333,865,0.0,0.0,0,False,False,NONE,0.0,0.0,0,0.0,0.0,0.0,171.6076712647032,0.0,0.0,0.0,2.2262863393762586,1.0,0.9,True,160.5818428829596,87.59160197191655,172.02194987653795,171.6076712647032,-0.24714134633541107,0.003195793367922306,0.011717909015715122,-9.193734169006348,0.17238251864910126,-0.33518823981285095,9.99990316631479,False,IDLE,True,False,1279.1193372152975,353.45014776093325,0.0001971721649169922,1.5582386744305952,0.0,1.5582386744305952,NONE,0.0,0.0,0,52,0
1764118015.8310587,11.618619203567505,24.882112544181513,True,865,1146.6300048828125,0.994140625,0.18,False,True,-45,9,5,0,34,19,64.15094339622641,5,0,793.5623885918003,28.17023941310759,793.5623885918003,1,118.57819557189941,33,863.0,865,0.0,0.0,0,False,False,NONE,0.0,0.0,0,0.0,0.0,0.0,171.67681498819894,0.0,0.0,0.0,2.2954300628719864,1.0,0.9,True,159.5266915362358,87.62382727415492,171.3642622797171,171.67681498819894,-0.17789915204048157,0.001065264455974102,0.003195793367922306,-9.260771751403809,0.6512228846549988,-0.2298433631658554,9.999929014745815,False,IDLE,True,False,1279.1193372152975,353.45014776093325,0.00012087821960449219,1.5582386744305952,0.0,1.5582386744305952,NONE,0.0,0.0,0,53,0
1764118015.873927,11.661487579345703,24.88843798092442,True,865,1146.6300048828125,0.994140625,0.18,False,True,-45,9,6,0,35,19,64.81481481481481,6,0,917.490756302521,30.290109876039093,917.490756302521,1,160.9666347503662,34,865.0,865,0.0,0.0,0,False,False,NONE,0.0,0.0,0,0.0,0.0,0.0,171.71274096102303,0.0,0.0,0.0,2.331356035696075,1.0,0.9,True,159.3259289675216,87.5496962817593,171.5274339118892,171.71274096102303,-0.049002163112163544,0.008522115647792816,-0.00532632227987051,-9.232041358947754,0.4596867263317108,-0.24899697303771973,9.999920792677218,False,IDLE,True,False,1279.1193372152975,353.45014776093325,0.00018739700317382812,1.5582386744305952,0.0,1.5582386744305952,NONE,0.0,0.0,0,54,0
1764118015.913832,11.701392412185669,24.886502596573823,True,865,1146.6300048828125,0.994140625,0.18,False,True,-45,9,7,0,36,19,65.45454545454545,7,0,1026.3896825396826,32.03731703092009,1026.3896825396826,1,200.58321952819824,35,865.0,865,0.0,0.0,0,False,False,NONE,0.0,0.0,0,0.0,0.0,0.0,171.76485016310286,0.0,0.0,0.0,2.3834652377759085,1.0,0.9,True,159.84126827311792,87.54502774882268,172.04222744286056,171.76485016310286,0.020240023732185364,0.0,-0.02130528911948204,-9.222464561462402,-0.038307227194309235,-0.4405331015586853,9.999931942796056,False,IDLE,True,False,1279.1193372152975,353.45014776093325,0.0004324913024902344,1.5582386744305952,72.32951564872218,5.000000000000001,NONE,0.0,0.0,0,55,13
1764118015.9527314,11.740291833877563,24.886566165311304,True,865,1146.6300048828125,0.994140625,0.18,False,True,-45,9,8,0,37,19,66.07142857142857,8,0,1122.1381381381382,33.4983303783657,1122.1381381381382,1,239.72392082214355,36,865.0,865,0.0,0.0,0,False,False,NONE,0.0,0.0,0,0.0,0.0,0.0,171.83876512633879,0.0,0.0,0.0,2.45738020101183,1.0,0.9,True,160.4908688847125,87.64776314172227,172.66436322354895,171.83876512633879,-0.0,-0.006391586735844612,0.001065264455974102,-9.318233489990234,-0.181959331035614,-0.19153612852096558,9.99993971452272,False,IDLE,True,False,1279.1193372152975,353.45014776093325,0.0004177093505859375,1.5582386744305952,72.32951564872218,5.000000000000001,NONE,0.0,0.0,0,56,13
1764118015.997626,11.785186529159546,24.88723464944194,True,865,1146.6300048828125,0.994140625,0.18,False,True,-45,9,9,0,38,19,66.66666666666666,9,0,1206.3477951635846,34.73251783507185,1206.3477951635846,1,281.8305492401123,37,865.0,865,0.0,0.0,0,False,False,NONE,0.0,0.0,0,0.0,0.0,0.0,171.90973656586468,0.0,0.0,0.0,2.5283516405377213,1.0,0.9,True,160.21455683146314,87.71206709030504,172.44557916724273,171.90973656586468,-0.11398329585790634,0.009587380103766918,0.004261057823896408,-9.232041358947754,0.0,-0.5746083855628967,9.999922117204072,False,IDLE,True,False,1279.1193372152975,353.45014776093325,0.0011258125305175781,1.5582386744305952,76.23618571957681,5.000000000000001,NONE,0.0,0.0,0,57,14
1764118016.0331225,11.820683002471924,24.871416424315306,False,0,0,0.0,0.18,False,True,0,9,10,0,38,20,65.51724137931035,0,1,1206.3477951635846,34.73251783507185,1206.3477951635846,0,0.0,37,865.0,0,0.0,0.0,0,False,False,NONE,0.0,0.0,0,0.0,0.0,0.0,172.08085892385625,0.0,0.0,0.0,2.6994739985292995,1.0,0.9,True,160.26203088186176,87.69638045298231,172.8553553906279,172.08085892385625,-0.27057716250419617,0.006391586735844612,-0.009587380103766918,-9.193734169006348,-0.047884032130241394,-0.6224924325942993,9.999933900941189,False,IDLE,True,False,1279.1193372152975,353.45014776093325,0.0378420352935791,1.5582386744305952,76.23618571957681,5.000000000000001,NONE,0.0,0.0,0,58,0
1764118016.0750444,11.862604856491089,24.88347526537746,False,0,0,0.0,0.18,False,True,0,9,11,0,38,21,64.40677966101694,0,2,1206.3477951635846,34.73251783507185,1206.3477951635846,0,0.0,37,865.0,0,0.0,0.0,0,False,False,NONE,0.0,0.0,0,0.0,0.0,0.0,172.26896441427252,0.0,0.0,0.0,2.887579488945562,1.0,0.9,True,159.51453628495474,87.61139096069964,172.92561854801207,172.26896441427252,-0.23116238415241241,-0.008522115647792816,0.002130528911948204,-9.222464561462402,0.13407529890537262,-0.22026655077934265,9.999932758330855,False,IDLE,True,False,1279.1193372152975,353.45014776093325,0.0797576904296875,1.5582386744305952,79.04233310876178,5.0,NONE,0.0,0.0,0,59,0
1764118016.1164465,11.904006958007812,24.88395795339824,True,950,1144.7659031240898,0.96044921875,0.18,False,True,40,9,12,0,39,21,65.0,1,0,1745.6693657219973,41.78120828461041,1745.6693657219973,0,0.0,38,893.3333333333334,950,0.0,0.0,0,False,False,NONE,0.0,0.0,0,0.0,0.0,0.0,172.32516894037212,0.0,0.0,0.0,2.9437840150451677,1.0,0.9,True,158.85219611854623,87.60655104562352,172.72064585243794,172.32516894037212,-0.15233281254768372,-0.002130528911948204,0.004261057823896408,-9.299078941345215,0.2968810200691223,-0.038307227194309235,9.999920130413921,False,IDLE,True,False,1287.5707628691348,357.9622351031923,0.0006535053253173828,1.5751415257382695,79.04233310876178,5.0,NONE,0.0,0.0,0,60,10
1764118016.155105,11.942665576934814,24.881530016235562,True,950,1144.7659031240898,0.96044921875,0.18,False,True,40,9,13,0,40,21,65.57377049180327,2,0,2229.5121794871793,47.2177104430867,2229.5121794871793,1,37.62030601501465,39,916.0,950,0.0,0.0,0,False,False,NONE,0.0,0.0,0,0.0,0.0,0.0,172.33714004267517,0.0,0.0,0.0,2.955755117348218,1.0,0.9,True,158.6871104102426,87.6612607786361,172.8039647338772,172.33714004267517,-0.06072007119655609,0.011717909015715122,0.019174760207533836,-9.241618156433105,0.38307225704193115,-0.3064578175544739,9.999912997518084,False,IDLE,True,False,1287.5707628691348,357.9622351031923,0.0012264251708984375,1.5751415257382695,79.14706048123949,5.000000000000001,NONE,0.0,0.0,0,61,9
1764118016.1958337,11.983394145965576,24.866771209390443,True,949,1143.4826293863275,0.9658203125,0.18,False,True,39,9,14,0,41,21,66.12903225806451,3,0,2657.130487804878,51.54736159887214,2657.130487804878,0,0.0,40,932.6666666666666,949,0.0,0.0,0,False,False,NONE,0.0,0.0,0,0.0,0.0,0.0,172.4234818834249,0.0,0.0,0.0,3.042096958097943,1.0,0.9,True,158.6952341497078,87.59597414783407,172.88536828403537,172.4234818834249,0.014913702383637428,-0.01065264455974102,0.0,-9.251194953918457,0.23942017555236816,-0.35434186458587646,9.999916477285705,False,IDLE,True,False,1286.3002639260958,357.97027654611344,0.0005826950073242188,1.5726005278521915,79.14706048123949,5.0,NONE,0.0,0.0,0,62,10
1764118016.2334669,12.021027326583862,24.864400160610398,True,949,1143.4826293863275,0.9658203125,0.18,False,True,39,9,15,0,42,21,66.66666666666666,4,0,3041.4337979094075,55.14919580473869,3041.4337979094075,1,38.661956787109375,41,943.7333333333333,949,0.0,0.0,0,False,False,NONE,0.0,0.0,0,0.0,0.0,0.0,172.60918252726103,0.0,0.0,0.0,3.2277976019340713,1.0,0.9,True,159.03097445836,87.57883591587968,173.2212687180785,172.60918252726103,-0.01065264455974102,0.0,-0.01065264455974102,-9.222464561462402,-0.009576806798577309,-0.22026655077934265,9.999944066557315,False,IDLE,True,False,1286.3002639260958,357.97027654611344,0.00047707557678222656,1.5726005278521915,78.50499408560633,4.999999999999999,NONE,0.0,0.0,0,63,10
1764118016.2742152,12.06177568435669,24.888696542536714,True,945,1142.833251953125,0.9677734375,0.18,False,True,35,9,16,0,43,21,67.1875,5,0,3362.473975636766,57.986843125288054,3362.473975636766,0,0.0,42,947.8666666666667,945,0.0,0.0,0,False,False,NONE,0.0,0.0,0,0.0,0.0,0.0,172.8017731297777,0.0,0.0,0.0,3.420388204450745,1.0,0.9,True,159.26274041006036,87.57998817077777,173.4533399370559,172.8017731297777,0.013848437927663326,0.001065264455974102,-0.004261057823896408,-9.27034854888916,-0.10534487664699554,-0.23942017555236816,9.999946952147559,False,IDLE,True,False,1284.820590208529,357.7077814385087,0.0005068778991699219,1.569641180417058,78.50499408560633,5.0,NONE,0.0,0.0,0,64,10
1764118016.3140392,12.10159969329834,24.863792345797986,True,945,1142.833251953125,0.9677734375,0.18,False,True,35,9,17,0,44,21,67.6923076923077,6,0,3651.1136363636365,60.4244456851996,3651.1136363636365,1,39.83044624328613,43,946.6666666666666,945,0.0,0.0,0,False,False,NONE,0.0,0.0,0,0.0,0.0,0.0,172.93740477846913,0.0,0.0,0.0,3.5560198531421747,1.0,0.9,True,159.20790650140137,87.58916513349244,173.39854392977463,172.93740477846913,-0.012783173471689224,-0.006391586735844612,0.012783173471689224,-9.260771751403809,0.19153612852096558,-0.3447650372982025,9.999937277967213,False,IDLE,True,False,1284.820590208529,357.7077814385087,0.0005033016204833984,1.569641180417058,76.821071395695,5.0,NONE,0.0,0.0,0,65,11
1764118016.3569782,12.144538640975952,24.862969934771836,True,945,1142.833251953125,0.9677734375,0.18,False,True,35,9,18,0,45,21,68.18181818181817,7,0,3910.7,62.535589866890994,3910.7,1,82.75890350341797,44,945.8,945,0.0,0.0,0,False,False,NONE,0.0,0.0,0,0.0,0.0,0.0,172.98773469298283,0.0,0.0,0.0,3.606349767655871,1.0,0.9,True,158.97732156619722,87.58799835370114,173.1676623686859,172.98773469298283,-0.009587380103766918,-0.006391586735844612,-0.006391586735844612,-9.241618156433105,0.2777273952960968,-0.4692635238170624,9.999943430093522,False,IDLE,True,False,1284.820590208529,357.7077814385087,0.0004918575286865234,1.569641180417058,76.821071395695,5.0,NONE,0.0,0.0,0,66,11
1764118016.3978374,12.185397863388062,24.857206392614582,True,945,1142.833251953125,0.9677734375,0.18,False,True,35,9,19,0,46,21,68.65671641791045,8,0,4144.185990338165,64.3753523511768,4144.185990338165,1,121.43325805664062,45,945.2666666666667,945,0.0,0.0,0,False,False,NONE,0.0,0.0,0,0.0,0.0,0.0,173.07038128875294,0.0,0.0,0.0,3.6889963634259857,1.0,0.9,True,159.1085095380488,87.72599995288519,173.272045124944,173.07038128875294,0.008522115647792816,-0.001065264455974102,-0.00532632227987051,-9.241618156433105,0.181959331035614,-0.2298433631658554,9.999945128443034,False,IDLE,True,False,1284.820590208529,357.7077814385087,0.0012650489807128906,1.569641180417058,79.42516705773035,5.0,NONE,0.0,0.0,0,67,11
1764118016.4375234,12.225083827972412,24.870866780303345,True,945,1142.833251953125,0.9677734375,0.18,False,True,35,9,20,0,47,21,69.11764705882352,9,0,4354.183163737281,65.98623465342814,4354.183163737281,1,159.89947319030762,46,945.0,945,0.0,0.0,0,False,False,NONE,0.0,0.0,0,0.0,0.0,0.0,173.1310073001811,0.0,0.0,0.0,3.749622374854141,1.0,0.9,True,159.26828049539367,87.6090772215877,173.46161550490947,173.1310073001811,-0.007456851191818714,0.006391586735844612,0.002130528911948204,-9.27034854888916,-0.028730420395731926,-0.14365209639072418,9.999811442508635,False,IDLE,True,False,1284.820590208529,357.7077814385087,0.0018393993377685547,1.569641180417058,79.42516705773035,5.0,NONE,0.0,0.0,0,68,11
1764118016.476265,12.263825416564941,24.87819462861201,True,945,1142.833251953125,0.9677734375,0.18,False,True,35,9,21,0,48,21,69.56521739130434,10,0,4543.00664893617,67.40182971504683,4543.00664893617,1,201.9205093383789,47,945.0,945,0.0,0.0,0,False,False,NONE,0.0,0.0,0,0.0,0.0,0.0,173.20143462421976,0.0,0.0,0.0,3.8200496988928023,1.0,0.9,True,159.4389617324292,87.59031217144278,173.6298917883989,173.20143462421976,0.004261057823896408,-0.002130528911948204,0.01065264455974102,-9.260771751403809,0.038307227194309235,-0.33518823981285095,9.999941812383915,False,IDLE,True,False,1284.820590208529,357.7077814385087,0.0005035400390625,1.569641180417058,79.17065613656085,5.0,NONE,0.0,0.0,0,69,12
1764118016.5168948,12.304455280303955,24.871183697995416,True,945,1142.833251953125,0.9677734375,0.18,False,True,35,9,22,0,49,21,70.0,11,0,4712.713435374149,68.64920564270318,4712.713435374149,1,240.3247356414795,48,945.0,945,0.0,0.0,0,False,False,NONE,0.0,0.0,0,0.0,0.0,0.0,173.2700530763858,0.0,0.0,0.0,3.8886681510588517,1.0,0.9,True,159.21342734074304,87.61837647483401,173.40683037409838,173.2700530763858,0.01065264455974102,-0.007456851191818714,0.002130528911948204,-9.241618156433105,0.1628057211637497,-0.35434186458587646,9.999921322487916,False,IDLE,True,False,1284.820590208529,357.7077814385087,0.0007216930389404297,1.569641180417058,79.17065613656085,5.0,NONE,0.0,0.0,0,70,12
1764118016.5563455,12.343905925750732,24.88982924038832,True,945,1142.833251953125,0.9677734375,0.18,False,True,35,9,23,0,50,21,70.4225352112676,12,0,4865.1351020408165,69.75052044279538,4865.1351020408165,1,282.0696830749512,49,945.0,945,0.0,0.0,0,False,False,NONE,0.0,0.0,0,0.0,0.0,0.0,173.34230675354817,0.0,0.0,0.0,3.960921828221217,1.0,0.9,True,159.33158232428116,87.63371169205212,173.52650150550073,173.34230675354817,-0.001065264455974102,0.002130528911948204,0.0,-9.232041358947754,0.13407529890537262,-0.31603461503982544,9.999940362130813,False,IDLE,True,False,1284.820590208529,357.7077814385087,0.0005147457122802734,1.569641180417058,79.16480322146063,5.0,NONE,0.0,0.0,0,71,12
1764118016.5970213,12.384581804275513,24.88260375584512,False,0,0,0.0,0.18,False,True,0,9,24,0,50,22,69.44444444444444,0,1,4865.1351020408165,69.75052044279538,4865.1351020408165,0,0.0,49,945.0,0,0.0,0.0,0,False,False,NONE,0.0,0.0,0,0.0,0.0,0.0,173.4119575408679,0.0,0.0,0.0,4.030572615540933,1.0,0.9,True,159.38703586563793,87.62434214571884,173.58187615723244,173.4119575408679,-0.00532632227987051,-0.006391586735844612,-0.003195793367922306,-9.260771751403809,-0.009576806798577309,-0.2298433631658554,9.99988238155107,False,IDLE,True,False,1284.820590208529,357.7077814385087,0.04084181785583496,1.569641180417058,79.16480322146063,5.0,NONE,0.0,0.0,0,72,0
1764118016.6338942,12.421454668045044,24.900621771725955,False,0,0,0.0,0.18,False,True,0,9,25,0,50,23,68.4931506849315,0,2,4865.1351020408165,69.75052044279538,4865.1351020408165,0,0.0,49,945.0,0,0.0,0.0,0,False,False,NONE,0.0,0.0,0,0.0,0.0,0.0,173.43599221955097,0.0,0.0,0.0,4.054607294224013,1.0,0.9,True,159.26828049539367,87.6090772215877,173.46161550490947,173.43599221955097,-0.012783173471689224,-0.006391586735844612,0.00532632227987051,-9.318233489990234,0.009576806798577309,-0.26815059781074524,9.999946503076252,False,IDLE,True,False,1284.820590208529,357.7077814385087,0.07782220840454102,1.569641180417058,78.9644644363269,5.000000000000001,NONE,0.0,0.0,0,73,0
1764118016.676144,12.463704347610474,24.90036310580551,False,0,0,0.0,0.18,False,True,0,9,26,0,50,24,67.56756756756756,0,3,4865.1351020408165,69.75052044279538,4865.1351020408165,0,0.0,49,945.0,0,0.0,0.0,0,False,False,NONE,0.0,0.0,0,0.0,0.0,0.0,173.43134126325523,0.0,0.0,0.0,4.059258250519747,1.0,0.9,True,159.21342734074304,87.61837647483401,173.40683037409838,173.43134126325523,0.002130528911948204,-0.004261057823896408,0.011717909015715122,-9.260771751403809,0.19153612852096558,-0.3926490843296051,9.999946388325851,False,IDLE,True,False,1284.820590208529,357.7077814385087,0.12034296989440918,1.569641180417058,78.9644644363269,5.000000000000001,NONE,0.0,0.0,0,74,0
1764118016.713735,12.501295566558838,24.893295068829236,False,0,0,0.0,0.18,False,True,0,9,27,0,50,25,66.66666666666666,0,4,4865.1351020408165,69.75052044279538,4865.1351020408165,0,0.0,49,945.0,0,0.0,0.0,0,False,False,NONE,0.0,0.0,0,0.0,0.0,0.0,173.44413702082784,0.0,0.0,0.0,4.072054008092351,1.0,0.9,True,159.33158232428116,87.63371169205212,173.52650150550073,173.44413702082784,-0.003195793367922306,-0.006391586735844612,-0.013848437927663326,-9.241618156433105,0.08619125932455063,-0.4118026793003082,9.999958992172559,False,IDLE,True,False,1284.820590208529,357.7077814385087,0.15794920921325684,1.569641180417058,79.65637667082004,5.000000000000001,NONE,0.0,0.0,0,75,0
1764118016.755317,12.542877435684204,24.887053060626666,False,0,0,0.0,0.18,False,True,0,9,28,0,50,26,65.78947368421053,0,5,4865.1351020408165,69.75052044279538,4865.1351020408165,0,0.0,49,945.0,0,0.0,0.0,0,False,False,NONE,0.0,0.0,0,0.0,0.0,0.0,173.5088182304599,0.0,0.0,0.0,4.136735217724407,1.0,0.9,True,159.61935591483373,87.62548555938858,173.8144744650065,173.5088182304599,0.004261057823896408,-0.009587380103766918,0.001065264455974102,-9.241618156433105,-0.009576806798577309,-0.33518823981285095,9.999950559760137,False,IDLE,True,False,1284.820590208529,357.7077814385087,0.19951248168945312,1.569641180417058,79.65637667082004,5.000000000000001,NONE,0.0,0.0,0,76,0
1764118016.7997782,12.58733868598938,24.86753075013601,False,0,0,0.0,0.18,False,True,0,9,29,0,50,27,64.93506493506493,0,6,4865.1351020408165,69.75052044279538,4865.1351020408165,0,0.0,49,945.0,0,0.0,0.0,0,False,False,NONE,0.0,0.0,0,0.0,0.0,0.0,173.56306116446615,0.0,0.0,0.0,4.190978151730661,1.0,0.9,True,159.61935591483373,87.62548555938858,173.8144744650065,173.56306116446615,0.007456851191818714,-0.002130528911948204,-0.00532632227987051,-9.21288776397705,0.07661445438861847,-0.3734954595565796,9.999933057465274,False,IDLE,True,False,1284.820590208529,357.7077814385087,0.24358820915222168,1.569641180417058,78.50323083347905,5.0,NONE,0.0,0.0,0,77,0
1764118016.8356812,12.623241662979126,24.892208301505168,False,0,0,0.0,0.18,False,True,0,9,30,0,50,28,64.1025641025641,0,7,4865.1351020408165,69.75052044279538,4865.1351020408165,0,0.0,49,945.0,0,0.0,0.0,0,False,False,NONE,0.0,0.0,0,0.0,0.0,0.0,173.5871189764732,0.0,0.0,0.0,4.215035963737705,1.0,0.9,True,159.50585801912393,87.63970573493464,173.70219362497983,173.5871189764732,-0.0,-0.00532632227987051,0.01065264455974102,-9.251194953918457,0.17238251864910126,-0.2968810200691223,9.999952377643938,False,IDLE,True,False,1284.820590208529,357.7077814385087,0.2798929214477539,1.569641180417058,78.50323083347905,5.0,NONE,0.0,0.0,0,78,0
1764118016.8785095,12.666069984436035,24.889502898153108,False,0,0,0.0,0.18,False,True,0,9,31,0,50,29,63.29113924050633,0,8,4865.1351020408165,69.75052044279538,4865.1351020408165,0,0.0,49,945.0,0,0.0,0.0,0,False,False,NONE,0.0,0.0,0,0.0,0.0,0.0,173.60557724413394,0.0,0.0,0.0,4.233494231398453,1.0,0.9,True,159.61935591483373,87.62548555938858,173.8144744650065,173.60557724413394,-0.002130528911948204,-0.003195793367922306,-0.002130528911948204,-9.241618156433105,0.12449848651885986,-0.3926490843296051,9.999931070344163,False,IDLE,True,False,1284.820590208529,357.7077814385087,0.32268285751342773,1.569641180417058,78.09418094812945,5.0,NONE,0.0,0.0,0,79,0
1764118016.9179316,12.70549201965332,24.91663509105367,True,964,1139.20621084818,0.9013671875,0.18,False,True,54,9,32,0,51,29,63.74999999999999,1,0,5090.393725490196,71.34699520996098,5090.393725490196,0,0.0,50,951.3333333333334,964,0.0,0.0,0,False,False,NONE,0.0,0.0,0,0.0,0.0,0.0,173.65606000764168,0.0,0.0,0.0,4.283976994906197,1.0,0.9,True,159.74636907918836,87.73464483683792,173.9116580091758,173.65606000764168,-0.002130528911948204,-0.00532632227987051,-0.006391586735844612,-9.241618156433105,0.047884032130241394,-0.3256114423274994,9.99993532937865,False,IDLE,True,False,1284.3946137391727,358.6950967901469,0.0012774467468261719,1.5687892274783453,78.09418094812945,4.999999999999999,NONE,0.0,0.0,0,80,14
1764118016.958274,12.745834350585938,24.902248358973324,True,964,1139.20621084818,0.9013671875,0.18,False,True,54,9,33,0,52,29,64.19753086419753,2,0,5294.655731523379,72.7643850487543,5294.655731523379,1,42.30499267578125,51,956.4,964,0.0,0.0,0,False,False,NONE,0.0,0.0,0,0.0,0.0,0.0,173.7058374825995,0.0,0.0,0.0,4.3337544698640045,1.0,0.9,True,159.86022058150127,87.71983282961077,174.02427625507872,173.7058374825995,0.002130528911948204,0.0,-0.004261057823896408,-9.251194953918457,0.028730420395731926,-0.2777273952960968,9.999952434248002,False,IDLE,True,False,1284.3946137391727,358.6950967901469,0.0005257129669189453,1.5687892274783453,78.03602659275252,5.000000000000001,NONE,0.0,0.0,0,81,15
1764118016.9969516,12.784512042999268,24.892706699820895,True,964,1139.20621084818,0.9013671875,0.18,False,True,54,9,34,0,53,29,64.63414634146342,3,0,5479.807692307692,74.02572317990344,5479.807692307692,1,80.28531074523926,52,960.2,964,0.0,0.0,0,False,False,NONE,0.0,0.0,0,0.0,0.0,0.0,173.75007749238412,0.0,0.0,0.0,4.377994479648635,1.0,0.9,True,159.86022058150127,87.71983282961077,174.02427625507872,173.75007749238412,0.009587380103766918,0.008522115647792816,0.0,-9.232041358947754,0.09576806426048279,-0.3734954595565796,9.999938011553693,False,IDLE,True,False,1284.3946137391727,358.6950967901469,0.0006704330444335938,1.5687892274783453,78.03602659275252,5.000000000000001,NONE,0.0,0.0,0,82,15
1764118017.0370944,12.824654817581177,24.919314725081264,True,964,1139.20621084818,0.9013671875,0.18,False,True,54,9,35,0,54,29,65.06024096385542,4,0,5647.544723969252,75.15014786392142,5647.544723969252,1,121.11973762512207,53,962.7333333333333,964,0.0,0.0,0,False,False,NONE,0.0,0.0,0,0.0,0.0,0.0,173.7966085868078,0.0,0.0,0.0,4.424525574072305,1.0,0.9,True,159.733021110238,87.61134999009383,173.92692644914632,173.7966085868078,0.001065264455974102,0.001065264455974102,-0.002130528911948204,-9.2033109664917,0.14365209639072418,-0.31603461503982544,9.999950650470177,False,IDLE,True,False,1284.3946137391727,358.6950967901469,0.0005280971527099609,1.5687892274783453,79.1703738289085,5.000000000000001,NONE,0.0,0.0,0,83,16
1764118017.0789177,12.866478204727173,24.911442206710355,True,964,1139.20621084818,0.9013671875,0.18,False,True,54,9,36,0,55,29,65.47619047619048,5,0,5799.392592592592,76.153743129229,5799.392592592592,1,161.76509857177734,54,964.0,964,0.0,0.0,0,False,False,NONE,0.0,0.0,0,0.0,0.0,0.0,173.85439403954197,0.0,0.0,0.0,4.482311026806485,1.0,0.9,True,159.7907918076846,87.60203715839788,173.98468490144015,173.85439403954197,-0.0,0.003195793367922306,-0.003195793367922306,-9.251194953918457,0.13407529890537262,-0.2968810200691223,9.999959298708228,False,IDLE,True,False,1284.3946137391727,358.6950967901469,0.0012400150299072266,1.5687892274783453,79.1703738289085,5.000000000000001,NONE,0.0,0.0,0,84,16
1764118017.1178393,12.905399799346924,24.917875031603383,True,964,1139.20621084818,0.9013671875,0.18,False,True,54,9,37,0,56,29,65.88235294117646,6,0,5936.726948051948,77.0501586504009,5936.726948051948,1,201.01666450500488,55,964.0,964,0.0,0.0,0,False,False,NONE,0.0,0.0,0,0.0,0.0,0.0,173.91233249718664,0.0,0.0,0.0,4.540249484451152,1.0,0.9,True,159.91051669960234,87.6172262028018,174.1058860819472,173.91233249718664,0.003195793367922306,-0.001065264455974102,0.00532632227987051,-9.251194953918457,0.028730420395731926,-0.33518823981285095,9.999943340846935,False,IDLE,True,False,1284.3946137391727,358.6950967901469,0.0008466243743896484,1.5687892274783453,79.38748573388028,5.0,NONE,0.0,0.0,0,85,15
1764118017.1584752,12.946035623550415,24.918183234005426,True,964,1139.20621084818,0.9013671875,0.18,False,True,54,9,38,0,57,29,66.27906976744185,7,0,6060.790100250627,77.85107642319808,6060.790100250627,1,242.4330711364746,56,964.0,964,0.0,0.0,0,False,False,NONE,0.0,0.0,0,0.0,0.0,0.0,173.95359907285624,0.0,0.0,0.0,4.581516060120748,1.0,0.9,True,160.03030442499147,87.63251263672697,174.22714022170265,173.95359907285624,-0.002130528911948204,0.008522115647792816,0.00532632227987051,-9.251194953918457,0.1149216815829277,-0.3926490843296051,9.999954645229495,False,IDLE,True,False,1284.3946137391727,358.6950967901469,0.0005483627319335938,1.5687892274783453,79.38748573388028,5.0,NONE,0.0,0.0,0,86,15
