timestamp,elapsed_time,log_number,test_mode,person_detected,person_x_mm,person_y_mm,person_distance_mm,person_angle_deg,person_confidence,time_since_person_update_ms,robot_x_mm,robot_y_mm,robot_orientation_deg,imu_yaw_raw,imu_yaw_smoothed,imu_roll,imu_pitch,imu_angular_vel_z,imu_update_rate,imu_drift_estimate,attr_force_x,attr_force_y,attr_force_magnitude,attr_force_direction_deg,repul_force_x,repul_force_y,repul_force_magnitude,repul_force_direction_deg,num_obstacles_in_range,closest_obstacle_dist_mm,closest_obstacle_angle_deg,total_force_x,total_force_y,total_force_magnitude,total_force_direction_deg,expected_direction_to_person_deg,force_direction_deg,direction_error_deg,direction_mismatch_flag,commanded_direction,commanded_speed,motor_1_speed,motor_2_speed,nav_state,nav_state_changed,goal_reached,stuck_detected,time_in_current_state_s,anomaly_detected,anomaly_type,calculation_time_ms,obstacles_filtered_for_person
1764569728.9931204,184.370,1,TEST2_OBSTACLE_BYPASS,False,0.0,0.0,0.0,0.00,0.000,0.0,3197.7,-140.6,-178.16,-178.16,-178.16,159.96,87.82,0.0085,10.0,0.000,0.0000,0.0000,0.0000,0.00,0.0000,0.0000,0.0000,0.00,0,800.0,128.0,0.0000,0.0000,0.0000,0.00,0.00,0.00,0.00,False,NONE,0.000,0,0,SEARCHING,True,False,False,0,False,,0.00,0
1764569729.0334792,184.411,2,TEST2_OBSTACLE_BYPASS,False,0.0,0.0,0.0,0.00,0.000,0.0,3197.7,-140.6,-178.16,-178.16,-178.16,159.96,87.82,-0.0021,10.0,0.000,0.0000,0.0000,0.0000,0.00,0.0000,0.0000,0.0000,0.00,1,750.0,128.0,0.0000,0.0000,0.0000,0.00,0.00,0.00,0.00,False,NONE,0.000,0,0,SEARCHING,False,False,False,0,False,,0.00,0
1764569729.0747538,184.452,3,TEST2_OBSTACLE_BYPASS,False,0.0,0.0,0.0,0.00,0.000,0.0,3197.7,-140.6,-178.16,-178.16,-178.16,159.96,87.82,-0.0117,10.0,0.000,0.0000,0.0000,0.0000,0.00,0.0000,0.0000,0.0000,0.00,0,800.0,128.0,0.0000,0.0000,0.0000,0.00,0.00,0.00,0.00,False,NONE,0.000,0,0,SEARCHING,False,False,False,0,False,,0.00,0
1764569729.1176157,184.495,4,TEST2_OBSTACLE_BYPASS,False,0.0,0.0,0.0,0.00,0.000,0.0,3197.7,-140.6,-178.16,-178.16,-178.16,159.96,87.82,-0.0032,10.0,0.000,0.0000,0.0000,0.0000,0.00,0.0000,0.0000,0.0000,0.00,0,800.0,128.0,0.0000,0.0000,0.0000,0.00,0.00,0.00,0.00,False,NONE,0.000,0,0,SEARCHING,False,False,False,0,False,,0.00,0
1764569729.1549194,184.532,5,TEST2_OBSTACLE_BYPASS,False,0.0,0.0,0.0,0.00,0.000,0.0,3197.7,-140.6,-178.16,-178.16,-178.16,159.96,87.82,0.0032,10.0,0.000,0.0000,0.0000,0.0000,0.00,0.0000,0.0000,0.0000,0.00,1,750.0,128.0,0.0000,0.0000,0.0000,0.00,0.00,0.00,0.00,False,NONE,0.000,0,0,SEARCHING,False,False,False,0,False,,0.00,0
1764569729.1976006,184.575,6,TEST2_OBSTACLE_BYPASS,False,0.0,0.0,0.0,0.00,0.000,0.0,3197.7,-140.6,-178.16,-178.16,-178.16,159.96,87.82,0.0011,10.0,0.000,0.0000,0.0000,0.0000,0.00,0.0000,0.0000,0.0000,0.00,1,750.0,128.0,0.0000,0.0000,0.0000,0.00,0.00,0.00,0.00,False,NONE,0.000,0,0,SEARCHING,False,False,False,0,False,,0.00,0
1764569729.2356257,184.613,7,TEST2_OBSTACLE_BYPASS,False,0.0,0.0,0.0,0.00,0.000,0.0,3197.7,-140.6,-178.16,-178.16,-178.16,159.96,87.82,-0.0075,10.0,0.000,0.0000,0.0000,0.0000,0.00,0.0000,0.0000,0.0000,0.00,1,750.0,128.0,0.0000,0.0000,0.0000,0.00,0.00,0.00,0.00,False,NONE,0.000,0,0,SEARCHING,False,False,False,0,False,,0.00,0
1764569729.2778547,184.655,8,TEST2_OBSTACLE_BYPASS,False,0.0,0.0,0.0,0.00,0.000,0.0,3197.7,-140.6,-178.16,-178.16,-178.16,159.96,87.82,-0.0011,10.0,0.000,0.0000,0.0000,0.0000,0.00,0.0000,0.0000,0.0000,0.00,0,800.0,128.0,0.0000,0.0000,0.0000,0.00,0.00,0.00,0.00,False,NONE,0.000,0,0,SEARCHING,False,False,False,0,False,,0.00,0
1764569729.3159797,184.693,9,TEST2_OBSTACLE_BYPASS,False,0.0,0.0,0.0,0.00,0.000,0.0,3197.7,-140.6,-178.16,-178.16,-178.16,159.96,87.82,0.0000,10.0,0.000,0.0000,0.0000,0.0000,0.00,0.0000,0.0000,0.0000,0.00,0,800.0,128.0,0.0000,0.0000,0.0000,0.00,0.00,0.00,0.00,False,NONE,0.000,0,0,SEARCHING,False,False,False,0,False,,0.00,0
1764569729.3584633,184.736,10,TEST2_OBSTACLE_BYPASS,False,0.0,0.0,0.0,0.00,0.000,0.0,3197.7,-140.6,-178.16,-178.16,-178.16,159.96,87.82,0.0000,10.0,0.000,0.0000,0.0000,0.0000,0.00,0.0000,0.0000,0.0000,0.00,0,800.0,128.0,0.0000,0.0000,0.0000,0.00,0.00,0.00,0.00,False,NONE,0.000,0,0,SEARCHING,False,False,True,0,True,STUCK_DETECTED,0.00,0
1764569729.398503,184.776,11,TEST2_OBSTACLE_BYPASS,False,0.0,0.0,0.0,0.00,0.000,0.0,3197.7,-140.6,-178.16,-178.16,-178.16,159.96,87.82,0.0107,10.0,0.000,0.0000,0.0000,0.0000,0.00,0.0000,0.0000,0.0000,0.00,1,750.0,128.0,0.0000,0.0000,0.0000,0.00,0.00,0.00,0.00,False,NONE,0.000,0,0,SEARCHING,False,False,True,0,True,STUCK_DETECTED,0.00,0
1764569729.4361897,184.814,12,TEST2_OBSTACLE_BYPASS,False,0.0,0.0,0.0,0.00,0.000,0.0,3197.7,-140.6,-178.16,-178.16,-178.16,159.96,87.82,-0.0043,10.0,0.000,0.0000,0.0000,0.0000,0.00,0.0000,0.0000,0.0000,0.00,1,750.0,128.0,0.0000,0.0000,0.0000,0.00,0.00,0.00,0.00,False,NONE,0.000,0,0,SEARCHING,False,False,True,0,True,STUCK_DETECTED,0.00,0
1764569729.4785416,184.856,13,TEST2_OBSTACLE_BYPASS,False,0.0,0.0,0.0,0.00,0.000,0.0,3197.7,-140.6,-178.16,-178.16,-178.16,159.96,87.82,-0.0043,10.0,0.000,0.0000,0.0000,0.0000,0.00,0.0000,0.0000,0.0000,0.00,0,800.0,128.0,0.0000,0.0000,0.0000,0.00,0.00,0.00,0.00,False,NONE,0.000,0,0,SEARCHING,False,False,True,0,True,STUCK_DETECTED,0.00,0
1764569729.5168514,184.894,14,TEST2_OBSTACLE_BYPASS,False,0.0,0.0,0.0,0.00,0.000,0.0,3197.7,-140.6,-178.16,-178.16,-178.16,159.96,87.82,0.0085,10.0,0.000,0.0000,0.0000,0.0000,0.00,0.0000,0.0000,0.0000,0.00,0,800.0,128.0,0.0000,0.0000,0.0000,0.00,0.00,0.00,0.00,False,NONE,0.000,0,0,SEARCHING,False,False,True,0,True,STUCK_DETECTED,0.00,0
1764569729.5593972,184.937,15,TEST2_OBSTACLE_BYPASS,False,0.0,0.0,0.0,0.00,0.000,0.0,3197.7,-140.6,-178.16,-178.16,-178.16,159.96,87.82,0.0085,10.0,0.000,0.0000,0.0000,0.0000,0.00,0.0000,0.0000,0.0000,0.00,0,800.0,128.0,0.0000,0.0000,0.0000,0.00,0.00,0.00,0.00,False,NONE,0.000,0,0,SEARCHING,False,False,True,0,True,STUCK_DETECTED,0.00,0
1764569729.5978093,184.975,16,TEST2_OBSTACLE_BYPASS,False,0.0,0.0,0.0,0.00,0.000,0.0,3197.7,-140.6,-178.16,-178.16,-178.16,159.96,87.82,0.0043,10.0,0.000,0.0000,0.0000,0.0000,0.00,0.0000,0.0000,0.0000,0.00,0,800.0,128.0,0.0000,0.0000,0.0000,0.00,0.00,0.00,0.00,False,NONE,0.000,0,0,SEARCHING,False,False,True,0,True,STUCK_DETECTED,0.00,0
1764569729.6394048,185.017,17,TEST2_OBSTACLE_BYPASS,False,0.0,0.0,0.0,0.00,0.000,0.0,3197.7,-140.6,-178.16,-178.16,-178.16,159.96,87.82,-0.0117,10.0,0.000,0.0000,0.0000,0.0000,0.00,0.0000,0.0000,0.0000,0.00,0,800.0,128.0,0.0000,0.0000,0.0000,0.00,0.00,0.00,0.00,False,NONE,0.000,0,0,SEARCHING,False,False,True,0,True,STUCK_DETECTED,0.00,0
1764569729.675966,185.053,18,TEST2_OBSTACLE_BYPASS,False,0.0,0.0,0.0,0.00,0.000,0.0,3197.7,-140.6,-178.16,-178.16,-178.16,159.96,87.82,0.0000,10.0,0.000,0.0000,0.0000,0.0000,0.00,0.0000,0.0000,0.0000,0.00,0,800.0,128.0,0.0000,0.0000,0.0000,0.00,0.00,0.00,0.00,False,NONE,0.000,0,0,SEARCHING,False,False,True,0,True,STUCK_DETECTED,0.00,0
1764569729.7176547,185.095,19,TEST2_OBSTACLE_BYPASS,False,0.0,0.0,0.0,0.00,0.000,0.0,3197.7,-140.6,-178.16,-178.16,-178.16,159.96,87.82,0.0000,10.0,0.000,0.0000,0.0000,0.0000,0.00,0.0000,0.0000,0.0000,0.00,0,800.0,128.0,0.0000,0.0000,0.0000,0.00,0.00,0.00,0.00,False,NONE,0.000,0,0,SEARCHING,False,False,True,0,True,STUCK_DETECTED,0.00,0
1764569729.7606926,185.138,20,TEST2_OBSTACLE_BYPASS,False,0.0,0.0,0.0,0.00,0.000,0.0,3197.7,-140.6,-178.16,-178.16,-178.16,159.96,87.82,0.0096,10.0,0.000,0.0000,0.0000,0.0000,0.00,0.0000,0.0000,0.0000,0.00,0,800.0,128.0,0.0000,0.0000,0.0000,0.00,0.00,0.00,0.00,False,NONE,0.000,0,0,SEARCHING,False,False,True,0,True,STUCK_DETECTED,0.00,0
1764569729.8005552,185.178,21,TEST2_OBSTACLE_BYPASS,False,0.0,0.0,0.0,0.00,0.000,0.0,3197.7,-140.6,-178.16,-178.16,-178.16,159.96,87.82,-0.0011,10.0,0.000,0.0000,0.0000,0.0000,0.00,0.0000,0.0000,0.0000,0.00,0,800.0,128.0,0.0000,0.0000,0.0000,0.00,0.00,0.00,0.00,False,NONE,0.000,0,0,SEARCHING,False,False,True,0,True,STUCK_DETECTED,0.00,0
1764569729.8392727,185.217,22,TEST2_OBSTACLE_BYPASS,False,0.0,0.0,0.0,0.00,0.000,0.0,3197.7,-140.6,-178.16,-178.16,-178.16,159.96,87.82,0.0043,10.0,0.000,0.0000,0.0000,0.0000,0.00,0.0000,0.0000,0.0000,0.00,0,800.0,128.0,0.0000,0.0000,0.0000,0.00,0.00,0.00,0.00,False,NONE,0.000,0,0,SEARCHING,False,False,True,0,True,STUCK_DETECTED,0.00,0
1764569729.8817327,185.259,23,TEST2_OBSTACLE_BYPASS,False,0.0,0.0,0.0,0.00,0.000,0.0,3197.7,-140.6,-178.16,-178.16,-178.16,159.96,87.82,-0.0043,10.0,0.000,0.0000,0.0000,0.0000,0.00,0.0000,0.0000,0.0000,0.00,1,750.0,128.0,0.0000,0.0000,0.0000,0.00,0.00,0.00,0.00,False,NONE,0.000,0,0,SEARCHING,False,False,True,0,True,STUCK_DETECTED,0.00,0
1764569729.9219806,185.299,24,TEST2_OBSTACLE_BYPASS,False,0.0,0.0,0.0,0.00,0.000,0.0,3197.7,-140.6,-178.16,-178.16,-178.16,159.96,87.82,-0.0075,10.0,0.000,0.0000,0.0000,0.0000,0.00,0.6599,0.3077,0.7281,65.00,1,300.0,128.0,0.6599,0.3077,0.7281,65.00,0.00,65.00,0.00,False,FORWARDS_RIGHT,0.218,0,0,SEARCHING,False,False,True,0,True,STUCK_DETECTED,0.00,0
1764569729.9624975,185.340,25,TEST2_OBSTACLE_BYPASS,False,0.0,0.0,0.0,0.00,0.000,0.0,3195.7,-140.7,-178.16,-178.16,-178.16,159.96,87.82,-0.0011,10.0,0.000,0.0000,0.0000,0.0000,0.00,0.0000,0.0000,0.0000,0.00,1,750.0,128.0,0.0000,0.0000,0.0000,0.00,0.00,0.00,0.00,False,NONE,0.000,0,0,SEARCHING,False,False,True,0,True,STUCK_DETECTED,0.00,0
1764569729.9995525,185.377,26,TEST2_OBSTACLE_BYPASS,False,0.0,0.0,0.0,0.00,0.000,0.0,3194.0,-140.7,-178.16,-178.16,-178.16,159.96,87.82,0.0000,10.0,0.000,0.0000,0.0000,0.0000,0.00,0.0000,0.0000,0.0000,0.00,1,750.0,128.0,0.0000,0.0000,0.0000,0.00,0.00,0.00,0.00,False,NONE,0.000,0,0,SEARCHING,False,False,True,0,True,STUCK_DETECTED,0.00,0
1764569730.0423985,185.420,27,TEST2_OBSTACLE_BYPASS,False,0.0,0.0,0.0,0.00,0.000,0.0,3192.1,-140.8,-178.16,-178.16,-178.16,159.96,87.82,-0.0021,10.0,0.000,0.0000,0.0000,0.0000,0.00,0.0000,0.0000,0.0000,0.00,0,800.0,128.0,0.0000,0.0000,0.0000,0.00,0.00,0.00,0.00,False,NONE,0.000,0,0,SEARCHING,False,False,True,0,True,STUCK_DETECTED,0.00,0
1764569730.0798116,185.457,28,TEST2_OBSTACLE_BYPASS,False,0.0,0.0,0.0,0.00,0.000,0.0,3190.4,-140.9,-178.16,-178.16,-178.16,159.96,87.82,-0.0075,10.0,0.000,0.0000,0.0000,0.0000,0.00,0.0000,0.0000,0.0000,0.00,0,800.0,128.0,0.0000,0.0000,0.0000,0.00,0.00,0.00,0.00,False,NONE,0.000,0,0,SEARCHING,False,False,True,0,True,STUCK_DETECTED,0.00,0
1764569730.1222746,185.500,29,TEST2_OBSTACLE_BYPASS,False,0.0,0.0,0.0,0.00,0.000,0.0,3188.4,-140.9,-178.16,-178.16,-178.16,159.96,87.82,-0.0064,10.0,0.000,0.0000,0.0000,0.0000,0.00,0.0000,0.0000,0.0000,0.00,0,800.0,128.0,0.0000,0.0000,0.0000,0.00,0.00,0.00,0.00,False,NONE,0.000,0,0,SEARCHING,False,False,True,0,True,STUCK_DETECTED,0.00,0
1764569730.1599476,185.537,30,TEST2_OBSTACLE_BYPASS,False,0.0,0.0,0.0,0.00,0.000,0.0,3186.7,-141.0,-178.16,-178.16,-178.16,159.96,87.82,0.0032,10.0,0.000,0.0000,0.0000,0.0000,0.00,0.0000,0.0000,0.0000,0.00,0,800.0,128.0,0.0000,0.0000,0.0000,0.00,0.00,0.00,0.00,False,NONE,0.000,0,0,SEARCHING,False,False,True,0,True,STUCK_DETECTED,0.00,0
1764569730.2065754,185.584,31,TEST2_OBSTACLE_BYPASS,False,0.0,0.0,0.0,0.00,0.000,0.0,3184.6,-141.0,-178.16,-178.16,-178.16,159.96,87.82,0.0000,10.0,0.000,0.0000,0.0000,0.0000,0.00,0.0000,0.0000,0.0000,0.00,1,750.0,128.0,0.0000,0.0000,0.0000,0.00,0.00,0.00,0.00,False,NONE,0.000,0,0,SEARCHING,False,False,True,0,True,STUCK_DETECTED,0.00,0
1764569730.2418604,185.619,32,TEST2_OBSTACLE_BYPASS,False,0.0,0.0,0.0,0.00,0.000,0.0,3183.0,-141.1,-178.16,-178.16,-178.16,159.96,87.82,-0.0032,10.0,0.000,0.0000,0.0000,0.0000,0.00,0.0000,0.0000,0.0000,0.00,1,750.0,128.0,0.0000,0.0000,0.0000,0.00,0.00,0.00,0.00,False,NONE,0.000,0,0,SEARCHING,False,False,True,0,True,STUCK_DETECTED,0.00,0
1764569730.2839081,185.661,33,TEST2_OBSTACLE_BYPASS,False,0.0,0.0,0.0,0.00,0.000,0.0,3181.0,-141.2,-178.16,-178.16,-178.16,159.96,87.82,0.0107,10.0,0.000,0.0000,0.0000,0.0000,0.00,0.0000,0.0000,0.0000,0.00,0,800.0,128.0,0.0000,0.0000,0.0000,0.00,0.00,0.00,0.00,False,NONE,0.000,0,0,SEARCHING,False,False,True,0,True,STUCK_DETECTED,0.00,0
1764569730.322655,185.700,34,TEST2_OBSTACLE_BYPASS,False,0.0,0.0,0.0,0.00,0.000,0.0,3179.2,-141.2,-178.16,-178.16,-178.16,159.96,87.82,0.0000,10.0,0.000,0.0000,0.0000,0.0000,0.00,0.0000,0.0000,0.0000,0.00,0,800.0,128.0,0.0000,0.0000,0.0000,0.00,0.00,0.00,0.00,False,NONE,0.000,0,0,SEARCHING,False,False,True,0,True,STUCK_DETECTED,0.00,0
1764569730.3647525,185.742,35,TEST2_OBSTACLE_BYPASS,False,0.0,0.0,0.0,0.00,0.000,0.0,3177.3,-141.3,-178.15,-178.04,-178.15,160.03,87.72,-0.0085,10.0,0.000,0.0000,0.0000,0.0000,0.00,0.0000,0.0000,0.0000,0.00,0,800.0,128.0,0.0000,0.0000,0.0000,0.00,0.00,0.00,0.00,False,NONE,0.000,0,0,SEARCHING,False,False,True,0,True,STUCK_DETECTED,0.00,0
1764569730.4038112,185.781,36,TEST2_OBSTACLE_BYPASS,False,0.0,0.0,0.0,0.00,0.000,0.0,3175.5,-141.3,-178.18,-178.45,-178.18,159.66,87.82,0.0224,10.0,-0.000,0.0000,0.0000,0.0000,0.00,0.0000,0.0000,0.0000,0.00,0,800.0,128.0,0.0000,0.0000,0.0000,0.00,0.00,0.00,0.00,False,NONE,0.000,0,0,SEARCHING,False,False,True,0,True,STUCK_DETECTED,0.00,0
1764569730.4414232,185.819,37,TEST2_OBSTACLE_BYPASS,False,0.0,0.0,0.0,0.00,0.000,0.0,3173.7,-141.4,-178.20,-178.37,-178.20,159.76,87.74,-0.0096,10.0,-0.001,0.0000,0.0000,0.0000,0.00,0.0000,0.0000,0.0000,0.00,0,800.0,128.0,0.0000,0.0000,0.0000,0.00,0.00,0.00,0.00,False,NONE,0.000,0,0,SEARCHING,False,False,True,0,True,STUCK_DETECTED,0.00,0
1764569730.4851491,185.863,38,TEST2_OBSTACLE_BYPASS,False,0.0,0.0,0.0,0.00,0.000,0.0,3171.8,-141.5,-178.19,-178.07,-178.19,160.03,87.75,0.0117,10.0,-0.002,0.0000,0.0000,0.0000,0.00,0.0000,0.0000,0.0000,0.00,0,800.0,128.0,0.0000,0.0000,0.0000,0.00,0.00,0.00,0.00,False,NONE,0.000,0,0,SEARCHING,False,False,True,0,True,STUCK_DETECTED,0.00,0
1764569730.5218065,185.899,39,TEST2_OBSTACLE_BYPASS,False,0.0,0.0,0.0,0.00,0.000,0.0,3170.1,-141.5,-178.23,-178.57,-178.23,159.58,87.87,-0.0011,10.0,-0.004,0.0000,0.0000,0.0000,0.00,0.0000,0.0000,0.0000,0.00,0,800.0,128.0,0.0000,0.0000,0.0000,0.00,0.00,0.00,0.00,False,NONE,0.000,0,0,SEARCHING,False,False,True,0,True,STUCK_DETECTED,0.00,0
1764569730.5655794,185.943,40,TEST2_OBSTACLE_BYPASS,False,0.0,0.0,0.0,0.00,0.000,0.0,3168.1,-141.6,-178.22,-178.07,-178.22,160.08,87.83,-0.0170,10.0,-0.005,0.0000,0.0000,0.0000,0.00,0.0000,0.0000,0.0000,0.00,0,800.0,128.0,0.0000,0.0000,0.0000,0.00,0.00,0.00,0.00,False,NONE,0.000,0,0,SEARCHING,False,False,True,0,True,STUCK_DETECTED,0.00,0
1764569730.6030834,185.980,41,TEST2_OBSTACLE_BYPASS,False,0.0,0.0,0.0,0.00,0.000,0.0,3166.4,-141.6,-178.23,-178.25,-178.23,159.86,87.75,0.0383,10.0,-0.007,0.0000,0.0000,0.0000,0.00,0.0000,0.0000,0.0000,0.00,0,800.0,128.0,0.0000,0.0000,0.0000,0.00,0.00,0.00,0.00,False,NONE,0.000,0,0,SEARCHING,False,False,True,0,True,STUCK_DETECTED,0.00,0
1764569730.6457782,186.023,42,TEST2_OBSTACLE_BYPASS,False,0.0,0.0,0.0,0.00,0.000,0.0,3164.4,-141.7,-178.31,-178.98,-178.31,159.21,87.89,-0.0096,10.0,-0.011,0.0000,0.0000,0.0000,0.00,0.0000,0.0000,0.0000,0.00,0,800.0,128.0,0.0000,0.0000,0.0000,0.00,0.00,0.00,0.00,False,NONE,0.000,0,0,SEARCHING,False,False,True,0,True,STUCK_DETECTED,0.00,0
1764569730.682814,186.060,43,TEST2_OBSTACLE_BYPASS,False,0.0,0.0,0.0,0.00,0.000,0.0,3162.7,-141.7,-178.31,-178.13,-178.31,159.97,87.68,-0.0011,10.0,-0.014,0.0000,0.0000,0.0000,0.00,0.0000,0.0000,0.0000,0.00,0,800.0,128.0,0.0000,0.0000,0.0000,0.00,0.00,0.00,0.00,False,NONE,0.000,0,0,SEARCHING,False,False,True,0,True,STUCK_DETECTED,0.00,0
1764569730.7281616,186.106,44,TEST2_OBSTACLE_BYPASS,False,0.0,0.0,0.0,0.00,0.000,0.0,3160.7,-141.8,-178.36,-178.68,-178.36,159.42,87.68,0.0256,10.0,-0.019,0.0000,0.0000,0.0000,0.00,0.6599,0.3077,0.7281,65.00,1,300.0,128.0,0.6599,0.3077,0.7281,65.00,0.00,65.00,0.00,False,FORWARDS_RIGHT,0.218,0,0,SEARCHING,False,False,True,0,True,STUCK_DETECTED,0.00,0
1764569730.7640164,186.141,45,TEST2_OBSTACLE_BYPASS,False,0.0,0.0,0.0,0.00,0.000,0.0,3159.0,-141.8,-178.47,-179.12,-178.47,159.04,87.72,-0.0064,10.0,-0.025,0.0000,0.0000,0.0000,0.00,0.0000,0.0000,0.0000,0.00,0,800.0,128.0,0.0000,0.0000,0.0000,0.00,0.00,0.00,0.00,False,NONE,0.000,0,0,SEARCHING,False,False,True,0,True,STUCK_DETECTED,0.00,0
1764569730.812539,186.190,46,TEST2_OBSTACLE_BYPASS,False,0.0,0.0,0.0,0.00,0.000,0.0,3157.0,-141.9,-178.49,-178.66,-178.49,159.49,87.80,0.0064,10.0,-0.032,0.0000,0.0000,0.0000,0.00,0.6599,0.3077,0.7281,65.00,1,300.0,128.0,0.6599,0.3077,0.7281,65.00,0.00,65.00,0.00,False,FORWARDS_RIGHT,0.218,0,0,SEARCHING,False,False,True,0,True,STUCK_DETECTED,0.00,0
1764569730.8477678,186.225,47,TEST2_OBSTACLE_BYPASS,False,0.0,0.0,0.0,0.00,0.000,0.0,3155.2,-141.9,-178.55,-178.93,-178.55,159.27,87.81,-0.0032,10.0,-0.040,0.0000,0.0000,0.0000,0.00,0.0000,0.0000,0.0000,0.00,0,800.0,128.0,0.0000,0.0000,0.0000,0.00,0.00,0.00,0.00,False,NONE,0.000,0,0,SEARCHING,False,False,True,0,True,STUCK_DETECTED,0.00,0
1764569730.8854234,186.263,48,TEST2_OBSTACLE_BYPASS,False,0.0,0.0,0.0,0.00,0.000,0.0,3153.4,-142.0,-178.65,-179.11,-178.65,159.07,87.77,0.0032,10.0,-0.049,0.0000,0.0000,0.0000,0.00,0.0000,0.0000,0.0000,0.00,0,800.0,128.0,0.0000,0.0000,0.0000,0.00,0.00,0.00,0.00,False,NONE,0.000,0,0,SEARCHING,False,False,True,0,True,STUCK_DETECTED,0.00,0
1764569730.9271843,186.305,49,TEST2_OBSTACLE_BYPASS,False,0.0,0.0,0.0,0.00,0.000,0.0,3151.5,-142.0,-178.72,-179.31,-178.72,158.89,87.79,0.0000,10.0,-0.060,0.0000,0.0000,0.0000,0.00,0.0000,0.0000,0.0000,0.00,0,800.0,128.0,0.0000,0.0000,0.0000,0.00,0.00,0.00,0.00,False,NONE,0.000,0,0,SEARCHING,False,False,True,0,True,STUCK_DETECTED,0.00,0
1764569730.969216,186.347,50,TEST2_OBSTACLE_BYPASS,False,0.0,0.0,0.0,0.00,0.000,0.0,3149.6,-142.1,-178.83,-179.12,-178.83,159.14,87.81,0.0032,10.0,-0.073,0.0000,0.0000,0.0000,0.00,0.0000,0.0000,0.0000,0.00,0,800.0,128.0,0.0000,0.0000,0.0000,0.00,0.00,0.00,0.00,False,NONE,0.000,0,0,SEARCHING,False,False,True,0,True,STUCK_DETECTED,0.00,0
1764569731.0062969,186.384,51,TEST2_OBSTACLE_BYPASS,False,0.0,0.0,0.0,0.00,0.000,0.0,3147.9,-142.1,-178.88,-178.80,-178.88,159.43,87.77,-0.0107,10.0,-0.086,0.0000,0.0000,0.0000,0.00,0.0000,0.0000,0.0000,0.00,0,800.0,128.0,0.0000,0.0000,0.0000,0.00,0.00,0.00,0.00,False,NONE,0.000,0,0,SEARCHING,False,False,True,0,True,STUCK_DETECTED,0.00,0
1764569731.0478668,186.425,52,TEST2_OBSTACLE_BYPASS,False,0.0,0.0,0.0,0.00,0.000,0.0,3146.0,-142.1,-178.92,-179.39,-178.92,158.81,87.64,0.0117,10.0,-0.099,0.0000,0.0000,0.0000,0.00,0.0000,0.0000,0.0000,0.00,0,800.0,128.0,0.0000,0.0000,0.0000,0.00,0.00,0.00,0.00,False,NONE,0.000,0,0,SEARCHING,False,False,True,0,True,STUCK_DETECTED,0.00,0
1764569731.086893,186.464,53,TEST2_OBSTACLE_BYPASS,False,0.0,0.0,0.0,0.00,0.000,0.0,3144.2,-142.2,-179.06,-179.46,-179.06,158.78,87.68,-0.0032,10.0,-0.115,0.0000,0.0000,0.0000,0.00,0.0000,0.0000,0.0000,0.00,0,800.0,128.0,0.0000,0.0000,0.0000,0.00,0.00,0.00,0.00,False,NONE,0.000,0,0,SEARCHING,False,False,True,0,True,STUCK_DETECTED,0.00,0
1764569731.1282592,186.506,54,TEST2_OBSTACLE_BYPASS,False,0.0,0.0,0.0,0.00,0.000,0.0,3142.3,-142.2,-179.15,-179.59,-179.15,158.62,87.80,0.0117,10.0,-0.131,0.0000,0.0000,0.0000,0.00,0.0000,0.0000,0.0000,0.00,0,800.0,128.0,0.0000,0.0000,0.0000,0.00,0.00,0.00,0.00,False,NONE,0.000,0,0,SEARCHING,False,False,True,0,True,STUCK_DETECTED,0.00,0
1764569731.1705375,186.548,55,TEST2_OBSTACLE_BYPASS,False,0.0,0.0,0.0,0.00,0.000,0.0,3140.3,-142.2,-179.21,-179.75,-179.21,158.50,87.74,-0.0085,10.0,-0.148,0.0000,0.0000,0.0000,0.00,0.0000,0.0000,0.0000,0.00,0,800.0,128.0,0.0000,0.0000,0.0000,0.00,0.00,0.00,0.00,False,NONE,0.000,0,0,SEARCHING,False,False,True,0,True,STUCK_DETECTED,0.00,0
1764569731.2090552,186.586,56,TEST2_OBSTACLE_BYPASS,False,0.0,0.0,0.0,0.00,0.000,0.0,3138.6,-142.2,-179.29,-179.47,-179.29,158.82,87.77,0.0064,10.0,-0.166,0.0000,0.0000,0.0000,0.00,0.0000,0.0000,0.0000,0.00,0,800.0,128.0,0.0000,0.0000,0.0000,0.00,0.00,0.00,0.00,False,NONE,0.000,0,0,SEARCHING,False,False,True,0,True,STUCK_DETECTED,0.00,0
1764569731.2516382,186.629,57,TEST2_OBSTACLE_BYPASS,False,0.0,0.0,0.0,0.00,0.000,0.0,3136.6,-142.3,-179.32,-179.25,-179.32,158.99,87.77,0.0075,10.0,-0.184,0.0000,0.0000,0.0000,0.00,0.0000,0.0000,0.0000,0.00,0,800.0,128.0,0.0000,0.0000,0.0000,0.00,0.00,0.00,0.00,False,NONE,0.000,0,0,SEARCHING,False,False,True,0,True,STUCK_DETECTED,0.00,0
1764569731.290788,186.668,58,TEST2_OBSTACLE_BYPASS,False,0.0,0.0,0.0,0.00,0.000,0.0,3134.8,-142.3,-179.41,-179.91,-179.41,158.41,87.83,0.0000,10.0,-0.203,0.0000,0.0000,0.0000,0.00,0.0000,0.0000,0.0000,0.00,0,800.0,128.0,0.0000,0.0000,0.0000,0.00,0.00,0.00,0.00,False,NONE,0.000,0,0,SEARCHING,False,False,True,0,True,STUCK_DETECTED,0.00,0
1764569731.3335063,186.711,59,TEST2_OBSTACLE_BYPASS,False,0.0,0.0,0.0,0.00,0.000,0.0,3132.8,-142.3,-179.47,-179.96,-179.47,158.38,87.77,-0.0128,10.0,-0.222,0.0000,0.0000,0.0000,0.00,0.0000,0.0000,0.0000,0.00,0,800.0,128.0,0.0000,0.0000,0.0000,0.00,0.00,0.00,0.00,False,NONE,0.000,0,0,SEARCHING,False,False,True,0,True,STUCK_DETECTED,0.00,0
1764569731.3701239,186.748,60,TEST2_OBSTACLE_BYPASS,False,0.0,0.0,0.0,0.00,0.000,0.0,3131.1,-142.3,-179.52,-179.57,-179.52,158.72,87.70,-0.0053,10.0,-0.241,0.0000,0.0000,0.0000,0.00,0.0000,0.0000,0.0000,0.00,0,800.0,128.0,0.0000,0.0000,0.0000,0.00,0.00,0.00,0.00,False,NONE,0.000,0,0,SEARCHING,False,False,True,0,True,STUCK_DETECTED,0.00,0
1764569731.4149208,186.792,61,TEST2_OBSTACLE_BYPASS,False,0.0,0.0,0.0,0.00,0.000,0.0,3129.2,-142.3,-179.50,-178.68,-179.50,159.68,87.71,0.0000,10.0,-0.260,0.0000,0.0000,0.0000,0.00,0.0000,0.0000,0.0000,0.00,0,800.0,128.0,0.0000,0.0000,0.0000,0.00,0.00,0.00,0.00,False,NONE,0.000,0,0,SEARCHING,False,False,True,0,True,STUCK_DETECTED,0.00,0
1764569731.451676,186.829,62,TEST2_OBSTACLE_BYPASS,False,0.0,0.0,0.0,0.00,0.000,0.0,3127.5,-142.3,-179.46,-178.96,-179.46,159.40,87.63,0.0224,10.0,-0.277,0.0000,0.0000,0.0000,0.00,0.0000,0.0000,0.0000,0.00,0,800.0,128.0,0.0000,0.0000,0.0000,0.00,0.00,0.00,0.00,False,NONE,0.000,0,0,SEARCHING,False,False,True,0,True,STUCK_DETECTED,0.00,0
1764569731.494506,186.872,63,TEST2_OBSTACLE_BYPASS,False,0.0,0.0,0.0,0.00,0.000,0.0,3125.9,-143.5,-143.54,179.71,-143.54,158.07,87.75,-0.0032,10.0,0.286,0.0000,0.0000,0.0000,0.00,0.0000,0.0000,0.0000,0.00,0,800.0,128.0,0.0000,0.0000,0.0000,0.00,0.00,0.00,0.00,False,NONE,0.000,0,0,SEARCHING,False,False,True,0,True,STUCK_DETECTED,0.00,0
1764569731.5332692,186.911,64,TEST2_OBSTACLE_BYPASS,False,0.0,0.0,0.0,0.00,0.000,0.0,3125.4,-145.2,-107.62,179.66,-107.62,158.01,87.78,-0.0075,10.0,1.401,0.0000,0.0000,0.0000,0.00,0.0000,0.0000,0.0000,0.00,0,800.0,128.0,0.0000,0.0000,0.0000,0.00,0.00,0.00,0.00,False,NONE,0.000,0,0,SEARCHING,False,False,True,0,True,STUCK_DETECTED,0.00,0
1764569731.5761774,186.954,65,TEST2_OBSTACLE_BYPASS,False,0.0,0.0,0.0,0.00,0.000,0.0,3124.8,-147.1,-107.60,-179.61,-107.60,158.77,87.67,0.0096,10.0,2.482,0.0000,0.0000,0.0000,0.00,0.0000,0.0000,0.0000,0.00,0,800.0,128.0,0.0000,0.0000,0.0000,0.00,0.00,0.00,0.00,False,NONE,0.000,0,0,SEARCHING,False,False,True,0,True,STUCK_DETECTED,0.00,0
1764569731.6125367,186.990,66,TEST2_OBSTACLE_BYPASS,False,0.0,0.0,0.0,0.00,0.000,0.0,3124.2,-148.7,-107.59,-179.35,-107.59,159.04,87.56,0.0053,10.0,3.529,0.0000,0.0000,0.0000,0.00,0.0000,0.0000,0.0000,0.00,0,800.0,128.0,0.0000,0.0000,0.0000,0.00,0.00,0.00,0.00,False,NONE,0.000,0,0,SEARCHING,False,False,True,0,True,STUCK_DETECTED,0.00,0
1764569731.6602955,187.038,67,TEST2_OBSTACLE_BYPASS,True,-100.9,2737.9,2739.8,357.89,0.655,0.0,3123.6,-150.7,-107.64,-179.77,-107.64,158.60,87.73,-0.0128,10.0,4.544,-0.3130,0.2804,0.4202,-48.15,0.0000,0.0000,0.0000,0.00,0,800.0,128.0,-0.3130,0.2804,0.4202,-48.15,-2.11,-48.15,-46.04,False,FORWARDS_LEFT,0.126,0,0,NAVIGATING,True,False,True,0,True,STUCK_DETECTED,0.00,0
1764569731.6963255,187.074,68,TEST2_OBSTACLE_BYPASS,True,-100.9,2737.9,2739.8,357.89,0.655,0.0,3123.9,-151.6,-71.69,179.67,-71.69,158.05,87.76,0.0149,10.0,6.065,-0.3128,0.2803,0.4200,-48.14,0.0000,0.0000,0.0000,0.00,0,800.0,128.0,-0.3128,0.2803,0.4200,-48.14,-2.11,-48.14,-46.03,False,FORWARDS_LEFT,0.126,0,0,STUCK,True,False,True,0,True,STUCK_DETECTED,0.00,0
1764569731.741082,187.118,69,TEST2_OBSTACLE_BYPASS,True,-100.9,2737.9,2739.8,357.89,0.655,0.0,3124.8,-152.2,-35.73,179.63,-35.73,158.10,87.74,0.0128,10.0,8.071,-0.3127,0.2801,0.4198,-48.14,0.0000,0.0000,0.0000,0.00,0,800.0,128.0,-0.3127,0.2801,0.4198,-48.14,-2.11,-48.14,-46.03,False,FORWARDS_LEFT,0.126,0,0,STUCK,False,False,True,0,True,STUCK_DETECTED,0.00,0
1764569731.7805266,187.158,70,TEST2_OBSTACLE_BYPASS,True,-100.9,2737.9,2739.8,357.89,0.655,0.0,3125.7,-152.9,-35.73,-179.62,-35.73,158.82,87.69,-0.0160,10.0,10.018,-0.3125,0.2800,0.4196,-48.14,0.0000,0.0000,0.0000,0.00,0,800.0,128.0,-0.3125,0.2800,0.4196,-48.14,-2.11,-48.14,-46.03,False,FORWARDS_LEFT,0.126,0,0,STUCK,False,False,True,0,True,STUCK_DETECTED,0.00,0
1764569731.8190265,187.196,71,TEST2_OBSTACLE_BYPASS,True,-100.9,2737.9,2739.8,357.89,0.655,0.0,3126.5,-153.5,-35.75,-178.83,-35.75,159.59,87.66,0.0043,10.0,11.909,-0.3124,0.2799,0.4194,-48.14,0.0000,0.0000,0.0000,0.00,0,800.0,128.0,-0.3124,0.2799,0.4194,-48.14,-2.11,-48.14,-46.03,False,FORWARDS_LEFT,0.126,0,0,STUCK,False,False,True,0,True,STUCK_DETECTED,0.00,0
1764569731.8604887,187.238,72,TEST2_OBSTACLE_BYPASS,True,-100.9,2737.9,2739.8,357.89,0.655,0.0,3127.4,-154.1,-35.84,-179.90,-35.84,158.60,87.74,0.0160,10.0,13.746,-0.3122,0.2797,0.4192,-48.14,0.0000,0.0000,0.0000,0.00,0,800.0,128.0,-0.3122,0.2797,0.4192,-48.14,-2.11,-48.14,-46.03,False,FORWARDS_LEFT,0.126,0,0,STUCK,False,False,True,0,True,STUCK_DETECTED,0.00,0
1764569731.8995342,187.277,73,TEST2_OBSTACLE_BYPASS,True,-100.9,2737.9,2739.8,357.89,0.655,0.0,3128.2,-154.7,-35.91,178.97,-35.91,157.46,87.77,-0.0043,10.0,15.531,-0.3121,0.2796,0.4190,-48.15,0.0000,0.0000,0.0000,0.00,0,800.0,128.0,-0.3121,0.2796,0.4190,-48.15,-2.11,-48.15,-46.04,False,FORWARDS_LEFT,0.126,0,0,STUCK,False,False,True,0,True,STUCK_DETECTED,0.00,0
1764569731.9396598,187.317,74,TEST2_OBSTACLE_BYPASS,True,-109.7,2722.4,2724.6,357.69,0.699,0.0,3128.6,-155.8,-71.83,-179.46,-71.83,159.04,87.66,-0.0032,10.0,16.774,-0.3136,0.2787,0.4195,-48.37,0.0000,0.0000,0.0000,0.00,0,800.0,128.0,-0.3136,0.2787,0.4195,-48.37,-2.31,-48.37,-46.06,False,FORWARDS_LEFT,0.126,0,0,STUCK,False,False,True,0,True,STUCK_DETECTED,0.00,0
1764569731.9766135,187.354,75,TEST2_OBSTACLE_BYPASS,True,-109.7,2722.4,2724.6,357.69,0.699,0.0,3128.9,-156.7,-71.73,-178.65,-71.73,159.84,87.65,-0.0160,10.0,17.986,-0.3134,0.2786,0.4194,-48.36,0.6599,0.3077,0.7281,65.00,1,300.0,128.0,0.3465,0.5864,0.6811,30.58,-2.31,30.58,32.88,False,FORWARDS_RIGHT,0.204,0,0,STUCK,False,False,True,0,True,STUCK_DETECTED,0.00,0
1764569732.0215597,187.399,76,TEST2_OBSTACLE_BYPASS,True,-109.7,2722.4,2724.6,357.69,0.699,0.0,3129.5,-158.4,-71.75,-179.52,-71.75,158.96,87.70,0.0096,10.0,19.165,-0.3131,0.2785,0.4191,-48.35,0.0000,0.0000,0.0000,0.00,0,800.0,128.0,-0.3131,0.2785,0.4191,-48.35,-2.31,-48.35,-46.04,False,FORWARDS_LEFT,0.126,0,0,STUCK,False,False,True,0,True,STUCK_DETECTED,0.00,0
1764569732.0586288,187.436,77,TEST2_OBSTACLE_BYPASS,True,-109.7,2722.4,2724.6,357.69,0.699,0.0,3130.3,-159.0,-35.89,178.82,-35.89,157.32,87.72,0.0256,10.0,20.785,-0.3130,0.2784,0.4189,-48.35,0.0000,0.0000,0.0000,0.00,0,800.0,128.0,-0.3130,0.2784,0.4189,-48.35,-2.31,-48.35,-46.04,False,FORWARDS_LEFT,0.126,0,0,STUCK,False,False,True,0,True,STUCK_DETECTED,0.00,0
1764569732.1012962,187.479,78,TEST2_OBSTACLE_BYPASS,True,-109.7,2722.4,2724.6,357.69,0.699,0.0,3131.2,-159.7,-35.86,179.94,-35.86,158.43,87.64,0.0000,10.0,22.363,-0.3129,0.2782,0.4187,-48.35,0.0000,0.0000,0.0000,0.00,0,800.0,128.0,-0.3129,0.2782,0.4187,-48.35,-2.31,-48.35,-46.05,False,FORWARDS_LEFT,0.126,0,0,STUCK,False,False,True,0,True,STUCK_DETECTED,0.00,0
1764569732.1381664,187.516,79,TEST2_OBSTACLE_BYPASS,True,-109.7,2722.4,2724.6,357.69,0.699,0.0,3131.5,-160.6,-71.77,-179.45,-71.77,159.00,87.67,-0.0160,10.0,23.440,-0.3127,0.2781,0.4185,-48.35,0.0000,0.0000,0.0000,0.00,0,800.0,128.0,-0.3127,0.2781,0.4185,-48.35,-2.31,-48.35,-46.04,False,FORWARDS_LEFT,0.126,0,0,STUCK,False,False,True,0,True,STUCK_DETECTED,0.00,0
1764569732.1821685,187.560,80,TEST2_OBSTACLE_BYPASS,True,-109.2,2719.0,2721.2,357.70,0.686,0.0,3131.8,-161.7,-71.78,-179.76,-71.78,158.65,87.72,-0.0053,10.0,24.490,-0.3130,0.2782,0.4188,-48.37,0.0000,0.0000,0.0000,0.00,0,800.0,128.0,-0.3130,0.2782,0.4188,-48.37,-2.30,-48.37,-46.07,False,FORWARDS_LEFT,0.126,0,0,STUCK,False,False,True,0,True,STUCK_DETECTED,0.00,0
1764569732.2178938,187.595,81,TEST2_OBSTACLE_BYPASS,True,-109.2,2719.0,2721.2,357.70,0.686,0.0,3132.7,-162.3,-35.93,179.72,-35.93,158.15,87.73,-0.0021,10.0,25.962,-0.3129,0.2781,0.4186,-48.37,0.0000,0.0000,0.0000,0.00,0,800.0,128.0,-0.3129,0.2781,0.4186,-48.37,-2.30,-48.37,-46.07,False,FORWARDS_LEFT,0.126,0,0,STUCK,False,False,True,0,True,STUCK_DETECTED,0.00,0
1764569732.2635062,187.641,82,TEST2_OBSTACLE_BYPASS,True,-115.6,2731.0,2733.4,357.58,0.710,0.0,3133.6,-163.0,-35.94,-179.98,-35.94,158.42,87.66,0.0096,10.0,27.397,-0.3106,0.2767,0.4160,-48.31,0.0000,0.0000,0.0000,0.00,0,800.0,128.0,-0.3106,0.2767,0.4160,-48.31,-2.42,-48.31,-45.89,False,FORWARDS_LEFT,0.125,0,0,STUCK,False,False,True,0,True,STUCK_DETECTED,0.00,0
1764569732.3016653,187.679,83,TEST2_OBSTACLE_BYPASS,True,-115.6,2731.0,2733.4,357.58,0.710,0.0,3134.4,-163.5,-35.84,179.91,-35.84,158.31,87.60,0.0075,10.0,28.798,-0.3105,0.2765,0.4158,-48.31,0.0000,0.0000,0.0000,0.00,0,800.0,128.0,-0.3105,0.2765,0.4158,-48.31,-2.42,-48.31,-45.89,False,FORWARDS_LEFT,0.125,0,0,STUCK,False,False,True,0,True,STUCK_DETECTED,0.00,0
1764569732.3476906,187.725,84,TEST2_OBSTACLE_BYPASS,True,-115.6,2731.0,2733.4,357.58,0.710,0.0,3135.3,-164.2,-35.87,-179.71,-35.87,158.73,87.70,-0.0202,10.0,30.166,-0.3103,0.2764,0.4156,-48.31,0.0000,0.0000,0.0000,0.00,0,800.0,128.0,-0.3103,0.2764,0.4156,-48.31,-2.42,-48.31,-45.89,False,FORWARDS_LEFT,0.125,0,0,STUCK,False,False,True,0,True,STUCK_DETECTED,0.00,0
1764569732.3913987,187.769,85,TEST2_OBSTACLE_BYPASS,True,-115.6,2731.0,2733.4,357.58,0.710,0.0,3136.5,-164.2,-0.02,179.86,-0.02,158.28,87.67,0.0011,10.0,31.927,-0.3103,0.2762,0.4154,-48.32,0.0000,0.0000,0.0000,0.00,0,800.0,128.0,-0.3103,0.2762,0.4154,-48.32,-2.42,-48.32,-45.90,False,FORWARDS_LEFT,0.125,0,0,STUCK,False,False,True,0,True,STUCK_DETECTED,0.00,0
1764569732.4270194,187.804,86,TEST2_OBSTACLE_BYPASS,True,-115.6,2731.0,2733.4,357.58,0.710,0.0,3137.3,-163.6,35.93,179.98,35.93,158.41,87.69,0.0032,10.0,34.070,-0.3103,0.2761,0.4153,-48.34,0.6599,0.3077,0.7281,65.00,1,300.0,128.0,0.3496,0.5838,0.6805,30.91,-2.42,30.91,33.34,False,FORWARDS_RIGHT,0.204,0,0,STUCK,False,False,True,0,True,STUCK_DETECTED,0.00,0
1764569732.4691217,187.846,87,TEST2_OBSTACLE_BYPASS,True,-115.6,2731.0,2733.4,357.58,0.710,0.0,3139.1,-163.6,0.06,-179.86,0.06,158.61,87.75,-0.0021,10.0,35.746,-0.3102,0.2759,0.4151,-48.35,0.0000,0.0000,0.0000,0.00,0,800.0,128.0,-0.3102,0.2759,0.4151,-48.35,-2.42,-48.35,-45.93,False,FORWARDS_LEFT,0.125,0,0,STUCK,False,False,True,0,True,STUCK_DETECTED,0.00,0
1764569732.5082946,187.886,88,TEST2_OBSTACLE_BYPASS,True,-115.6,2731.0,2733.4,357.58,0.710,0.0,3139.9,-164.2,-35.93,-179.99,-35.93,158.45,87.75,-0.0032,10.0,36.970,-0.3100,0.2757,0.4149,-48.35,0.0000,0.0000,0.0000,0.00,0,800.0,128.0,-0.3100,0.2757,0.4149,-48.35,-2.42,-48.35,-45.93,False,FORWARDS_LEFT,0.124,0,0,STUCK,False,False,True,0,True,STUCK_DETECTED,0.00,0
1764569732.5505648,187.928,89,TEST2_OBSTACLE_BYPASS,True,-115.6,2731.0,2733.4,357.58,0.710,0.0,3140.8,-164.9,-35.98,-179.93,-35.98,158.51,87.69,-0.0160,10.0,38.166,-0.3099,0.2756,0.4147,-48.35,0.0000,0.0000,0.0000,0.00,0,800.0,128.0,-0.3099,0.2756,0.4147,-48.35,-2.42,-48.35,-45.93,False,FORWARDS_LEFT,0.124,0,0,STUCK,False,False,True,0,True,STUCK_DETECTED,0.00,0
1764569732.5860467,187.963,90,TEST2_OBSTACLE_BYPASS,False,0.0,0.0,0.0,0.00,0.000,0.0,3141.6,-165.4,-36.00,-179.97,-36.00,158.46,87.69,-0.0117,10.0,39.334,-0.3097,0.2754,0.4145,-48.35,0.0000,0.0000,0.0000,0.00,0,800.0,128.0,-0.3097,0.2754,0.4145,-48.35,0.00,-48.35,0.00,False,FORWARDS_LEFT,0.124,0,0,STUCK,False,False,True,0,True,STUCK_DETECTED,0.00,0
1764569732.629454,188.007,91,TEST2_OBSTACLE_BYPASS,False,0.0,0.0,0.0,0.00,0.000,0.0,3141.9,-166.5,-71.95,-179.80,-71.95,158.64,87.71,0.0085,10.0,40.077,-0.3096,0.2754,0.4143,-48.35,0.0000,0.0000,0.0000,0.00,0,800.0,128.0,-0.3096,0.2754,0.4143,-48.35,0.00,-48.35,0.00,False,FORWARDS_LEFT,0.124,0,0,STUCK,False,False,True,0,True,STUCK_DETECTED,0.00,0
1764569732.6682315,188.046,92,TEST2_OBSTACLE_BYPASS,False,0.0,0.0,0.0,0.00,0.000,0.0,3142.3,-167.5,-71.94,-179.88,-71.94,158.56,87.68,0.0032,10.0,40.804,-0.3094,0.2753,0.4141,-48.34,0.0000,0.0000,0.0000,0.00,0,800.0,128.0,-0.3094,0.2753,0.4141,-48.34,0.00,-48.34,0.00,False,FORWARDS_LEFT,0.124,0,0,STUCK,False,False,True,0,True,STUCK_DETECTED,0.00,0
1764569732.7104878,188.088,93,TEST2_OBSTACLE_BYPASS,False,0.0,0.0,0.0,0.00,0.000,0.0,3142.6,-168.5,-71.94,179.96,-71.94,158.39,87.71,0.0000,10.0,41.515,-0.3092,0.2752,0.4140,-48.33,0.0000,0.0000,0.0000,0.00,0,800.0,128.0,-0.3092,0.2752,0.4140,-48.33,0.00,-48.33,0.00,False,FORWARDS_LEFT,0.124,0,0,STUCK,False,False,True,0,True,STUCK_DETECTED,0.00,0
1764569732.7483997,188.126,94,TEST2_OBSTACLE_BYPASS,False,0.0,0.0,0.0,0.00,0.000,0.0,3142.9,-169.5,-71.96,-179.97,-71.96,158.46,87.69,-0.0053,10.0,42.211,-0.3091,0.2751,0.4138,-48.33,0.0000,0.0000,0.0000,0.00,0,800.0,128.0,-0.3091,0.2751,0.4138,-48.33,0.00,-48.33,0.00,False,FORWARDS_LEFT,0.124,0,0,STUCK,False,False,True,0,True,STUCK_DETECTED,0.00,0
1764569732.790358,188.168,95,TEST2_OBSTACLE_BYPASS,False,0.0,0.0,0.0,0.00,0.000,0.0,3142.6,-170.5,-107.92,-179.73,-107.92,158.71,87.69,0.0021,10.0,42.509,-0.3090,0.2751,0.4137,-48.31,0.0000,0.0000,0.0000,0.00,0,800.0,128.0,-0.3090,0.2751,0.4137,-48.31,0.00,-48.31,0.00,False,FORWARDS_LEFT,0.124,0,0,STUCK,False,False,True,0,True,STUCK_DETECTED,0.00,0
1764569732.8289511,188.206,96,TEST2_OBSTACLE_BYPASS,False,0.0,0.0,0.0,0.00,0.000,0.0,3141.7,-171.1,-143.90,-179.83,-143.90,158.65,87.79,0.0107,10.0,42.422,-0.3089,0.2752,0.4138,-48.30,0.0000,0.0000,0.0000,0.00,0,800.0,128.0,-0.3089,0.2752,0.4138,-48.30,0.00,-48.30,0.00,False,FORWARDS_LEFT,0.124,0,0,STUCK,False,False,True,0,True,STUCK_DETECTED,0.00,0
1764569732.872238,188.250,97,TEST2_OBSTACLE_BYPASS,False,0.0,0.0,0.0,0.00,0.000,0.0,3140.8,-171.8,-143.89,-179.80,-143.89,158.64,87.71,0.0000,10.0,42.337,-0.3089,0.2754,0.4138,-48.29,0.0000,0.0000,0.0000,0.00,0,800.0,128.0,-0.3089,0.2754,0.4138,-48.29,0.00,-48.29,0.00,False,FORWARDS_LEFT,0.124,0,0,STUCK,False,False,True,0,True,STUCK_DETECTED,0.00,0
1764569732.9107318,188.288,98,TEST2_OBSTACLE_BYPASS,True,-106.1,2728.9,2731.0,357.77,0.764,0.0,3140.0,-172.4,-143.88,-179.81,-143.88,158.63,87.66,-0.0043,10.0,42.254,-0.3098,0.2769,0.4155,-48.21,0.6632,0.2953,0.7259,66.00,1,300.0,128.0,0.3534,0.5721,0.6725,31.70,-2.23,31.70,33.93,False,FORWARDS_RIGHT,0.202,0,0,STUCK,False,False,True,0,True,STUCK_DETECTED,0.00,0
1764569732.9547644,188.332,99,TEST2_OBSTACLE_BYPASS,True,-106.1,2728.9,2731.0,357.77,0.764,0.0,3138.6,-173.4,-143.86,-179.74,-143.86,158.65,87.62,0.0085,10.0,42.173,-0.3097,0.2770,0.4155,-48.19,0.0000,0.0000,0.0000,0.00,0,800.0,128.0,-0.3097,0.2770,0.4155,-48.19,-2.23,-48.19,-45.96,False,FORWARDS_LEFT,0.125,0,0,STUCK,False,False,True,0,True,STUCK_DETECTED,0.00,0
1764569732.9914544,188.369,100,TEST2_OBSTACLE_BYPASS,True,-106.1,2728.9,2731.0,357.77,0.764,0.0,3137.8,-174.0,-143.85,-179.87,-143.85,158.61,87.84,0.0053,10.0,42.093,-0.3097,0.2771,0.4156,-48.18,0.0000,0.0000,0.0000,0.00,0,800.0,128.0,-0.3097,0.2771,0.4156,-48.18,-2.23,-48.18,-45.95,False,FORWARDS_LEFT,0.125,0,0,STUCK,False,False,True,0,True,STUCK_DETECTED,0.00,0
1764569733.0353749,188.413,101,TEST2_OBSTACLE_BYPASS,True,-106.1,2728.9,2731.0,357.77,0.764,0.0,3136.8,-174.7,-143.85,-179.80,-143.85,158.64,87.71,0.0053,10.0,42.015,-0.3096,0.2772,0.4156,-48.16,0.0000,0.0000,0.0000,0.00,0,800.0,128.0,-0.3096,0.2772,0.4156,-48.16,-2.23,-48.16,-45.93,False,FORWARDS_LEFT,0.125,0,0,STUCK,False,False,True,0,True,STUCK_DETECTED,0.00,0
1764569733.0718026,188.449,102,TEST2_OBSTACLE_BYPASS,True,-106.1,2728.9,2731.0,357.77,0.764,0.0,3136.6,-175.6,-107.86,179.96,-107.86,158.39,87.71,0.0000,10.0,42.718,-0.3095,0.2772,0.4155,-48.15,0.0000,0.0000,0.0000,0.00,0,800.0,128.0,-0.3095,0.2772,0.4155,-48.15,-2.23,-48.15,-45.92,False,FORWARDS_LEFT,0.125,0,0,STUCK,False,False,True,0,True,STUCK_DETECTED,0.00,0
1764569733.1157901,188.493,103,TEST2_OBSTACLE_BYPASS,True,-106.1,2728.9,2731.0,357.77,0.764,0.0,3135.7,-176.2,-143.85,-179.89,-143.85,158.54,87.72,-0.0043,10.0,43.061,-0.3095,0.2774,0.4156,-48.13,0.0000,0.0000,0.0000,0.00,0,800.0,128.0,-0.3095,0.2774,0.4156,-48.13,-2.23,-48.13,-45.91,False,FORWARDS_LEFT,0.125,0,0,STUCK,False,False,True,0,True,STUCK_DETECTED,0.00,0
1764569733.1546443,188.532,104,TEST2_OBSTACLE_BYPASS,True,-106.1,2728.9,2731.0,357.77,0.764,0.0,3134.8,-176.9,-143.84,-179.89,-143.84,158.54,87.72,0.0021,10.0,43.405,-0.3095,0.2775,0.4156,-48.12,0.0000,0.0000,0.0000,0.00,0,800.0,128.0,-0.3095,0.2775,0.4156,-48.12,-2.23,-48.12,-45.89,False,FORWARDS_LEFT,0.125,0,0,STUCK,False,False,True,0,True,STUCK_DETECTED,0.00,0
1764569733.1917117,188.569,105,TEST2_OBSTACLE_BYPASS,True,-106.1,2728.9,2731.0,357.77,0.764,0.0,3134.5,-177.8,-107.87,179.99,-107.87,158.43,87.74,-0.0011,10.0,44.108,-0.3093,0.2775,0.4155,-48.11,0.0000,0.0000,0.0000,0.00,0,800.0,128.0,-0.3093,0.2775,0.4155,-48.11,-2.23,-48.11,-45.88,False,FORWARDS_LEFT,0.125,0,0,STUCK,False,False,True,0,True,STUCK_DETECTED,0.00,0
1764569733.2348552,188.612,106,TEST2_OBSTACLE_BYPASS,False,0.0,0.0,0.0,0.00,0.000,0.0,3134.9,-178.9,-71.90,179.91,-71.90,158.35,87.71,-0.0043,10.0,45.170,-0.3092,0.2774,0.4154,-48.10,0.0000,0.0000,0.0000,0.00,0,800.0,128.0,-0.3092,0.2774,0.4154,-48.10,0.00,-48.10,0.00,False,FORWARDS_LEFT,0.125,0,0,STUCK,False,False,True,0,True,STUCK_DETECTED,0.00,0
1764569733.2731442,188.651,107,TEST2_OBSTACLE_BYPASS,False,0.0,0.0,0.0,0.00,0.000,0.0,3135.2,-179.9,-71.90,-179.85,-71.90,158.59,87.71,-0.0064,10.0,46.233,-0.3090,0.2773,0.4152,-48.10,0.0000,0.0000,0.0000,0.00,0,800.0,128.0,-0.3090,0.2773,0.4152,-48.10,0.00,-48.10,0.00,False,FORWARDS_LEFT,0.125,0,0,STUCK,False,False,True,0,True,STUCK_DETECTED,0.00,0
1764569733.3161108,188.693,108,TEST2_OBSTACLE_BYPASS,False,0.0,0.0,0.0,0.00,0.000,0.0,3136.1,-180.5,-35.92,179.99,-35.92,158.43,87.74,0.0011,10.0,47.655,-0.3089,0.2772,0.4150,-48.10,0.0000,0.0000,0.0000,0.00,0,800.0,128.0,-0.3089,0.2772,0.4150,-48.10,0.00,-48.10,0.00,False,FORWARDS_LEFT,0.124,0,0,STUCK,False,False,True,0,True,STUCK_DETECTED,0.00,0
1764569733.3532004,188.731,109,TEST2_OBSTACLE_BYPASS,False,0.0,0.0,0.0,0.00,0.000,0.0,3136.9,-181.1,-35.92,-179.74,-35.92,158.66,87.66,0.0000,10.0,49.077,-0.3087,0.2770,0.4148,-48.10,0.0000,0.0000,0.0000,0.00,0,800.0,128.0,-0.3087,0.2770,0.4148,-48.10,0.00,-48.10,0.00,False,FORWARDS_LEFT,0.124,0,0,STUCK,False,False,True,0,True,STUCK_DETECTED,0.00,0
1764569733.3984344,188.776,110,TEST2_OBSTACLE_BYPASS,True,-152.6,2718.0,2722.3,356.79,0.896,0.0,3137.8,-181.7,-35.93,-179.94,-35.93,158.47,87.66,-0.0011,10.0,50.500,-0.3071,0.2707,0.4094,-48.61,0.0000,0.0000,0.0000,0.00,0,800.0,128.0,-0.3071,0.2707,0.4094,-48.61,-3.21,-48.61,-45.40,False,FORWARDS_LEFT,0.123,0,0,STUCK,False,False,True,0,True,STUCK_DETECTED,0.00,0
1764569733.4353564,188.813,111,TEST2_OBSTACLE_BYPASS,True,-152.6,2718.0,2722.3,356.79,0.896,0.0,3138.6,-182.3,-35.95,-179.98,-35.95,158.43,87.71,-0.0064,10.0,51.922,-0.3070,0.2706,0.4092,-48.61,0.0000,0.0000,0.0000,0.00,0,800.0,128.0,-0.3070,0.2706,0.4092,-48.61,-3.21,-48.61,-45.40,False,FORWARDS_LEFT,0.123,0,0,STUCK,False,False,True,0,True,STUCK_DETECTED,0.00,0
1764569733.484326,188.862,112,TEST2_OBSTACLE_BYPASS,True,-152.2,2715.3,2719.5,356.79,0.895,0.0,3138.9,-183.4,-71.92,-179.76,-71.92,158.68,87.79,-0.0085,10.0,52.984,-0.3073,0.2706,0.4094,-48.63,0.0000,0.0000,0.0000,0.00,0,800.0,128.0,-0.3073,0.2706,0.4094,-48.63,-3.21,-48.63,-45.42,False,FORWARDS_LEFT,0.123,0,0,STUCK,False,False,True,0,True,STUCK_DETECTED,0.00,0
1764569733.5171952,188.895,113,TEST2_OBSTACLE_BYPASS,True,-152.2,2715.3,2719.5,356.79,0.895,0.0,3139.2,-184.3,-71.89,-179.61,-71.89,158.79,87.69,0.0000,10.0,54.047,-0.3071,0.2705,0.4093,-48.62,0.0000,0.0000,0.0000,0.00,0,800.0,128.0,-0.3071,0.2705,0.4093,-48.62,-3.21,-48.62,-45.41,False,FORWARDS_LEFT,0.123,0,0,STUCK,False,False,True,0,True,STUCK_DETECTED,0.00,0
1764569733.5646672,188.942,114,TEST2_OBSTACLE_BYPASS,True,-152.2,2715.3,2719.5,356.79,0.895,0.0,3139.6,-185.4,-71.89,-179.86,-71.89,158.53,87.64,0.0064,10.0,55.110,-0.3069,0.2705,0.4091,-48.61,0.0000,0.0000,0.0000,0.00,0,800.0,128.0,-0.3069,0.2705,0.4091,-48.61,-3.21,-48.61,-45.41,False,FORWARDS_LEFT,0.123,0,0,STUCK,False,False,True,0,True,STUCK_DETECTED,0.00,0
1764569733.6133006,188.991,115,TEST2_OBSTACLE_BYPASS,True,-152.2,2715.3,2719.5,356.79,0.895,0.0,3139.2,-186.7,-107.88,-179.98,-107.88,158.42,87.66,-0.0075,10.0,55.812,-0.3068,0.2705,0.4090,-48.60,0.0000,0.0000,0.0000,0.00,0,800.0,128.0,-0.3068,0.2705,0.4090,-48.60,-3.21,-48.60,-45.39,False,FORWARDS_LEFT,0.123,0,0,STUCK,False,False,True,0,True,STUCK_DETECTED,0.00,0
1764569733.6503572,189.028,116,TEST2_OBSTACLE_BYPASS,True,-152.2,2715.3,2719.5,356.79,0.895,0.0,3138.4,-187.2,-143.86,-179.88,-143.86,158.57,87.81,0.0021,10.0,56.155,-0.3068,0.2706,0.4090,-48.59,0.0000,0.0000,0.0000,0.00,0,800.0,128.0,-0.3068,0.2706,0.4090,-48.59,-3.21,-48.59,-45.38,False,FORWARDS_LEFT,0.123,0,0,STUCK,False,False,True,0,True,STUCK_DETECTED,0.00,0
1764569733.6924512,189.070,117,TEST2_OBSTACLE_BYPASS,True,-152.2,2715.3,2719.5,356.79,0.895,0.0,3138.0,-188.3,-107.88,179.97,-107.88,158.37,87.67,-0.0075,10.0,56.858,-0.3066,0.2706,0.4090,-48.57,0.0000,0.0000,0.0000,0.00,0,800.0,128.0,-0.3066,0.2706,0.4090,-48.57,-3.21,-48.57,-45.36,False,FORWARDS_LEFT,0.123,0,0,STUCK,False,False,True,0,True,STUCK_DETECTED,0.00,0
1764569733.7338564,189.111,118,TEST2_OBSTACLE_BYPASS,True,-152.2,2715.3,2719.5,356.79,0.895,0.0,3137.2,-188.9,-143.87,-179.91,-143.87,158.50,87.69,0.0011,10.0,57.201,-0.3066,0.2707,0.4090,-48.56,0.0000,0.0000,0.0000,0.00,0,800.0,128.0,-0.3066,0.2707,0.4090,-48.56,-3.21,-48.56,-45.35,False,FORWARDS_LEFT,0.123,0,0,STUCK,False,False,True,0,True,STUCK_DETECTED,0.00,0
1764569733.775266,189.153,119,TEST2_OBSTACLE_BYPASS,True,-152.2,2715.3,2719.5,356.79,0.895,0.0,3136.9,-189.9,-107.90,179.99,-107.90,158.44,87.79,0.0021,10.0,57.904,-0.3065,0.2707,0.4089,-48.55,0.0000,0.0000,0.0000,0.00,0,800.0,128.0,-0.3065,0.2707,0.4089,-48.55,-3.21,-48.55,-45.34,False,FORWARDS_LEFT,0.123,0,0,STUCK,False,False,True,0,True,STUCK_DETECTED,0.00,0
1764569733.811175,189.189,120,TEST2_OBSTACLE_BYPASS,False,0.0,0.0,0.0,0.00,0.000,0.0,3137.2,-190.8,-71.91,179.97,-71.91,158.37,87.67,-0.0021,10.0,58.966,-0.3063,0.2706,0.4088,-48.54,0.0000,0.0000,0.0000,0.00,0,800.0,128.0,-0.3063,0.2706,0.4088,-48.54,0.00,-48.54,0.00,False,FORWARDS_LEFT,0.123,0,0,STUCK,False,False,True,0,True,STUCK_DETECTED,0.00,0
1764569733.860454,189.238,121,TEST2_OBSTACLE_BYPASS,False,0.0,0.0,0.0,0.00,0.000,0.0,3137.6,-192.1,-71.90,-179.93,-71.90,158.51,87.77,-0.0096,10.0,60.029,-0.3061,0.2705,0.4086,-48.53,0.6632,0.2953,0.7259,66.00,1,300.0,128.0,0.3570,0.5658,0.6690,32.25,0.00,32.25,0.00,False,FORWARDS_RIGHT,0.201,0,0,STUCK,False,False,True,0,True,STUCK_DETECTED,0.00,0
1764569733.8996046,189.277,122,TEST2_OBSTACLE_BYPASS,False,0.0,0.0,0.0,0.00,0.000,0.0,3138.9,-193.0,-35.93,179.94,-35.93,158.39,87.79,-0.0011,10.0,61.451,-0.3059,0.2703,0.4083,-48.53,0.0000,0.0000,0.0000,0.00,0,800.0,128.0,-0.3059,0.2703,0.4083,-48.53,0.00,-48.53,0.00,False,FORWARDS_LEFT,0.122,0,0,STUCK,False,False,True,0,True,STUCK_DETECTED,0.00,0
1764569733.9369767,189.314,123,TEST2_OBSTACLE_BYPASS,False,0.0,0.0,0.0,0.00,0.000,0.0,3139.7,-193.6,-35.96,-179.93,-35.96,158.51,87.77,-0.0043,10.0,62.873,-0.3058,0.2702,0.4081,-48.53,0.6599,0.3077,0.7281,65.00,1,300.0,128.0,0.3541,0.5779,0.6778,31.50,0.00,31.50,0.00,False,FORWARDS_RIGHT,0.203,0,0,STUCK,False,False,True,0,True,STUCK_DETECTED,0.00,0
1764569733.9787254,189.356,124,TEST2_OBSTACLE_BYPASS,False,0.0,0.0,0.0,0.00,0.000,0.0,3141.5,-193.6,0.02,179.94,0.02,158.39,87.79,-0.0032,10.0,64.654,-0.3057,0.2700,0.4078,-48.55,0.0000,0.0000,0.0000,0.00,0,800.0,128.0,-0.3057,0.2700,0.4078,-48.55,0.00,-48.55,0.00,False,FORWARDS_LEFT,0.122,0,0,STUCK,False,False,True,0,True,STUCK_DETECTED,0.00,0
1764569734.0178146,189.395,125,TEST2_OBSTACLE_BYPASS,False,0.0,0.0,0.0,0.00,0.000,0.0,3142.3,-193.0,36.01,179.94,36.01,158.39,87.79,-0.0043,10.0,66.796,-0.3057,0.2699,0.4078,-48.56,0.0000,0.0000,0.0000,0.00,0,800.0,128.0,-0.3057,0.2699,0.4078,-48.56,0.00,-48.56,0.00,False,FORWARDS_LEFT,0.122,0,0,STUCK,False,False,True,0,True,STUCK_DETECTED,0.00,0
1764569734.061222,189.439,126,TEST2_OBSTACLE_BYPASS,False,0.0,0.0,0.0,0.00,0.000,0.0,3142.6,-192.0,71.98,179.82,71.98,158.27,87.82,0.0064,10.0,69.298,-0.3058,0.2699,0.4079,-48.58,0.0000,0.0000,0.0000,0.00,0,800.0,128.0,-0.3058,0.2699,0.4079,-48.58,0.00,-48.58,0.00,False,FORWARDS_LEFT,0.122,0,0,STUCK,False,False,True,0,True,STUCK_DETECTED,0.00,0
1764569734.0957901,189.473,127,TEST2_OBSTACLE_BYPASS,False,0.0,0.0,0.0,0.00,0.000,0.0,3142.9,-191.1,71.97,179.85,71.97,158.25,87.69,0.0032,10.0,71.799,-0.3059,0.2698,0.4079,-48.59,0.0000,0.0000,0.0000,0.00,0,800.0,128.0,-0.3059,0.2698,0.4079,-48.59,0.00,-48.59,0.00,False,FORWARDS_LEFT,0.122,0,0,STUCK,False,False,True,0,True,STUCK_DETECTED,0.00,0
1764569734.143669,189.521,128,TEST2_OBSTACLE_BYPASS,True,-154.5,2714.9,2719.3,356.74,0.886,0.0,3142.6,-190.0,107.93,179.70,107.93,158.16,87.84,0.0021,10.0,74.660,-0.3060,0.2696,0.4078,-48.62,0.0000,0.0000,0.0000,0.00,0,800.0,128.0,-0.3060,0.2696,0.4078,-48.62,-3.26,-48.62,-45.36,False,FORWARDS_LEFT,0.122,0,0,STUCK,False,False,True,0,True,STUCK_DETECTED,0.00,0
1764569734.1786041,189.556,129,TEST2_OBSTACLE_BYPASS,True,-154.5,2714.9,2719.3,356.74,0.886,0.0,3142.3,-189.1,107.89,179.55,107.89,157.96,87.69,0.0202,10.0,77.520,-0.3062,0.2697,0.4080,-48.62,0.0000,0.0000,0.0000,0.00,0,800.0,128.0,-0.3062,0.2697,0.4080,-48.62,-3.26,-48.62,-45.37,False,FORWARDS_LEFT,0.122,0,0,STUCK,False,False,True,0,True,STUCK_DETECTED,0.00,0
1764569734.2220614,189.599,130,TEST2_OBSTACLE_BYPASS,True,-154.5,2714.9,2719.3,356.74,0.886,0.0,3141.9,-188.0,107.84,179.55,107.84,157.96,87.69,-0.0053,10.0,80.380,-0.3063,0.2698,0.4082,-48.63,0.0000,0.0000,0.0000,0.00,0,800.0,128.0,-0.3063,0.2698,0.4082,-48.63,-3.26,-48.63,-45.38,False,FORWARDS_LEFT,0.122,0,0,STUCK,False,False,True,0,True,STUCK_DETECTED,0.00,0
1764569734.2595272,189.637,131,TEST2_OBSTACLE_BYPASS,True,-143.3,2716.7,2720.5,356.98,0.896,0.0,3141.2,-187.5,143.81,179.68,143.81,158.09,87.72,0.0043,10.0,83.600,-0.3069,0.2714,0.4097,-48.52,0.0000,0.0000,0.0000,0.00,0,800.0,128.0,-0.3069,0.2714,0.4097,-48.52,-3.02,-48.52,-45.50,False,FORWARDS_LEFT,0.123,0,0,STUCK,False,False,True,0,True,STUCK_DETECTED,0.00,0
1764569734.3016093,189.679,132,TEST2_OBSTACLE_BYPASS,True,-143.3,2716.7,2720.5,356.98,0.896,0.0,3140.3,-186.8,143.78,179.68,143.78,158.09,87.72,0.0021,10.0,86.819,-0.3071,0.2715,0.4099,-48.51,0.0000,0.0000,0.0000,0.00,0,800.0,128.0,-0.3071,0.2715,0.4099,-48.51,-3.02,-48.51,-45.50,False,FORWARDS_LEFT,0.123,0,0,STUCK,False,False,True,0,True,STUCK_DETECTED,0.00,0
1764569734.3400588,189.717,133,TEST2_OBSTACLE_BYPASS,True,-143.3,2716.7,2720.5,356.98,0.896,0.0,3139.3,-186.8,179.75,179.78,179.75,158.22,87.82,0.0107,10.0,90.398,-0.3071,0.2717,0.4100,-48.51,0.0000,0.0000,0.0000,0.00,0,800.0,128.0,-0.3071,0.2717,0.4100,-48.51,-3.02,-48.51,-45.49,False,FORWARDS_LEFT,0.123,0,0,STUCK,False,False,True,0,True,STUCK_DETECTED,0.00,0
1764569734.3833642,189.761,134,TEST2_OBSTACLE_BYPASS,True,-143.3,2716.7,2720.5,356.98,0.896,0.0,3138.2,-186.8,179.73,179.78,179.73,158.22,87.82,0.0117,10.0,93.977,-0.3072,0.2718,0.4102,-48.50,0.0000,0.0000,0.0000,0.00,0,800.0,128.0,-0.3072,0.2718,0.4102,-48.50,-3.02,-48.50,-45.48,False,FORWARDS_LEFT,0.123,0,0,STUCK,False,False,True,0,True,STUCK_DETECTED,0.00,0
1764569734.4201918,189.798,135,TEST2_OBSTACLE_BYPASS,True,-143.3,2716.7,2720.5,356.98,0.896,0.0,3137.2,-186.8,179.71,179.68,179.71,158.09,87.72,-0.0021,10.0,97.556,-0.3073,0.2720,0.4103,-48.49,0.0000,0.0000,0.0000,0.00,0,800.0,128.0,-0.3073,0.2720,0.4103,-48.49,-3.02,-48.49,-45.47,False,FORWARDS_LEFT,0.123,0,0,STUCK,False,False,True,0,True,STUCK_DETECTED,0.00,0
1764569734.4660313,189.843,136,TEST2_OBSTACLE_BYPASS,True,-143.3,2716.7,2720.5,356.98,0.896,0.0,3136.1,-186.8,179.71,179.80,179.71,158.20,87.70,0.0000,10.0,101.134,-0.3073,0.2721,0.4105,-48.48,0.0000,0.0000,0.0000,0.00,0,800.0,128.0,-0.3073,0.2721,0.4105,-48.48,-3.02,-48.48,-45.46,False,FORWARDS_LEFT,0.123,0,0,STUCK,False,False,True,0,True,STUCK_DETECTED,0.00,0
1764569734.5016549,189.879,137,TEST2_OBSTACLE_BYPASS,True,-143.3,2716.7,2720.5,356.98,0.896,0.0,3135.1,-186.8,179.69,179.65,179.69,158.09,87.80,-0.0075,10.0,104.713,-0.3074,0.2723,0.4106,-48.47,0.0000,0.0000,0.0000,0.00,0,800.0,128.0,-0.3074,0.2723,0.4106,-48.47,-3.02,-48.47,-45.45,False,FORWARDS_LEFT,0.123,0,0,STUCK,False,False,True,0,True,STUCK_DETECTED,0.00,0
1764569734.544857,189.922,138,TEST2_OBSTACLE_BYPASS,True,-143.3,2716.7,2720.5,356.98,0.896,0.0,3134.0,-186.8,179.69,179.77,179.69,158.21,87.77,-0.0064,10.0,108.292,-0.3075,0.2724,0.4108,-48.46,0.0000,0.0000,0.0000,0.00,0,800.0,128.0,-0.3075,0.2724,0.4108,-48.46,-3.02,-48.46,-45.44,False,FORWARDS_LEFT,0.123,0,0,STUCK,False,False,True,0,True,STUCK_DETECTED,0.00,0
1764569734.5852554,189.963,139,TEST2_OBSTACLE_BYPASS,False,0.0,0.0,0.0,0.00,0.000,0.0,3133.0,-186.8,179.71,179.77,179.71,158.21,87.77,0.0043,10.0,111.872,-0.3075,0.2725,0.4109,-48.45,0.0000,0.0000,0.0000,0.00,0,800.0,128.0,-0.3075,0.2725,0.4109,-48.45,0.00,-48.45,0.00,False,FORWARDS_LEFT,0.123,0,0,STUCK,False,False,True,0,True,STUCK_DETECTED,0.00,0
1764569734.6219318,189.999,140,TEST2_OBSTACLE_BYPASS,False,0.0,0.0,0.0,0.00,0.000,0.0,3132.0,-186.8,179.74,179.77,179.74,158.21,87.77,0.0032,10.0,115.451,-0.3076,0.2727,0.4111,-48.44,0.0000,0.0000,0.0000,0.00,0,800.0,128.0,-0.3076,0.2727,0.4111,-48.44,0.00,-48.44,0.00,False,FORWARDS_LEFT,0.123,0,0,STUCK,False,False,True,0,True,STUCK_DETECTED,0.00,0
1764569734.6674652,190.045,141,TEST2_OBSTACLE_BYPASS,False,0.0,0.0,0.0,0.00,0.000,0.0,3130.8,-186.8,179.74,179.77,179.74,158.21,87.77,0.0011,10.0,119.031,-0.3077,0.2729,0.4112,-48.43,0.0000,0.0000,0.0000,0.00,0,800.0,128.0,-0.3077,0.2729,0.4112,-48.43,0.00,-48.43,0.00,False,FORWARDS_LEFT,0.123,0,0,STUCK,False,False,True,0,True,STUCK_DETECTED,0.00,0
1764569734.7071407,190.085,142,TEST2_OBSTACLE_BYPASS,False,0.0,0.0,0.0,0.00,0.000,0.0,3129.8,-186.8,179.75,179.77,179.75,158.21,87.77,-0.0032,10.0,122.611,-0.3077,0.2730,0.4114,-48.42,0.0000,0.0000,0.0000,0.00,0,800.0,128.0,-0.3077,0.2730,0.4114,-48.42,0.00,-48.42,0.00,False,FORWARDS_LEFT,0.123,0,0,STUCK,False,False,True,0,True,STUCK_DETECTED,0.00,0
1764569734.7512963,190.129,143,TEST2_OBSTACLE_BYPASS,True,-120.9,2720.2,2722.9,357.46,0.848,0.0,3128.7,-186.8,179.75,179.77,179.75,158.21,87.77,-0.0011,10.0,126.192,-0.3087,0.2762,0.4142,-48.18,0.0000,0.0000,0.0000,0.00,0,800.0,128.0,-0.3087,0.2762,0.4142,-48.18,-2.54,-48.18,-45.64,False,FORWARDS_LEFT,0.124,0,0,STUCK,False,False,True,0,True,STUCK_DETECTED,0.00,0
1764569734.7854643,190.163,144,TEST2_OBSTACLE_BYPASS,True,-120.9,2720.2,2722.9,357.46,0.848,0.0,3127.8,-186.8,179.75,179.77,179.75,158.21,87.77,0.0011,10.0,129.773,-0.3088,0.2763,0.4144,-48.18,0.0000,0.0000,0.0000,0.00,0,800.0,128.0,-0.3088,0.2763,0.4144,-48.18,-2.54,-48.18,-45.63,False,FORWARDS_LEFT,0.124,0,0,STUCK,False,False,True,0,True,STUCK_DETECTED,0.00,0
1764569734.83113,190.209,145,TEST2_OBSTACLE_BYPASS,True,-120.9,2720.2,2722.9,357.46,0.848,0.0,3126.6,-186.8,179.76,179.77,179.76,158.21,87.77,-0.0043,10.0,133.356,-0.3089,0.2765,0.4145,-48.17,0.0000,0.0000,0.0000,0.00,0,800.0,128.0,-0.3089,0.2765,0.4145,-48.17,-2.54,-48.17,-45.62,False,FORWARDS_LEFT,0.124,0,0,STUCK,False,False,True,0,True,STUCK_DETECTED,0.00,0
1764569734.8648627,190.242,146,TEST2_OBSTACLE_BYPASS,True,-120.9,2720.2,2722.9,357.46,0.848,0.0,3125.7,-186.8,179.77,179.90,179.77,158.34,87.80,0.0032,10.0,136.938,-0.3089,0.2766,0.4147,-48.16,0.0000,0.0000,0.0000,0.00,0,800.0,128.0,-0.3089,0.2766,0.4147,-48.16,-2.54,-48.16,-45.61,False,FORWARDS_LEFT,0.124,0,0,STUCK,False,False,True,0,True,STUCK_DETECTED,0.00,0
1764569734.9094005,190.287,147,TEST2_OBSTACLE_BYPASS,True,-120.9,2720.2,2722.9,357.46,0.848,0.0,3124.5,-186.8,179.80,179.90,179.80,158.34,87.80,-0.0117,10.0,140.522,-0.3090,0.2768,0.4148,-48.15,0.0000,0.0000,0.0000,0.00,0,800.0,128.0,-0.3090,0.2768,0.4148,-48.15,-2.54,-48.15,-45.60,False,FORWARDS_LEFT,0.124,0,0,STUCK,False,False,True,0,True,STUCK_DETECTED,0.00,0
1764569734.9448125,190.322,148,TEST2_OBSTACLE_BYPASS,True,-120.9,2720.2,2722.9,357.46,0.848,0.0,3123.6,-186.8,179.81,179.90,179.81,158.34,87.80,-0.0053,10.0,144.106,-0.3091,0.2769,0.4150,-48.14,0.0000,0.0000,0.0000,0.00,0,800.0,128.0,-0.3091,0.2769,0.4150,-48.14,-2.54,-48.14,-45.60,False,FORWARDS_LEFT,0.124,0,0,STUCK,False,False,True,0,True,STUCK_DETECTED,0.00,0
1764569734.9894125,190.367,149,TEST2_OBSTACLE_BYPASS,True,-120.9,2720.2,2722.9,357.46,0.848,0.0,3122.4,-186.7,179.82,179.90,179.82,158.34,87.80,-0.0128,10.0,147.692,-0.3091,0.2771,0.4151,-48.13,0.0000,0.0000,0.0000,0.00,0,800.0,128.0,-0.3091,0.2771,0.4151,-48.13,-2.54,-48.13,-45.59,False,FORWARDS_LEFT,0.125,0,0,STUCK,False,False,True,0,True,STUCK_DETECTED,0.00,0
1764569735.025724,190.403,150,TEST2_OBSTACLE_BYPASS,True,-120.9,2720.2,2722.9,357.46,0.848,0.0,3121.5,-186.7,179.83,179.90,179.83,158.34,87.80,-0.0053,10.0,151.278,-0.3092,0.2772,0.4153,-48.12,0.0000,0.0000,0.0000,0.00,0,800.0,128.0,-0.3092,0.2772,0.4153,-48.12,-2.54,-48.12,-45.58,False,FORWARDS_LEFT,0.125,0,0,STUCK,False,False,True,0,True,STUCK_DETECTED,0.00,0
1764569735.068224,190.446,151,TEST2_OBSTACLE_BYPASS,False,0.0,0.0,0.0,0.00,0.000,0.0,3120.4,-186.7,179.85,179.90,179.85,158.34,87.80,0.0021,10.0,154.866,-0.3093,0.2774,0.4154,-48.11,0.0000,0.0000,0.0000,0.00,0,800.0,128.0,-0.3093,0.2774,0.4154,-48.11,0.00,-48.11,0.00,False,FORWARDS_LEFT,0.125,0,0,STUCK,False,False,True,0,True,STUCK_DETECTED,0.00,0
1764569735.1048377,190.482,152,TEST2_OBSTACLE_BYPASS,False,0.0,0.0,0.0,0.00,0.000,0.0,3119.4,-186.7,179.86,179.87,179.86,158.27,87.68,-0.0117,10.0,158.453,-0.3093,0.2775,0.4156,-48.10,0.0000,0.0000,0.0000,0.00,0,800.0,128.0,-0.3093,0.2775,0.4156,-48.10,0.00,-48.10,0.00,False,FORWARDS_LEFT,0.125,0,0,STUCK,False,False,True,0,True,STUCK_DETECTED,0.00,0
1764569735.1460853,190.523,153,TEST2_OBSTACLE_BYPASS,False,0.0,0.0,0.0,0.00,0.000,0.0,3118.3,-186.7,179.88,180.00,179.88,158.39,87.66,-0.0107,10.0,162.043,-0.3094,0.2777,0.4157,-48.09,0.0000,0.0000,0.0000,0.00,0,800.0,128.0,-0.3094,0.2777,0.4157,-48.09,0.00,-48.09,0.00,False,FORWARDS_LEFT,0.125,0,0,STUCK,False,False,True,0,True,STUCK_DETECTED,0.00,0
1764569735.1895015,190.567,154,TEST2_OBSTACLE_BYPASS,False,0.0,0.0,0.0,0.00,0.000,0.0,3117.1,-186.7,179.90,180.00,179.90,158.39,87.66,-0.0053,10.0,165.633,-0.3095,0.2778,0.4159,-48.08,0.0000,0.0000,0.0000,0.00,0,800.0,128.0,-0.3095,0.2778,0.4159,-48.08,0.00,-48.08,0.00,False,FORWARDS_LEFT,0.125,0,0,STUCK,False,False,True,0,True,STUCK_DETECTED,0.00,0
1764569735.2251844,190.603,155,TEST2_OBSTACLE_BYPASS,False,0.0,0.0,0.0,0.00,0.000,0.0,3116.2,-186.7,179.92,180.00,179.92,158.39,87.66,0.0053,10.0,169.225,-0.3095,0.2780,0.4160,-48.08,0.0000,0.0000,0.0000,0.00,0,800.0,128.0,-0.3095,0.2780,0.4160,-48.08,0.00,-48.08,0.00,False,FORWARDS_LEFT,0.125,0,0,STUCK,False,False,True,0,True,STUCK_DETECTED,0.00,0
1764569735.2679877,190.645,156,TEST2_OBSTACLE_BYPASS,False,0.0,0.0,0.0,0.00,0.000,0.0,3115.1,-186.7,179.93,180.00,179.93,158.39,87.66,-0.0075,10.0,172.817,-0.3096,0.2781,0.4162,-48.07,0.0000,0.0000,0.0000,0.00,0,800.0,128.0,-0.3096,0.2781,0.4162,-48.07,0.00,-48.07,0.00,False,FORWARDS_LEFT,0.125,0,0,STUCK,False,False,True,0,True,STUCK_DETECTED,0.00,0
1764569735.306039,190.683,157,TEST2_OBSTACLE_BYPASS,False,0.0,0.0,0.0,0.00,0.000,0.0,3114.1,-186.7,179.94,180.00,179.94,158.39,87.66,0.0011,10.0,176.410,-0.3097,0.2783,0.4163,-48.06,0.0000,0.0000,0.0000,0.00,0,800.0,128.0,-0.3097,0.2783,0.4163,-48.06,0.00,-48.06,0.00,False,FORWARDS_LEFT,0.125,0,0,STUCK,False,False,True,0,True,STUCK_DETECTED,0.00,0
1764569735.349935,190.727,158,TEST2_OBSTACLE_BYPASS,False,0.0,0.0,0.0,0.00,0.000,0.0,3112.9,-186.7,179.95,179.97,179.95,158.41,87.78,-0.0021,10.0,180.003,-0.3097,0.2784,0.4165,-48.05,0.0000,0.0000,0.0000,0.00,0,800.0,128.0,-0.3097,0.2784,0.4165,-48.05,0.00,-48.05,0.00,False,FORWARDS_LEFT,0.125,0,0,STUCK,False,False,True,0,True,STUCK_DETECTED,0.00,0
1764569735.3867362,190.764,159,TEST2_OBSTACLE_BYPASS,False,0.0,0.0,0.0,0.00,0.000,0.0,3112.0,-186.7,179.96,179.97,179.96,158.41,87.78,0.0000,10.0,183.597,-0.3098,0.2786,0.4166,-48.04,0.0000,0.0000,0.0000,0.00,0,800.0,128.0,-0.3098,0.2786,0.4166,-48.04,0.00,-48.04,0.00,False,FORWARDS_LEFT,0.125,0,0,STUCK,False,False,True,0,True,STUCK_DETECTED,0.00,0
1764569735.4280713,190.805,160,TEST2_OBSTACLE_BYPASS,False,0.0,0.0,0.0,0.00,0.000,0.0,3110.9,-186.7,179.97,179.97,179.97,158.41,87.78,-0.0043,10.0,187.192,-0.3099,0.2787,0.4168,-48.03,0.6599,0.3077,0.7281,65.00,1,300.0,128.0,0.3500,0.5864,0.6830,30.83,0.00,30.83,0.00,False,FORWARDS_RIGHT,0.205,0,0,STUCK,False,False,True,0,True,STUCK_DETECTED,0.00,0
1764569735.4671748,190.845,161,TEST2_OBSTACLE_BYPASS,False,0.0,0.0,0.0,0.00,0.000,0.0,3109.2,-186.7,179.97,179.97,179.97,158.41,87.78,0.0075,10.0,190.787,-0.3100,0.2790,0.4170,-48.01,0.0000,0.0000,0.0000,0.00,0,800.0,128.0,-0.3100,0.2790,0.4170,-48.01,0.00,-48.01,0.00,False,FORWARDS_LEFT,0.125,0,0,STUCK,False,False,True,0,True,STUCK_DETECTED,0.00,0
1764569735.5081244,190.886,162,TEST2_OBSTACLE_BYPASS,True,-123.1,2719.9,2722.7,357.41,0.850,0.0,3108.2,-186.7,179.98,179.97,179.98,158.41,87.78,0.0128,10.0,194.382,-0.3100,0.2788,0.4169,-48.03,0.0000,0.0000,0.0000,0.00,0,800.0,128.0,-0.3100,0.2788,0.4169,-48.03,-2.59,-48.03,-45.44,False,FORWARDS_LEFT,0.125,0,0,STUCK,False,False,True,0,True,STUCK_DETECTED,0.00,0
1764569735.5489173,190.926,163,TEST2_OBSTACLE_BYPASS,True,-123.1,2719.9,2722.7,357.41,0.850,0.0,3107.1,-186.7,179.98,179.97,179.98,158.41,87.78,0.0043,10.0,197.617,-0.3100,0.2790,0.4171,-48.02,0.0000,0.0000,0.0000,0.00,0,800.0,128.0,-0.3100,0.2790,0.4171,-48.02,-2.59,-48.02,-45.43,False,FORWARDS_LEFT,0.125,0,0,STUCK,False,False,True,0,True,STUCK_DETECTED,0.00,0
1764569735.5898798,190.967,164,TEST2_OBSTACLE_BYPASS,True,-123.1,2719.9,2722.7,357.41,0.850,0.0,3106.0,-186.7,179.98,179.97,179.98,158.41,87.78,-0.0011,10.0,200.493,-0.3101,0.2791,0.4172,-48.01,0.0000,0.0000,0.0000,0.00,0,800.0,128.0,-0.3101,0.2791,0.4172,-48.01,-2.59,-48.01,-45.42,False,FORWARDS_LEFT,0.125,0,0,STUCK,False,False,True,0,True,STUCK_DETECTED,0.00,0
1764569735.628595,191.006,165,TEST2_OBSTACLE_BYPASS,True,-120.1,2730.2,2732.8,357.48,0.860,0.0,3105.2,-186.1,143.99,-179.90,143.99,158.54,87.80,-0.0011,10.0,203.009,-0.3089,0.2793,0.4165,-47.88,0.0000,0.0000,0.0000,0.00,0,800.0,128.0,-0.3089,0.2793,0.4165,-47.88,-2.52,-47.88,-45.36,False,FORWARDS_LEFT,0.125,0,0,STUCK,False,False,True,0,True,STUCK_DETECTED,0.00,0
1764569735.6710064,191.048,166,TEST2_OBSTACLE_BYPASS,True,-120.1,2730.2,2732.8,357.48,0.860,0.0,3104.9,-185.1,108.00,-179.90,108.00,158.54,87.80,-0.0043,10.0,205.165,-0.3091,0.2794,0.4167,-47.89,0.0000,0.0000,0.0000,0.00,0,800.0,128.0,-0.3091,0.2794,0.4167,-47.89,-2.52,-47.89,-45.37,False,FORWARDS_LEFT,0.125,0,0,STUCK,False,False,True,0,True,STUCK_DETECTED,0.00,0
1764569735.7100477,191.087,167,TEST2_OBSTACLE_BYPASS,True,-120.1,2730.2,2732.8,357.48,0.860,0.0,3105.2,-184.1,72.01,-179.90,72.01,158.54,87.80,-0.0128,10.0,206.961,-0.3092,0.2794,0.4168,-47.90,0.0000,0.0000,0.0000,0.00,0,800.0,128.0,-0.3092,0.2794,0.4168,-47.90,-2.52,-47.90,-45.38,False,FORWARDS_LEFT,0.125,0,0,STUCK,False,False,True,0,True,STUCK_DETECTED,0.00,0
