timestamp,elapsed_time,log_number,test_mode,person_detected,person_x_mm,person_y_mm,person_distance_mm,person_angle_deg,person_confidence,time_since_person_update_ms,robot_x_mm,robot_y_mm,robot_orientation_deg,imu_yaw_raw,imu_yaw_smoothed,imu_roll,imu_pitch,imu_angular_vel_z,imu_update_rate,imu_drift_estimate,attr_force_x,attr_force_y,attr_force_magnitude,attr_force_direction_deg,repul_force_x,repul_force_y,repul_force_magnitude,repul_force_direction_deg,num_obstacles_in_range,closest_obstacle_dist_mm,closest_obstacle_angle_deg,total_force_x,total_force_y,total_force_magnitude,total_force_direction_deg,expected_direction_to_person_deg,force_direction_deg,direction_error_deg,direction_mismatch_flag,commanded_direction,commanded_speed,motor_1_speed,motor_2_speed,nav_state,nav_state_changed,goal_reached,stuck_detected,time_in_current_state_s,anomaly_detected,anomaly_type,calculation_time_ms,obstacles_filtered_for_person
1764635435.587244,125.182,1,TEST2_OBSTACLE_BYPASS,True,-462.4,2499.3,2541.7,349.52,0.716,0.0,-336.7,104.6,-176.97,-176.97,-176.97,144.27,88.19,0.0011,10.0,0.000,-0.2624,4.9973,5.0042,-3.01,1.8158,-2.9921,3.5000,148.75,20,300.0,142.0,1.5534,2.0052,2.5365,37.76,-10.48,37.76,48.25,False,FORWARDS_RIGHT,0.761,0,0,NAVIGATING,True,False,False,0,False,,0.00,0
1764635435.626418,125.221,2,TEST2_OBSTACLE_BYPASS,True,-462.4,2499.3,2541.7,349.52,0.716,0.0,-343.3,104.3,-176.97,-176.97,-176.97,144.27,88.19,-0.0064,10.0,0.000,-0.2486,4.9980,5.0042,-2.85,1.8102,-2.9955,3.5000,148.86,18,300.0,142.0,1.5616,2.0025,2.5394,37.95,-10.48,37.95,48.43,False,FORWARDS_RIGHT,0.762,0,0,NAVIGATING,False,False,False,0,False,,0.00,0
1764635435.6670904,125.262,3,TEST2_OBSTACLE_BYPASS,True,-462.4,2499.3,2541.7,349.52,0.716,0.0,-349.7,103.9,-176.97,-176.97,-176.97,144.27,88.19,0.0075,10.0,0.000,-0.2353,4.9986,5.0041,-2.70,1.8102,-2.9955,3.5000,148.86,18,300.0,142.0,1.5749,2.0031,2.5481,38.18,-10.48,38.18,48.66,False,FORWARDS_RIGHT,0.764,0,0,NAVIGATING,False,False,False,0,False,,0.00,0
1764635435.7099736,125.305,4,TEST2_OBSTACLE_BYPASS,True,-462.4,2499.3,2541.7,349.52,0.716,0.0,-356.5,103.6,-176.97,-176.97,-176.97,144.27,88.19,-0.0085,10.0,0.000,-0.2211,4.9991,5.0040,-2.53,1.9588,-2.9005,3.5000,145.97,22,300.0,142.0,1.7377,2.0986,2.7246,39.63,-10.48,39.63,50.11,False,FORWARDS_RIGHT,0.817,0,0,NAVIGATING,False,False,False,0,False,,0.00,0
1764635435.7514043,125.346,5,TEST2_OBSTACLE_BYPASS,True,-462.4,2499.3,2541.7,349.52,0.716,0.0,-363.6,103.2,-176.97,-176.97,-176.97,144.27,88.19,0.0128,10.0,0.000,-0.2062,4.9996,5.0039,-2.36,1.9588,-2.9005,3.5000,145.97,22,300.0,142.0,1.7526,2.0991,2.7345,39.86,-10.48,39.86,50.34,False,FORWARDS_RIGHT,0.820,0,0,NAVIGATING,False,False,False,0,False,,0.00,0
1764635435.7927608,125.388,6,TEST2_OBSTACLE_BYPASS,True,-462.4,2499.3,2541.7,349.52,0.716,0.0,-370.8,102.8,-176.97,-176.97,-176.97,144.27,88.19,0.0053,10.0,0.000,-0.1912,5.0000,5.0037,-2.19,1.9119,-2.9316,3.5000,146.89,23,300.0,142.0,1.7207,2.0684,2.6905,39.76,-10.48,39.76,50.24,False,FORWARDS_RIGHT,0.807,0,0,NAVIGATING,False,False,False,0,False,,0.00,0
1764635435.828974,125.424,7,TEST2_OBSTACLE_BYPASS,False,0.0,0.0,0.0,0.00,0.000,0.0,-377.3,102.5,-176.97,-176.97,-176.97,144.27,88.19,0.0117,10.0,0.000,-0.1775,5.0003,5.0034,-2.03,1.9119,-2.9316,3.5000,146.89,23,300.0,142.0,1.7344,2.0687,2.6995,39.98,0.00,39.98,0.00,False,NONE,0.000,0,0,SEARCHING,True,False,False,0,False,,0.00,0
1764635435.8714743,125.466,8,TEST2_OBSTACLE_BYPASS,False,0.0,0.0,0.0,0.00,0.000,0.0,-384.6,102.1,-176.97,-176.97,-176.97,144.27,88.19,0.0075,10.0,0.000,-0.1624,5.0005,5.0032,-1.86,1.8871,-2.9477,3.5000,147.37,22,300.0,142.0,1.7246,2.0528,2.6811,40.03,0.00,40.03,0.00,False,NONE,0.000,0,0,SEARCHING,False,False,False,0,False,,0.00,0
1764635435.9091704,125.504,9,TEST2_OBSTACLE_BYPASS,False,0.0,0.0,0.0,0.00,0.000,0.0,-390.9,101.7,-176.97,-176.97,-176.97,144.27,88.19,0.0160,10.0,0.000,-0.1491,5.0007,5.0029,-1.71,1.8871,-2.9477,3.5000,147.37,22,300.0,142.0,1.7380,2.0529,2.6898,40.25,0.00,40.25,0.00,False,NONE,0.000,0,0,SEARCHING,False,False,False,0,False,,0.00,0
1764635435.9544048,125.549,10,TEST2_OBSTACLE_BYPASS,False,0.0,0.0,0.0,0.00,0.000,0.0,-398.4,101.3,-176.96,-176.89,-176.96,144.50,88.39,-0.0011,10.0,0.000,-0.1335,5.0007,5.0025,-1.53,1.5886,-3.1187,3.5000,153.01,20,300.0,142.0,1.4550,1.8820,2.3788,37.71,0.00,37.71,0.00,False,NONE,0.000,0,0,SEARCHING,False,False,True,0,True,STUCK_DETECTED,0.00,0
1764635435.9944584,125.589,11,TEST2_OBSTACLE_BYPASS,False,0.0,0.0,0.0,0.00,0.000,0.0,-405.3,101.0,-176.88,-176.14,-176.88,145.22,88.24,-0.0128,10.0,0.000,-0.1190,5.0006,5.0021,-1.36,1.5289,-3.1484,3.5000,154.10,21,300.0,142.0,1.4099,1.8522,2.3278,37.28,0.00,37.28,0.00,False,NONE,0.000,0,0,SEARCHING,False,False,True,0,True,STUCK_DETECTED,0.00,0
1764635436.0391004,125.634,12,TEST2_OBSTACLE_BYPASS,False,0.0,0.0,0.0,0.00,0.000,0.0,-412.5,100.5,-176.52,-173.36,-176.52,147.92,88.18,0.0075,10.0,0.050,-0.1041,5.0004,5.0015,-1.19,1.5289,-3.1484,3.5000,154.10,21,300.0,142.0,1.4248,1.8520,2.3366,37.57,0.00,37.57,0.00,False,NONE,0.000,0,0,SEARCHING,False,False,True,0,True,STUCK_DETECTED,0.00,0
1764635436.082496,125.677,13,TEST2_OBSTACLE_BYPASS,False,0.0,0.0,0.0,0.00,0.000,0.0,-419.6,100.0,-175.95,-171.32,-175.95,149.71,87.91,0.0298,10.0,0.130,-0.0893,4.9999,5.0007,-1.02,1.5975,-3.1142,3.5000,152.84,24,300.0,142.0,1.5081,1.8858,2.4146,38.65,0.00,38.65,0.00,False,FORWARDS_RIGHT,0.724,0,0,SEARCHING,False,False,True,0,True,STUCK_DETECTED,0.00,0
1764635436.119631,125.715,14,TEST2_OBSTACLE_BYPASS,False,0.0,0.0,0.0,0.00,0.000,0.0,-425.7,99.5,-175.40,-171.48,-175.40,149.32,87.80,0.0437,10.0,0.241,-0.0766,4.9993,4.9999,-0.88,1.5975,-3.1142,3.5000,152.84,24,300.0,142.0,1.5209,1.8851,2.4222,38.90,0.00,38.90,0.00,False,FORWARDS_RIGHT,0.727,0,0,SEARCHING,False,False,True,0,True,STUCK_DETECTED,0.00,0
1764635436.1663852,125.761,15,TEST2_OBSTACLE_BYPASS,False,0.0,0.0,0.0,0.00,0.000,0.0,-432.3,99.0,-174.98,-172.75,-174.98,147.66,87.55,0.0469,10.0,0.366,-0.0628,4.9985,4.9989,-0.72,0.9529,-3.3678,3.5000,164.20,21,300.0,142.0,0.8901,1.6307,1.8578,28.63,0.00,28.63,0.00,False,FORWARDS_RIGHT,0.557,0,0,SEARCHING,False,False,True,0,True,STUCK_DETECTED,0.00,0
1764635436.20241,125.797,16,TEST2_OBSTACLE_BYPASS,False,0.0,0.0,0.0,0.00,0.000,0.0,-436.6,98.6,-174.85,-175.61,-174.85,144.56,87.61,0.0341,10.0,0.483,-0.0538,4.9979,4.9982,-0.62,0.5852,-3.4507,3.5000,170.37,21,300.0,142.0,0.5314,1.5472,1.6359,18.95,0.00,18.95,0.00,False,FORWARDS,0.491,0,0,SEARCHING,False,False,True,0,True,STUCK_DETECTED,0.00,0
1764635436.2443016,125.839,17,TEST2_OBSTACLE_BYPASS,False,0.0,0.0,0.0,0.00,0.000,0.0,-442.9,98.0,-175.10,-179.53,-175.10,140.37,87.73,-0.0192,10.0,0.569,-0.0406,4.9970,4.9972,-0.47,0.5458,-3.4572,3.5000,171.03,18,300.0,142.0,0.5052,1.5399,1.6206,18.16,0.00,18.16,0.00,False,FORWARDS,0.486,0,0,SEARCHING,False,False,True,0,True,STUCK_DETECTED,0.00,0
1764635436.285227,125.880,18,TEST2_OBSTACLE_BYPASS,False,0.0,0.0,0.0,0.00,0.000,0.0,-447.3,94.2,-139.45,179.58,-139.45,139.60,88.06,-0.0788,10.0,2.743,-0.0313,4.9893,4.9894,-0.36,0.5458,-3.4572,3.5000,171.03,18,300.0,142.0,0.5145,1.5321,1.6162,18.56,0.00,18.56,0.00,False,FORWARDS,0.485,0,0,SEARCHING,False,False,True,0,True,STUCK_DETECTED,0.00,0
1764635436.3300343,125.925,19,TEST2_OBSTACLE_BYPASS,False,0.0,0.0,0.0,0.00,0.000,0.0,-452.2,90.1,-139.70,-179.52,-139.70,140.80,88.26,-0.0959,10.0,4.661,-0.0212,4.9809,4.9809,-0.24,-0.5673,-3.4537,3.5000,-170.67,15,300.0,142.0,-0.5884,1.5271,1.6366,-21.07,0.00,-21.07,0.00,False,FORWARDS,0.491,0,0,SEARCHING,False,False,True,0,True,STUCK_DETECTED,0.00,0
1764635436.3700697,125.965,20,TEST2_OBSTACLE_BYPASS,False,0.0,0.0,0.0,0.00,0.000,0.0,-456.8,86.2,-139.55,-175.38,-139.55,145.44,88.35,-0.0629,10.0,6.385,-0.0116,4.9728,4.9728,-0.13,-0.2091,-3.4937,3.5000,-176.58,15,300.0,142.0,-0.2207,1.4790,1.4954,-8.49,0.00,-8.49,0.00,False,FORWARDS,0.449,0,0,SEARCHING,False,False,True,0,True,STUCK_DETECTED,0.00,0
1764635436.4114466,126.006,21,TEST2_OBSTACLE_BYPASS,False,0.0,0.0,0.0,0.00,0.000,0.0,-461.1,82.5,-139.34,-174.03,-139.34,147.80,88.50,0.0288,10.0,7.947,-0.0028,4.9653,4.9653,-0.03,-1.4414,-3.1894,3.5000,-155.68,11,300.0,147.0,-1.4442,1.7759,2.2890,-39.12,0.00,-39.12,0.00,False,FORWARDS_LEFT,0.687,0,0,SEARCHING,False,False,True,0,True,STUCK_DETECTED,0.00,0
1764635436.4576473,126.053,22,TEST2_OBSTACLE_BYPASS,False,0.0,0.0,0.0,0.00,0.000,0.0,-465.6,78.7,-139.79,-177.88,-139.79,144.72,88.22,0.0447,10.0,9.339,0.0065,4.9574,4.9574,0.07,-1.4414,-3.1894,3.5000,-155.68,11,300.0,147.0,-1.4349,1.7680,2.2770,-39.06,0.00,-39.06,0.00,False,FORWARDS_LEFT,0.683,0,0,SEARCHING,False,False,True,0,True,STUCK_DETECTED,0.00,0
1764635436.4969344,126.092,23,TEST2_OBSTACLE_BYPASS,False,0.0,0.0,0.0,0.00,0.000,0.0,-467.3,72.3,-104.80,178.56,-104.80,141.98,88.34,-0.0096,10.0,12.194,0.0099,4.9444,4.9444,0.11,-1.5933,-3.1163,3.5000,-152.92,9,300.0,147.0,-1.5834,1.8281,2.4184,-40.90,0.00,-40.90,0.00,False,FORWARDS_LEFT,0.726,0,0,SEARCHING,False,False,True,0,True,STUCK_DETECTED,0.00,0
1764635436.5377896,126.133,24,TEST2_OBSTACLE_BYPASS,False,0.0,0.0,0.0,0.00,0.000,0.0,-465.2,66.8,-69.72,179.40,-69.72,143.03,88.44,-0.0160,10.0,16.327,0.0057,4.9331,4.9331,0.07,-1.2427,-3.2719,3.5000,-159.20,9,300.0,147.0,-1.2371,1.6612,2.0712,-36.68,0.00,-36.68,0.00,False,FORWARDS_LEFT,0.621,0,0,SEARCHING,False,False,True,0,True,STUCK_DETECTED,0.00,0
1764635436.5805547,126.176,25,TEST2_OBSTACLE_BYPASS,False,0.0,0.0,0.0,0.00,0.000,0.0,-460.7,63.6,-34.73,177.10,-34.73,141.05,88.49,0.0053,10.0,21.574,-0.0036,4.9267,4.9267,-0.04,-1.2427,-3.2719,3.5000,-159.20,9,300.0,147.0,-1.2463,1.6548,2.0716,-36.99,0.00,-36.99,0.00,False,FORWARDS_LEFT,0.621,0,0,SEARCHING,False,False,True,0,True,STUCK_DETECTED,0.00,0
1764635436.621017,126.216,26,TEST2_OBSTACLE_BYPASS,False,0.0,0.0,0.0,0.00,0.000,0.0,-455.4,63.6,0.36,175.25,0.36,139.34,88.50,-0.0032,10.0,27.804,-0.0142,4.9267,4.9268,-0.17,-2.4022,-2.5455,3.5000,-136.66,10,300.0,84.0,-2.4164,2.3813,3.3926,-45.42,0.00,-45.42,0.00,False,FORWARDS_LEFT,1.000,0,0,SEARCHING,False,False,True,0,True,STUCK_DETECTED,0.00,0
1764635436.6613421,126.256,27,TEST2_OBSTACLE_BYPASS,False,0.0,0.0,0.0,0.00,0.000,0.0,-448.5,68.6,35.88,175.74,35.88,140.01,88.54,0.0021,10.0,34.921,-0.0283,4.9368,4.9368,-0.33,-2.4022,-2.5455,3.5000,-136.66,10,300.0,84.0,-2.4305,2.3913,3.4096,-45.47,0.00,-45.47,0.00,False,FORWARDS_LEFT,1.000,0,0,SEARCHING,False,False,True,0,True,STUCK_DETECTED,0.00,0
1764635436.705181,126.300,28,TEST2_OBSTACLE_BYPASS,True,-469.3,2436.3,2481.1,349.10,0.667,0.0,-441.3,73.8,35.67,177.49,35.67,141.77,88.28,0.0245,10.0,41.503,-0.0603,5.0786,5.0790,-0.68,-2.7101,-2.2148,3.5000,-129.26,14,300.0,84.0,-2.7704,2.8638,3.9846,-44.05,-10.90,-44.05,-33.15,False,FORWARDS_LEFT,1.000,0,0,NAVIGATING,True,False,True,0,True,STUCK_DETECTED,0.00,0
1764635436.7419,126.337,29,TEST2_OBSTACLE_BYPASS,True,-469.3,2436.3,2481.1,349.10,0.667,0.0,-438.7,81.3,71.42,177.91,71.42,142.22,88.23,0.0256,10.0,48.892,-0.0662,5.0948,5.0952,-0.74,-2.7101,-2.2148,3.5000,-129.26,14,300.0,84.0,-2.7763,2.8800,4.0003,-43.95,-10.90,-43.95,-33.05,False,FORWARDS_LEFT,1.000,0,0,STUCK,True,False,True,0,True,STUCK_DETECTED,0.00,0
1764635436.7884881,126.383,30,TEST2_OBSTACLE_BYPASS,True,-469.3,2436.3,2481.1,349.10,0.667,0.0,-435.9,89.7,70.96,-179.99,70.96,144.26,88.11,0.0128,10.0,55.755,-0.0730,5.1128,5.1133,-0.82,-2.8988,-1.9614,3.5000,-124.08,22,300.0,84.0,-2.9717,3.1514,4.3315,-43.32,-10.90,-43.32,-32.42,False,FORWARDS_LEFT,1.000,0,0,STUCK,False,False,True,0,True,STUCK_DETECTED,0.00,0
1764635436.8237312,126.419,31,TEST2_OBSTACLE_BYPASS,True,-469.3,2436.3,2481.1,349.10,0.667,0.0,-433.2,97.3,70.57,-177.87,70.57,146.19,87.89,0.0096,10.0,62.148,-0.0793,5.1291,5.1297,-0.89,-2.8988,-1.9614,3.5000,-124.08,22,300.0,84.0,-2.9780,3.1677,4.3478,-43.23,-10.90,-43.23,-32.33,False,FORWARDS_LEFT,1.000,0,0,STUCK,False,False,True,0,True,STUCK_DETECTED,0.00,0
1764635436.8677552,126.463,32,TEST2_OBSTACLE_BYPASS,True,-469.3,2436.3,2481.1,349.10,0.667,0.0,-430.1,106.0,70.77,-175.90,70.77,147.78,87.68,-0.0202,10.0,68.135,-0.0866,5.1482,5.1489,-0.96,-3.2324,-1.3423,3.5000,-112.55,38,300.0,84.0,-3.3190,3.8059,5.0498,-41.09,-10.90,-41.09,-30.19,False,FORWARDS_LEFT,1.000,0,0,STUCK,False,False,True,0,True,STUCK_DETECTED,0.00,0
1764635436.9063706,126.501,33,TEST2_OBSTACLE_BYPASS,True,-469.3,2436.3,2481.1,349.10,0.667,0.0,-423.6,110.7,35.36,-175.55,35.36,147.87,87.91,-0.0629,10.0,72.641,-0.1014,5.1579,5.1589,-1.13,-3.2324,-1.3423,3.5000,-112.55,38,300.0,84.0,-3.3338,3.8156,5.0668,-41.14,-10.90,-41.14,-30.24,False,FORWARDS_LEFT,1.000,0,0,STUCK,False,False,True,0,True,STUCK_DETECTED,0.00,0
1764635436.9516125,126.547,34,TEST2_OBSTACLE_BYPASS,True,-469.3,2436.3,2481.1,349.10,0.667,0.0,-414.6,110.6,-0.24,-176.59,-0.24,146.41,88.14,-0.0767,10.0,75.795,-0.1215,5.1569,5.1583,-1.35,-3.4041,-0.8139,3.5000,-103.45,59,300.0,84.0,-3.5256,4.3430,5.5939,-39.07,-10.90,-39.07,-28.16,False,FORWARDS_LEFT,1.000,0,0,STUCK,False,False,True,0,True,STUCK_DETECTED,0.00,0
1764635436.9936218,126.589,35,TEST2_OBSTACLE_BYPASS,True,-469.3,2436.3,2481.1,349.10,0.667,0.0,-406.8,105.1,-35.63,-176.79,-35.63,146.15,88.45,-0.0138,10.0,77.723,-0.1380,5.1437,5.1456,-1.54,-3.3976,-0.8406,3.5000,-103.90,59,300.0,84.0,-3.5356,4.3032,5.5694,-39.41,-10.90,-39.41,-28.50,False,FORWARDS_LEFT,1.000,0,0,STUCK,False,False,True,0,True,STUCK_DETECTED,0.00,0
1764635437.0375488,126.632,36,TEST2_OBSTACLE_BYPASS,False,0.0,0.0,0.0,0.00,0.000,0.0,-403.7,96.4,-70.45,-172.92,-70.45,149.98,88.27,0.0224,10.0,78.545,-0.1437,5.1245,5.1265,-1.61,-3.4270,-0.7113,3.5000,-101.73,66,300.0,86.0,-3.5707,4.4132,5.6768,-38.98,0.00,-38.98,0.00,False,NONE,0.000,0,0,STUCK,False,False,True,0,True,STUCK_DETECTED,0.00,0
1764635437.0727515,126.668,37,TEST2_OBSTACLE_BYPASS,False,0.0,0.0,0.0,0.00,0.000,0.0,-405.8,88.8,-104.95,-169.28,-104.95,153.39,87.82,0.0160,10.0,78.364,-0.1384,5.1081,5.1100,-1.55,-3.4270,-0.7113,3.5000,-101.73,66,300.0,86.0,-3.5653,4.3968,5.6607,-39.04,0.00,-39.04,0.00,False,NONE,0.000,0,0,STUCK,False,False,True,0,True,STUCK_DETECTED,0.00,0
1764635437.1241431,126.719,38,TEST2_OBSTACLE_BYPASS,False,0.0,0.0,0.0,0.00,0.000,0.0,-414.3,81.5,-139.34,-166.40,-139.34,155.61,87.42,-0.0043,10.0,77.263,-0.1191,5.0932,5.0946,-1.34,-3.4705,-0.4531,3.5000,-97.44,81,300.0,88.0,-3.5896,4.6400,5.8664,-37.73,0.00,-37.73,0.00,False,NONE,0.000,0,0,STUCK,False,False,True,0,True,STUCK_DETECTED,0.00,0
1764635437.1709135,126.766,39,TEST2_OBSTACLE_BYPASS,False,0.0,0.0,0.0,0.00,0.000,0.0,-423.3,80.6,-174.08,-169.50,-174.08,152.10,87.82,-0.0277,10.0,75.306,-0.0995,5.0920,5.0930,-1.12,-3.4831,-0.3434,3.5000,-95.63,97,300.0,90.0,-3.5826,4.7486,5.9485,-37.03,0.00,-37.03,0.00,False,NONE,0.000,0,0,STUCK,False,False,True,0,True,STUCK_DETECTED,0.00,0
1764635437.2076452,126.803,40,TEST2_OBSTACLE_BYPASS,False,0.0,0.0,0.0,0.00,0.000,0.0,-431.3,79.7,-173.50,-174.24,-173.50,146.88,88.27,-0.0373,10.0,73.464,-0.0822,5.0906,5.0913,-0.93,-3.4831,-0.3434,3.5000,-95.63,97,300.0,90.0,-3.5653,4.7473,5.9370,-36.91,0.00,-36.91,0.00,False,NONE,0.000,0,0,STUCK,False,False,True,0,True,STUCK_DETECTED,0.00,0
1764635437.2501903,126.845,41,TEST2_OBSTACLE_BYPASS,False,0.0,0.0,0.0,0.00,0.000,0.0,-440.3,78.6,-173.39,-176.72,-173.39,144.02,88.46,-0.0256,10.0,71.717,-0.0626,5.0889,5.0893,-0.70,-3.4805,-0.3686,3.5000,-96.05,88,300.0,93.0,-3.5432,4.7203,5.9021,-36.89,0.00,-36.89,0.00,False,NONE,0.000,0,0,STUCK,False,False,True,0,True,STUCK_DETECTED,0.00,0
1764635437.290064,126.885,42,TEST2_OBSTACLE_BYPASS,False,0.0,0.0,0.0,0.00,0.000,0.0,-448.4,77.7,-173.35,-175.50,-173.35,144.83,88.43,-0.0075,10.0,70.056,-0.0452,5.0873,5.0875,-0.51,-3.4452,-0.6170,3.5000,-100.15,78,300.0,97.0,-3.4904,4.4703,5.6715,-37.98,0.00,-37.98,0.00,False,FORWARDS_LEFT,1.000,0,0,STUCK,False,False,True,0,True,STUCK_DETECTED,0.00,0
1764635437.3356707,126.931,43,TEST2_OBSTACLE_BYPASS,True,-573.0,2301.2,2371.5,346.02,0.674,0.0,-457.4,76.6,-173.14,-173.48,-173.14,146.74,88.44,0.0064,10.0,68.479,-0.2797,5.3796,5.3869,-2.98,-3.4902,-0.2619,3.5000,-94.29,74,300.0,204.0,-3.7698,5.1178,6.3564,-36.38,-13.98,-36.38,-22.39,False,FORWARDS_LEFT,1.000,0,0,STUCK,False,False,True,0,True,STUCK_DETECTED,0.00,0
1764635437.3786137,126.974,44,TEST2_OBSTACLE_BYPASS,True,-649.8,2237.3,2329.7,343.80,0.954,0.0,-466.4,75.4,-172.45,-169.70,-172.45,150.45,88.04,0.1172,10.0,66.991,-0.4675,5.5110,5.5308,-4.85,-3.4600,-0.5278,3.5000,-98.67,87,300.0,204.0,-3.9275,4.9832,6.3449,-38.24,-16.20,-38.24,-22.05,False,FORWARDS_LEFT,1.000,0,0,STUCK,False,False,True,0,True,STUCK_DETECTED,0.00,0
1764635437.4172425,127.012,45,TEST2_OBSTACLE_BYPASS,True,-649.8,2237.3,2329.7,343.80,0.954,0.0,-474.6,74.2,-171.64,-168.63,-171.64,151.33,87.29,0.1587,10.0,65.590,-0.4466,5.5114,5.5295,-4.63,-3.4785,-0.3871,3.5000,-96.35,59,300.0,204.0,-3.9251,5.1243,6.4549,-37.45,-16.20,-37.45,-21.26,False,FORWARDS_LEFT,1.000,0,0,STUCK,False,False,True,0,True,STUCK_DETECTED,0.00,0
1764635437.4620893,127.057,46,TEST2_OBSTACLE_BYPASS,True,-694.7,2202.7,2309.6,342.50,0.980,0.0,-483.6,72.8,-171.11,-167.68,-171.11,151.81,86.53,0.0746,10.0,64.263,-0.5529,5.5792,5.6066,-5.66,-3.4327,-0.6829,3.5000,-101.25,65,300.0,204.0,-3.9857,4.8963,6.3134,-39.15,-17.50,-39.15,-21.64,False,FORWARDS_LEFT,1.000,0,0,STUCK,False,False,True,0,True,STUCK_DETECTED,0.00,0
1764635437.4992712,127.094,47,TEST2_OBSTACLE_BYPASS,True,-694.7,2202.7,2309.6,342.50,0.980,0.0,-492.1,71.4,-170.96,-167.74,-170.96,150.91,86.28,-0.0085,10.0,62.996,-0.5304,5.5800,5.6052,-5.43,-3.4673,-0.4777,3.5000,-97.84,59,300.0,204.0,-3.9977,5.1024,6.4819,-38.08,-17.50,-38.08,-20.57,False,FORWARDS_LEFT,1.000,0,0,STUCK,False,False,True,0,True,STUCK_DETECTED,0.00,0
1764635437.5412664,127.136,48,TEST2_OBSTACLE_BYPASS,True,-692.0,2172.0,2279.5,342.33,0.990,0.0,-500.4,70.1,-171.15,-168.33,-171.15,149.57,86.35,-0.0458,10.0,61.780,-0.5161,5.6622,5.6857,-5.21,-3.4059,-0.8060,3.5000,-103.31,71,300.0,204.0,-3.9220,4.8563,6.2422,-38.92,-17.67,-38.92,-21.25,False,FORWARDS_LEFT,1.000,0,0,STUCK,False,False,True,0,True,STUCK_DETECTED,0.00,0
1764635437.5838647,127.179,49,TEST2_OBSTACLE_BYPASS,True,-692.0,2172.0,2279.5,342.33,0.990,0.0,-509.2,68.8,-171.17,-169.70,-171.17,146.94,86.86,-0.1140,10.0,60.613,-0.4922,5.6628,5.6842,-4.97,-3.4625,-0.5113,3.5000,-98.40,70,300.0,204.0,-3.9547,5.1516,6.4945,-37.51,-17.67,-37.51,-19.84,False,FORWARDS_LEFT,1.000,0,0,STUCK,False,False,True,0,True,STUCK_DETECTED,0.00,0
1764635437.6312068,127.226,50,TEST2_OBSTACLE_BYPASS,True,-692.0,2172.0,2279.5,342.33,0.990,0.0,-518.7,67.2,-170.77,-170.21,-170.77,145.75,87.53,-0.0980,10.0,59.503,-0.4663,5.6630,5.6822,-4.71,-3.4248,-0.7215,3.5000,-101.90,71,300.0,204.0,-3.8911,4.9415,6.2896,-38.22,-17.67,-38.22,-20.55,False,FORWARDS_LEFT,1.000,0,0,STUCK,False,False,True,0,True,STUCK_DETECTED,0.00,0
1764635437.6709461,127.266,51,TEST2_OBSTACLE_BYPASS,True,-734.5,2158.0,2279.5,341.20,0.990,0.0,-526.6,65.9,-170.24,-171.38,-170.24,144.58,87.85,-0.0160,10.0,58.447,-0.5644,5.6798,5.7077,-5.68,-3.4248,-0.7215,3.5000,-101.90,71,300.0,204.0,-3.9893,4.9583,6.3639,-38.82,-18.80,-38.82,-20.02,False,FORWARDS_LEFT,1.000,0,0,STUCK,False,False,True,0,True,STUCK_DETECTED,0.00,0
1764635437.712328,127.307,52,TEST2_OBSTACLE_BYPASS,True,-734.5,2158.0,2279.5,341.20,0.990,0.0,-535.7,64.1,-169.18,-164.94,-169.18,151.25,87.26,0.0788,10.0,57.454,-0.5394,5.6799,5.7054,-5.42,-3.4113,-0.7830,3.5000,-102.93,73,300.0,204.0,-3.9506,4.8969,6.2918,-38.90,-18.80,-38.90,-20.10,False,FORWARDS_LEFT,1.000,0,0,STUCK,False,False,True,0,True,STUCK_DETECTED,0.00,0
1764635437.7561564,127.351,53,TEST2_OBSTACLE_BYPASS,True,-734.5,2158.0,2279.5,341.20,0.990,0.0,-544.4,62.3,-167.93,-161.04,-167.93,155.61,86.36,0.1502,10.0,56.523,-0.5150,5.6793,5.7026,-5.18,-3.3392,-1.0485,3.5000,-107.43,96,300.0,204.0,-3.8543,4.6307,6.0249,-39.77,-18.80,-39.77,-20.97,False,FORWARDS_LEFT,1.000,0,0,STUCK,False,False,True,0,True,STUCK_DETECTED,0.00,0
1764635437.7989402,127.394,54,TEST2_OBSTACLE_BYPASS,True,-734.5,2158.0,2279.5,341.20,0.990,0.0,-553.7,60.1,-167.00,-160.32,-167.00,156.42,85.66,0.0767,10.0,55.645,-0.4894,5.6780,5.6990,-4.93,-3.3877,-0.8793,3.5000,-104.55,85,300.0,204.0,-3.8772,4.7987,6.1692,-38.94,-18.80,-38.94,-20.14,False,FORWARDS_LEFT,1.000,0,0,STUCK,False,False,True,0,True,STUCK_DETECTED,0.00,0
1764635437.840432,127.435,55,TEST2_OBSTACLE_BYPASS,True,-734.5,2158.0,2279.5,341.20,0.990,0.0,-561.5,58.2,-166.21,-160.79,-166.21,155.11,85.28,0.0096,10.0,54.813,-0.4676,5.6764,5.6956,-4.71,-3.3877,-0.8793,3.5000,-104.55,85,300.0,204.0,-3.8553,4.7971,6.1543,-38.79,-18.80,-38.79,-19.99,False,FORWARDS_LEFT,1.000,0,0,STUCK,False,False,True,0,True,STUCK_DETECTED,0.00,0
1764635437.879453,127.474,56,TEST2_OBSTACLE_BYPASS,False,0.0,0.0,0.0,0.00,0.000,0.0,-570.7,55.8,-165.62,-161.79,-165.62,152.63,85.58,-0.0575,10.0,54.023,-0.4421,5.6741,5.6913,-4.46,-3.3164,-1.1187,3.5000,-108.64,95,300.0,204.0,-3.7585,4.5554,5.9057,-39.52,0.00,-39.52,0.00,False,NONE,0.000,0,0,STUCK,False,False,True,0,True,STUCK_DETECTED,0.00,0
1764635437.9318666,127.527,57,TEST2_OBSTACLE_BYPASS,True,-825.5,2051.7,2211.5,338.08,0.999,0.0,-579.3,53.5,-164.92,-160.72,-164.92,152.23,85.99,-0.1214,10.0,53.273,-0.7287,5.9158,5.9605,-7.02,-3.1915,-1.4368,3.5000,-114.24,112,300.0,204.0,-3.9202,4.4790,5.9522,-41.19,-21.92,-41.19,-19.28,False,FORWARDS_LEFT,1.000,0,0,STUCK,False,False,True,0,True,STUCK_DETECTED,0.00,0
1764635437.9633875,127.558,58,TEST2_OBSTACLE_BYPASS,True,-825.5,2051.7,2211.5,338.08,0.999,0.0,-587.2,51.3,-163.91,-158.21,-163.91,153.63,86.27,-0.1395,10.0,52.568,-0.7046,5.9149,5.9567,-6.79,-3.2528,-1.2919,3.5000,-111.66,91,300.0,204.0,-3.9574,4.6230,6.0855,-40.56,-21.92,-40.56,-18.65,False,FORWARDS_LEFT,1.000,0,0,STUCK,False,False,True,0,True,STUCK_DETECTED,0.00,0
1764635438.0067647,127.602,59,TEST2_OBSTACLE_BYPASS,True,-797.1,1981.1,2135.4,338.08,1.000,0.0,-595.7,48.6,-162.57,-156.25,-162.57,155.13,86.49,-0.0298,10.0,51.910,-0.6013,5.7674,5.7987,-5.95,-3.1329,-1.5604,3.5000,-116.48,126,250.0,204.0,-3.7342,4.2070,5.6253,-41.59,-21.92,-41.59,-19.67,False,FORWARDS_LEFT,1.000,0,0,STUCK,False,False,True,0,True,STUCK_DETECTED,0.00,0
1764635438.043185,127.638,60,TEST2_OBSTACLE_BYPASS,True,-797.1,1981.1,2135.4,338.08,1.000,0.0,-603.2,46.0,-161.13,-155.85,-161.13,155.23,86.30,0.0746,10.0,51.298,-0.5790,5.7760,5.8050,-5.72,-3.2649,-1.2611,3.5000,-111.12,114,250.0,253.0,-3.8440,4.5149,5.9296,-40.41,-21.92,-40.41,-18.49,False,FORWARDS_LEFT,1.000,0,0,STUCK,False,False,True,0,True,STUCK_DETECTED,0.00,0
1764635438.0879903,127.683,61,TEST2_OBSTACLE_BYPASS,True,-812.4,1923.5,2088.1,337.10,0.998,0.0,-611.5,42.9,-159.65,-156.54,-159.65,153.71,86.03,0.0309,10.0,50.732,-0.5968,5.5845,5.6163,-6.10,-3.0800,-1.6624,3.5000,-118.36,109,250.0,253.0,-3.6768,3.9221,5.3760,-43.15,-22.90,-43.15,-20.25,False,FORWARDS_LEFT,1.000,0,0,STUCK,False,False,True,0,True,STUCK_DETECTED,0.00,0
1764635438.1283355,127.723,62,TEST2_OBSTACLE_BYPASS,True,-850.0,1907.2,2088.1,335.98,0.998,0.0,-619.2,39.9,-158.80,-156.48,-158.80,152.76,85.91,0.0458,10.0,50.198,-0.6848,5.5395,5.5817,-7.05,-3.1966,-1.4255,3.5000,-114.03,97,250.0,253.0,-3.8814,4.1140,5.6560,-43.33,-24.02,-43.33,-19.31,False,FORWARDS_LEFT,1.000,0,0,STUCK,False,False,True,0,True,STUCK_DETECTED,0.00,0
1764635438.1688974,127.764,63,TEST2_OBSTACLE_BYPASS,True,-846.5,1877.4,2059.4,335.73,0.999,0.0,-627.6,36.7,-158.66,-159.68,-158.66,148.80,86.02,0.1140,10.0,49.684,-0.6475,5.4453,5.4837,-6.78,-3.0510,-1.7151,3.5000,-119.34,115,200.0,253.0,-3.6985,3.7302,5.2530,-44.76,-24.27,-44.76,-20.48,False,FORWARDS_LEFT,1.000,0,0,STUCK,False,False,True,0,True,STUCK_DETECTED,0.00,0
1764635438.2056131,127.801,64,TEST2_OBSTACLE_BYPASS,True,-846.5,1877.4,2059.4,335.73,0.999,0.0,-634.9,33.9,-159.34,-167.09,-159.34,141.00,86.19,0.1726,10.0,49.175,-0.6260,5.4545,5.4903,-6.55,-3.1255,-1.5753,3.5000,-116.75,103,200.0,252.0,-3.7515,3.8792,5.3965,-44.04,-24.27,-44.04,-19.77,False,FORWARDS_LEFT,1.000,0,0,STUCK,False,False,True,0,True,STUCK_DETECTED,0.00,0
1764635438.249553,127.844,65,TEST2_OBSTACLE_BYPASS,True,-846.5,1877.4,2059.4,335.73,0.999,0.0,-643.2,31.0,-160.90,-176.37,-160.90,131.20,86.27,0.1790,10.0,48.658,-0.6016,5.4641,5.4971,-6.28,-2.9352,-1.9065,3.5000,-123.00,106,200.0,252.0,-3.5368,3.5576,5.0166,-44.83,-24.27,-44.83,-20.56,False,FORWARDS_LEFT,1.000,0,0,STUCK,False,False,True,0,True,STUCK_DETECTED,0.00,0
1764635438.2858653,127.881,66,TEST2_OBSTACLE_BYPASS,True,-846.5,1877.4,2059.4,335.73,0.999,0.0,-651.0,28.6,-162.72,-179.97,-162.72,126.63,86.02,0.0565,10.0,48.128,-0.5788,5.4721,5.5026,-6.04,-2.9566,-1.8731,3.5000,-122.36,99,200.0,250.0,-3.5354,3.5990,5.0450,-44.49,-24.27,-44.49,-20.22,False,FORWARDS_LEFT,1.000,0,0,STUCK,False,False,True,0,True,STUCK_DETECTED,0.00,0
1764635438.3355312,127.930,67,TEST2_OBSTACLE_BYPASS,True,-846.5,1877.4,2059.4,335.73,0.999,0.0,-659.3,26.3,-164.34,-176.91,-164.34,128.54,85.90,-0.0969,10.0,47.591,-0.5543,5.4798,5.5078,-5.78,-2.9566,-1.8731,3.5000,-122.36,99,200.0,250.0,-3.5109,3.6067,5.0334,-44.23,-24.27,-44.23,-19.96,False,FORWARDS_LEFT,1.000,0,0,STUCK,False,False,True,0,True,STUCK_DETECTED,0.00,0
1764635438.3683412,127.963,68,TEST2_OBSTACLE_BYPASS,True,-883.2,1860.4,2059.4,334.60,0.999,0.0,-667.1,24.3,-165.63,-171.15,-165.63,133.07,85.80,-0.1513,10.0,47.050,-0.6388,5.4289,5.4664,-6.71,-2.6983,-2.2291,3.5000,-129.56,101,200.0,250.0,-3.3372,3.1998,4.6234,-46.20,-25.40,-46.20,-20.81,False,FORWARDS_LEFT,1.000,0,0,STUCK,False,False,True,0,True,STUCK_DETECTED,0.00,0
1764635438.4127967,128.008,69,TEST2_OBSTACLE_BYPASS,True,-883.2,1860.4,2059.4,334.60,0.999,0.0,-675.7,22.2,-166.51,-165.08,-166.51,137.72,85.96,-0.1395,10.0,46.511,-0.6135,5.4356,5.4701,-6.44,-2.0242,-2.8553,3.5000,-144.67,106,200.0,250.0,-2.6377,2.5803,3.6899,-45.63,-25.40,-45.63,-20.23,False,FORWARDS_LEFT,1.000,0,0,STUCK,False,False,True,0,True,STUCK_DETECTED,0.00,0
1764635438.4509904,128.046,70,TEST2_OBSTACLE_BYPASS,True,-883.2,1860.4,2059.4,334.60,0.999,0.0,-684.5,20.3,-167.37,-164.44,-167.37,137.87,86.05,-0.0256,10.0,45.976,-0.5877,5.4420,5.4736,-6.16,-2.2467,-2.6837,3.5000,-140.07,84,200.0,246.0,-2.8344,2.7583,3.9550,-45.78,-25.40,-45.78,-20.38,False,FORWARDS_LEFT,1.000,0,0,STUCK,False,False,True,0,True,STUCK_DETECTED,0.00,0
1764635438.485871,128.081,71,TEST2_OBSTACLE_BYPASS,False,0.0,0.0,0.0,0.00,0.000,0.0,-692.1,18.7,-168.43,-167.08,-168.43,135.15,86.08,0.1300,10.0,45.442,-0.5652,5.4470,5.4762,-5.92,-2.2467,-2.6837,3.5000,-140.07,84,200.0,246.0,-2.8119,2.7633,3.9424,-45.50,0.00,-45.50,0.00,False,NONE,0.000,0,0,STUCK,False,False,True,0,True,STUCK_DETECTED,0.00,0
1764635438.527961,128.123,72,TEST2_OBSTACLE_BYPASS,False,0.0,0.0,0.0,0.00,0.000,0.0,-700.9,17.2,-170.14,-173.63,-170.14,128.52,85.92,0.1001,10.0,44.898,-0.5392,5.4519,5.4785,-5.65,-2.2921,-2.6451,3.5000,-139.09,62,200.0,246.0,-2.8313,2.8068,3.9868,-45.25,0.00,-45.25,0.00,False,NONE,0.000,0,0,STUCK,False,False,True,0,True,STUCK_DETECTED,0.00,0
1764635438.5658755,128.161,73,TEST2_OBSTACLE_BYPASS,False,0.0,0.0,0.0,0.00,0.000,0.0,-708.7,16.0,-171.73,-175.57,-171.73,125.76,85.96,-0.0415,10.0,44.347,-0.5161,5.4555,5.4798,-5.40,-2.2921,-2.6451,3.5000,-139.09,62,200.0,246.0,-2.8081,2.8104,3.9729,-44.98,0.00,-44.98,0.00,False,NONE,0.000,0,0,STUCK,False,False,True,0,True,STUCK_DETECTED,0.00,0
1764635438.6071653,128.202,74,TEST2_OBSTACLE_BYPASS,False,0.0,0.0,0.0,0.00,0.000,0.0,-717.3,14.9,-172.23,-172.11,-172.23,127.98,86.06,-0.0831,10.0,43.804,-0.4906,5.4592,5.4812,-5.14,-1.0459,-3.3401,3.5000,-162.61,45,200.0,246.0,-1.5365,2.1191,2.6175,-35.94,0.00,-35.94,0.00,False,NONE,0.000,0,0,STUCK,False,False,True,0,True,STUCK_DETECTED,0.00,0
1764635438.6449652,128.240,75,TEST2_OBSTACLE_BYPASS,False,0.0,0.0,0.0,0.00,0.000,0.0,-725.4,13.6,-171.46,-168.71,-171.46,130.30,86.03,-0.0469,10.0,43.287,-0.4668,5.4630,5.4829,-4.88,-1.0459,-3.3401,3.5000,-162.61,45,200.0,246.0,-1.5127,2.1229,2.6067,-35.47,0.00,-35.47,0.00,False,NONE,0.000,0,0,STUCK,False,False,True,0,True,STUCK_DETECTED,0.00,0
1764635438.68874,128.284,76,TEST2_OBSTACLE_BYPASS,False,0.0,0.0,0.0,0.00,0.000,0.0,-734.2,12.1,-170.06,-165.92,-170.06,132.02,85.97,0.0138,10.0,42.802,-0.4408,5.4681,5.4858,-4.61,0.6927,-3.4308,3.5000,168.58,37,200.0,246.0,0.2520,2.0373,2.0528,7.05,0.00,7.05,0.00,False,NONE,0.000,0,0,STUCK,False,False,True,0,True,STUCK_DETECTED,0.00,0
1764635438.7255163,128.320,77,TEST2_OBSTACLE_BYPASS,False,0.0,0.0,0.0,0.00,0.000,0.0,-742.1,10.6,-168.86,-164.95,-168.86,132.08,85.83,-0.0128,10.0,42.345,-0.4176,5.4731,5.4891,-4.36,0.6927,-3.4308,3.5000,168.58,37,200.0,246.0,0.2751,2.0424,2.0608,7.67,0.00,7.67,0.00,False,NONE,0.000,0,0,STUCK,False,False,True,0,True,STUCK_DETECTED,0.00,0
1764635438.7720869,128.367,78,TEST2_OBSTACLE_BYPASS,True,-1312.8,2735.8,3034.5,334.37,0.999,0.0,-750.8,8.7,-168.24,-164.93,-168.24,130.74,86.00,-0.0852,10.0,41.909,-0.8699,4.2211,4.3098,-11.65,0.6905,-3.4312,3.5000,168.62,33,200.0,246.0,-0.1795,0.7898,0.8100,-12.80,-25.63,-12.80,12.83,False,FORWARDS,0.243,0,0,STUCK,False,False,True,0,True,STUCK_DETECTED,0.00,0
1764635438.808766,128.404,79,TEST2_OBSTACLE_BYPASS,True,-1366.2,2709.5,3034.5,333.24,0.999,0.0,-753.4,8.2,-168.25,-165.14,-168.25,129.37,86.27,-0.1545,10.0,41.483,-0.9585,4.2249,4.3322,-12.78,0.6905,-3.4312,3.5000,168.62,33,200.0,246.0,-0.2680,0.7936,0.8377,-18.66,-26.76,-18.66,8.10,False,FORWARDS,0.251,0,0,STUCK,False,False,True,0,True,STUCK_DETECTED,0.00,0
1764635438.8534262,128.448,80,TEST2_OBSTACLE_BYPASS,True,-1366.2,2709.5,3034.5,333.24,0.999,0.0,-756.6,7.5,-168.15,-163.50,-168.15,129.62,86.66,-0.1917,10.0,41.070,-0.9535,4.2261,4.3323,-12.71,1.1954,-3.2895,3.5000,160.03,50,200.0,246.0,0.2419,0.9365,0.9673,14.48,-26.76,14.48,41.24,False,FORWARDS,0.290,0,0,STUCK,False,False,True,0,True,STUCK_DETECTED,0.00,0
1764635438.890481,128.485,81,TEST2_OBSTACLE_BYPASS,True,-851.8,2387.8,2535.2,340.37,0.999,0.0,-759.9,6.8,-167.49,-160.49,-167.49,131.53,86.96,-0.2173,10.0,40.675,-0.1942,5.0323,5.0360,-2.21,0.4764,-3.4674,3.5000,172.18,42,200.0,246.0,0.2822,1.5649,1.5901,10.22,-19.63,10.22,29.85,False,FORWARDS,0.477,0,0,STUCK,False,False,True,0,True,STUCK_DETECTED,0.00,0
1764635438.9340117,128.529,82,TEST2_OBSTACLE_BYPASS,True,-851.8,2387.8,2535.2,340.37,0.999,0.0,-765.9,5.3,-165.88,-157.53,-165.88,133.85,87.17,-0.1715,10.0,40.309,-0.1814,5.0301,5.0333,-2.06,0.9257,-3.3754,3.5000,164.66,52,200.0,246.0,0.7443,1.6547,1.8144,24.22,-19.63,24.22,43.85,False,FORWARDS_RIGHT,0.544,0,0,STUCK,False,False,True,0,True,STUCK_DETECTED,0.00,0
1764635438.974163,128.569,83,TEST2_OBSTACLE_BYPASS,True,-851.8,2387.8,2535.2,340.37,0.999,0.0,-770.1,4.1,-163.72,-153.90,-163.72,137.44,87.27,0.1832,10.0,39.979,-0.1723,5.0281,5.0310,-1.96,0.9920,-3.3565,3.5000,163.54,52,200.0,246.0,0.8197,1.6716,1.8618,26.12,-19.63,26.12,45.75,False,FORWARDS_RIGHT,0.559,0,0,STUCK,False,False,True,0,True,STUCK_DETECTED,0.00,0
1764635439.0131254,128.608,84,TEST2_OBSTACLE_BYPASS,True,-851.8,2387.8,2535.2,340.37,0.999,0.0,-774.4,2.7,-162.25,-157.42,-162.25,136.94,86.31,0.6104,10.0,39.675,-0.1630,5.0258,5.0284,-1.86,1.6258,-3.0995,3.5000,152.32,44,200.0,246.0,1.4628,1.9263,2.4187,37.21,-19.63,37.21,56.84,False,FORWARDS_RIGHT,0.726,0,0,STUCK,False,False,True,0,True,STUCK_DETECTED,0.00,0
1764635439.0586128,128.654,85,TEST2_OBSTACLE_BYPASS,True,-851.8,2387.8,2535.2,340.37,0.999,0.0,-780.6,0.6,-161.17,-157.89,-161.17,139.39,85.28,0.2056,10.0,39.391,-0.1497,5.0222,5.0244,-1.71,1.7073,-3.0553,3.5000,150.80,44,200.0,246.0,1.5576,1.9668,2.5089,38.38,-19.63,38.38,58.01,False,FORWARDS_RIGHT,0.753,0,0,STUCK,False,False,True,0,True,STUCK_DETECTED,0.00,0
1764635439.0893524,128.684,86,TEST2_OBSTACLE_BYPASS,True,-851.8,2387.8,2535.2,340.37,0.999,0.0,-786.1,-1.4,-160.58,-160.07,-160.58,139.94,84.35,0.2237,10.0,39.120,-0.1379,5.0187,5.0206,-1.57,1.8633,-2.9628,3.5000,147.83,45,200.0,245.0,1.7254,2.0560,2.6840,40.00,-19.63,40.00,59.64,False,FORWARDS_RIGHT,0.805,0,0,STUCK,False,False,True,0,True,STUCK_DETECTED,0.00,0
1764635439.1339302,128.729,87,TEST2_OBSTACLE_BYPASS,True,-851.8,2387.8,2535.2,340.37,0.999,0.0,-793.2,-4.0,-159.76,-156.78,-159.76,145.53,83.51,0.1513,10.0,38.865,-0.1228,5.0140,5.0155,-1.40,1.8085,-2.9965,3.5000,148.89,38,200.0,245.0,1.6857,2.0175,2.6291,39.88,-19.63,39.88,59.51,False,FORWARDS_RIGHT,0.789,0,0,STUCK,False,False,True,0,True,STUCK_DETECTED,0.00,0
1764635439.173528,128.768,88,TEST2_OBSTACLE_BYPASS,True,-851.8,2387.8,2535.2,340.37,0.999,0.0,-799.1,-6.3,-158.91,-156.33,-158.91,148.76,82.51,0.1342,10.0,38.626,-0.1103,5.0099,5.0111,-1.26,1.8974,-2.9411,3.5000,147.17,41,200.0,245.0,1.7872,2.0688,2.7338,40.82,-19.63,40.82,60.45,False,FORWARDS_RIGHT,0.820,0,0,STUCK,False,False,True,0,True,STUCK_DETECTED,0.00,0
1764635439.2124343,128.807,89,TEST2_OBSTACLE_BYPASS,False,0.0,0.0,0.0,0.00,0.000,0.0,-805.9,-9.0,-158.29,-159.02,-158.29,150.92,80.88,0.2045,10.0,38.400,-0.0958,5.0048,5.0057,-1.10,1.8935,-2.9436,3.5000,147.25,40,200.0,245.0,1.7977,2.0612,2.7351,41.09,0.00,41.09,0.00,False,NONE,0.000,0,0,STUCK,False,False,True,0,True,STUCK_DETECTED,0.00,0
1764635439.250931,128.846,90,TEST2_OBSTACLE_BYPASS,False,0.0,0.0,0.0,0.00,0.000,0.0,-811.9,-11.4,-158.15,-162.05,-158.15,150.92,80.84,0.2365,10.0,38.180,-0.0831,5.0002,5.0009,-0.95,1.9185,-2.9273,3.5000,146.76,40,200.0,245.0,1.8355,2.0729,2.7687,41.52,0.00,41.52,0.00,False,NONE,0.000,0,0,STUCK,False,False,True,0,True,STUCK_DETECTED,0.00,0
1764635439.2944157,128.889,91,TEST2_OBSTACLE_BYPASS,False,0.0,0.0,0.0,0.00,0.000,0.0,-819.0,-14.1,-158.70,-166.00,-158.70,152.04,80.94,0.0735,10.0,37.958,-0.0682,4.9949,4.9954,-0.78,1.9496,-2.9067,3.5000,146.15,37,200.0,278.0,1.8814,2.0882,2.8107,42.02,0.00,42.02,0.00,False,NONE,0.000,0,0,STUCK,False,False,True,0,True,STUCK_DETECTED,0.00,0
1764635439.3390603,128.934,92,TEST2_OBSTACLE_BYPASS,True,-403.1,1887.3,1929.9,347.94,0.996,0.0,-825.5,-16.6,-159.63,-166.84,-159.63,154.06,81.36,-0.0778,10.0,37.732,1.2615,5.6860,5.8242,12.51,2.0522,-2.8352,3.5000,144.10,42,200.0,253.0,3.3137,2.8507,4.3712,49.30,-12.06,49.30,61.35,False,FORWARDS_RIGHT,1.000,0,0,STUCK,False,False,True,0,True,STUCK_DETECTED,0.00,0
1764635439.3755648,128.971,93,TEST2_OBSTACLE_BYPASS,True,-403.1,1887.3,1929.9,347.94,0.996,0.0,-832.9,-19.1,-161.00,-167.61,-161.00,155.44,81.68,0.0138,10.0,37.495,1.2842,5.6958,5.8387,12.71,1.9379,-2.9145,3.5000,146.38,36,200.0,253.0,3.2221,2.7812,4.2564,49.20,-12.06,49.20,61.26,False,FORWARDS_RIGHT,1.000,0,0,STUCK,False,False,True,0,True,STUCK_DETECTED,0.00,0
1764635439.4175127,129.012,94,TEST2_OBSTACLE_BYPASS,True,-254.5,1384.3,1407.5,349.58,0.996,0.0,-841.1,-21.8,-161.93,-166.70,-161.93,157.87,81.75,-0.0969,10.0,37.254,1.6626,3.9855,4.3184,22.64,1.9379,-2.9145,3.5000,146.38,36,200.0,253.0,3.6005,1.0710,3.7564,73.43,-10.42,73.43,83.85,False,RIGHT,0.700,0,0,STUCK,False,False,True,0,True,STUCK_DETECTED,0.00,0
1764635439.456822,129.052,95,TEST2_OBSTACLE_BYPASS,True,-227.3,1389.0,1407.5,350.71,0.996,0.0,-841.1,-21.8,-162.66,-165.18,-162.66,159.66,81.66,-0.0554,10.0,37.010,1.7439,4.0085,4.3714,23.51,2.0535,-2.8343,3.5000,144.08,42,200.0,253.0,3.7975,1.1742,3.9749,72.82,-9.29,72.82,82.11,False,RIGHT,0.700,0,0,STUCK,False,False,True,0,True,STUCK_DETECTED,0.00,0
1764635439.496685,129.092,96,TEST2_OBSTACLE_BYPASS,True,-273.7,1282.9,1311.7,347.96,0.973,0.0,-841.1,-21.8,-163.08,-164.25,-163.08,160.83,81.55,0.0053,10.0,36.766,1.5804,3.6337,3.9625,23.51,1.9573,-2.9016,3.5000,146.00,45,200.0,113.0,3.5377,0.7321,3.6127,78.31,-12.04,78.31,90.35,True,RIGHT,0.700,0,0,STUCK,False,False,True,0,True,FORCE_AWAY_FROM_PERSON|STUCK_DETECTED,0.00,0
1764635439.5365717,129.132,97,TEST2_OBSTACLE_BYPASS,True,-273.7,1282.9,1311.7,347.96,0.973,0.0,-841.1,-21.8,-163.83,-164.33,-163.83,161.12,81.56,0.0085,10.0,36.520,1.5804,3.6337,3.9625,23.51,2.0512,-2.8359,3.5000,144.12,38,200.0,113.0,3.6317,0.7978,3.7183,77.61,-12.04,77.61,89.65,False,RIGHT,0.700,0,0,STUCK,False,False,True,0,True,STUCK_DETECTED,0.00,0
1764635439.5798466,129.175,98,TEST2_OBSTACLE_BYPASS,True,-273.7,1282.9,1311.7,347.96,0.973,0.0,-841.1,-21.8,-164.67,-164.70,-164.67,161.54,81.55,0.0352,10.0,36.270,1.5804,3.6337,3.9625,23.51,1.9198,-2.9265,3.5000,146.73,45,200.0,113.0,3.5002,0.7072,3.5710,78.58,-12.04,78.58,90.62,True,RIGHT,0.700,0,0,STUCK,False,False,True,0,True,FORCE_AWAY_FROM_PERSON|STUCK_DETECTED,0.00,0
1764635439.6215098,129.216,99,TEST2_OBSTACLE_BYPASS,True,-273.7,1282.9,1311.7,347.96,0.973,0.0,-841.1,-21.8,-165.32,-165.59,-165.32,161.70,81.71,0.0256,10.0,36.019,1.5804,3.6337,3.9625,23.51,1.9721,-2.8915,3.5000,145.70,38,200.0,114.0,3.5525,0.7422,3.6292,78.20,-12.04,78.20,90.24,True,RIGHT,0.700,0,0,STUCK,False,False,True,0,True,FORCE_AWAY_FROM_PERSON|STUCK_DETECTED,0.00,0
1764635439.6596498,129.255,100,TEST2_OBSTACLE_BYPASS,True,-273.7,1282.9,1311.7,347.96,0.973,0.0,-841.1,-21.8,-165.74,-166.17,-165.74,162.01,81.79,0.0213,10.0,35.769,1.5804,3.6337,3.9625,23.51,2.0574,-2.8314,3.5000,144.00,41,200.0,114.0,3.6379,0.8023,3.7253,77.56,-12.04,77.56,89.60,False,RIGHT,0.700,0,0,STUCK,False,False,True,0,True,STUCK_DETECTED,0.00,0
1764635439.7083232,129.303,101,TEST2_OBSTACLE_BYPASS,True,-273.7,1282.9,1311.7,347.96,0.973,0.0,-841.1,-21.8,-165.80,-166.61,-165.80,163.02,81.96,-0.0213,10.0,35.523,1.5804,3.6337,3.9625,23.51,1.9798,-2.8862,3.5000,145.55,42,200.0,115.0,3.5603,0.7475,3.6379,78.14,-12.04,78.14,90.18,True,RIGHT,0.700,0,0,STUCK,False,False,True,0,True,FORCE_AWAY_FROM_PERSON|STUCK_DETECTED,0.00,0
1764635439.7385666,129.334,102,TEST2_OBSTACLE_BYPASS,True,-273.7,1282.9,1311.7,347.96,0.973,0.0,-841.1,-21.8,-165.73,-166.17,-165.73,164.34,81.94,-0.0394,10.0,35.635,1.5804,3.6337,3.9625,23.51,1.9941,-2.8764,3.5000,145.27,37,200.0,115.0,3.5745,0.7574,3.6539,78.04,-12.04,78.04,90.08,True,RIGHT,0.700,0,0,STUCK,False,False,True,0,True,FORCE_AWAY_FROM_PERSON|STUCK_DETECTED,0.00,0
1764635439.7826114,129.378,103,TEST2_OBSTACLE_BYPASS,True,-273.7,1282.9,1311.7,347.96,0.973,0.0,-841.1,-21.8,-165.47,-165.03,-165.47,166.97,81.81,-0.0075,10.0,35.750,1.5804,3.6337,3.9625,23.51,1.7762,-3.0158,3.5000,149.50,43,200.0,116.0,3.3566,0.6179,3.4130,79.57,-12.04,79.57,91.61,True,RIGHT,0.700,0,0,STUCK,False,False,True,0,True,FORCE_AWAY_FROM_PERSON|STUCK_DETECTED,0.00,0
1764635439.8176858,129.413,104,TEST2_OBSTACLE_BYPASS,False,0.0,0.0,0.0,0.00,0.000,0.0,-841.1,-21.8,-165.42,-166.20,-165.42,167.33,82.00,0.0959,10.0,35.866,1.5804,3.6337,3.9625,23.51,1.8776,-2.9538,3.5000,147.56,36,200.0,116.0,3.4580,0.6800,3.5242,78.88,0.00,78.88,0.00,False,NONE,0.000,0,0,STUCK,False,False,True,0,True,STUCK_DETECTED,0.00,0
1764635439.8595443,129.454,105,TEST2_OBSTACLE_BYPASS,False,0.0,0.0,0.0,0.00,0.000,0.0,-841.1,-21.8,-165.85,-169.41,-165.85,166.87,82.62,0.0607,10.0,35.977,1.5804,3.6337,3.9625,23.51,1.9665,-2.8953,3.5000,145.81,43,200.0,116.0,3.5470,0.7384,3.6230,78.24,0.00,78.24,0.00,False,NONE,0.000,0,0,STUCK,False,False,True,0,True,STUCK_DETECTED,0.00,0
1764635439.8980908,129.493,106,TEST2_OBSTACLE_BYPASS,False,0.0,0.0,0.0,0.00,0.000,0.0,-841.1,-21.8,-166.51,-170.86,-166.51,167.44,83.03,0.0064,10.0,36.081,1.5804,3.6337,3.9625,23.51,1.4660,-3.1782,3.5000,155.24,44,200.0,116.0,3.0464,0.4555,3.0803,81.50,0.00,81.50,0.00,False,NONE,0.000,0,0,STUCK,False,False,True,0,True,STUCK_DETECTED,0.00,0
1764635439.9410164,129.536,107,TEST2_OBSTACLE_BYPASS,False,0.0,0.0,0.0,0.00,0.000,0.0,-841.1,-21.8,-167.18,-171.09,-167.18,169.01,83.22,-0.0117,10.0,36.179,1.5804,3.6337,3.9625,23.51,1.8635,-2.9627,3.5000,147.83,43,200.0,116.0,3.4439,0.6711,3.5087,78.97,0.00,78.97,0.00,False,NONE,0.000,0,0,STUCK,False,False,True,0,True,STUCK_DETECTED,0.00,0
1764635439.9794617,129.574,108,TEST2_OBSTACLE_BYPASS,False,0.0,0.0,0.0,0.00,0.000,0.0,-841.1,-21.8,-167.79,-170.78,-167.79,169.46,83.14,-0.0149,10.0,36.271,1.5804,3.6337,3.9625,23.51,1.0865,-3.3271,3.5000,161.92,42,200.0,116.0,2.6669,0.3066,2.6845,83.44,0.00,83.44,0.00,False,NONE,0.000,0,0,STUCK,False,False,True,0,True,STUCK_DETECTED,0.00,0
1764635440.018322,129.613,109,TEST2_OBSTACLE_BYPASS,False,0.0,0.0,0.0,0.00,0.000,0.0,-841.1,-21.8,-168.25,-170.19,-168.25,170.27,83.07,-0.0352,10.0,36.358,1.5804,3.6337,3.9625,23.51,1.0865,-3.3271,3.5000,161.92,42,200.0,116.0,2.6669,0.3066,2.6845,83.44,0.00,83.44,0.00,False,NONE,0.000,0,0,STUCK,False,False,True,0,True,STUCK_DETECTED,0.00,0
1764635440.0669932,129.662,110,TEST2_OBSTACLE_BYPASS,True,-741.2,4360.5,4423.0,350.35,0.998,0.0,-841.1,-21.8,-168.58,-169.47,-168.58,171.37,83.11,-0.0298,10.0,36.442,0.0624,2.7369,2.7376,1.31,0.9354,-3.3727,3.5000,164.50,52,200.0,116.0,0.9978,-0.6358,1.1831,122.51,-9.65,122.51,132.15,True,BACKWARDS_RIGHT,0.177,0,0,STUCK,False,False,True,0,True,FORCE_AWAY_FROM_PERSON|STUCK_DETECTED,0.00,0
1764635440.103882,129.699,111,TEST2_OBSTACLE_BYPASS,True,-741.2,4360.5,4423.0,350.35,0.998,0.0,-839.8,-21.5,-168.88,-169.62,-168.88,171.66,83.30,-0.0032,10.0,36.522,0.0616,2.7371,2.7378,1.29,1.7156,-3.0507,3.5000,150.65,47,200.0,116.0,1.7772,-0.3136,1.8047,100.01,-9.65,100.01,109.65,True,RIGHT,0.379,0,0,STUCK,False,False,True,0,True,FORCE_AWAY_FROM_PERSON|STUCK_DETECTED,0.00,0
1764635440.143071,129.738,112,TEST2_OBSTACLE_BYPASS,True,-741.2,4360.5,4423.0,350.35,0.998,0.0,-839.8,-21.5,-169.26,-169.92,-169.26,171.74,83.47,-0.0064,10.0,36.595,0.0616,2.7371,2.7378,1.29,1.2431,-3.2718,3.5000,159.20,47,200.0,116.0,1.3047,-0.5347,1.4100,112.28,-9.65,112.28,121.93,True,RIGHT,0.296,0,0,STUCK,False,False,True,0,True,FORCE_AWAY_FROM_PERSON|STUCK_DETECTED,0.00,0
1764635440.1802688,129.775,113,TEST2_OBSTACLE_BYPASS,True,-741.2,4360.5,4423.0,350.35,0.998,0.0,-839.8,-21.5,-169.76,-170.08,-169.76,171.85,83.58,-0.0298,10.0,36.656,0.0616,2.7371,2.7378,1.29,1.3945,-3.2102,3.5000,156.52,55,200.0,116.0,1.4561,-0.4731,1.5310,108.00,-9.65,108.00,117.65,True,RIGHT,0.322,0,0,STUCK,False,False,True,0,True,FORCE_AWAY_FROM_PERSON|STUCK_DETECTED,0.00,0
1764635440.2241874,129.819,114,TEST2_OBSTACLE_BYPASS,True,-741.2,4360.5,4423.0,350.35,0.998,0.0,-839.8,-21.5,-170.17,-170.25,-170.17,171.86,83.70,-0.0021,10.0,36.709,0.0616,2.7371,2.7378,1.29,0.6759,-3.4341,3.5000,168.87,47,200.0,116.0,0.7375,-0.6970,1.0148,133.38,-9.65,133.38,143.03,True,BACKWARDS_RIGHT,0.152,0,0,STUCK,False,False,True,0,True,FORCE_AWAY_FROM_PERSON|STUCK_DETECTED,0.00,0
1764635440.2629375,129.858,115,TEST2_OBSTACLE_BYPASS,True,-741.2,4360.5,4423.0,350.35,0.998,0.0,-838.6,-21.3,-170.30,-170.70,-170.30,171.52,83.82,0.0170,10.0,36.756,0.0608,2.7373,2.7379,1.27,0.6759,-3.4341,3.5000,168.87,47,200.0,116.0,0.7368,-0.6969,1.0141,133.41,-9.65,133.41,143.05,True,BACKWARDS_RIGHT,0.152,0,0,STUCK,False,False,True,0,True,FORCE_AWAY_FROM_PERSON|STUCK_DETECTED,0.00,0
1764635440.3049715,129.900,116,TEST2_OBSTACLE_BYPASS,True,-741.2,4360.5,4423.0,350.35,0.998,0.0,-837.2,-21.1,-170.32,-171.11,-170.32,171.20,83.95,0.0021,10.0,36.801,0.0600,2.7374,2.7381,1.26,-1.4354,-3.1921,3.5000,-155.79,73,200.0,116.0,-1.3753,-0.4547,1.4486,-108.29,-9.65,-108.29,-98.65,True,LEFT,0.304,0,0,STUCK,False,False,True,0,True,FORCE_AWAY_FROM_PERSON|STUCK_DETECTED,0.00,0
1764635440.342816,129.938,117,TEST2_OBSTACLE_BYPASS,True,-741.2,4360.5,4423.0,350.35,0.998,0.0,-837.2,-21.1,-170.34,-171.24,-170.34,171.14,84.04,-0.0138,10.0,36.849,0.0600,2.7374,2.7381,1.26,-0.3949,-3.4776,3.5000,-173.52,67,200.0,116.0,-0.3349,-0.7402,0.8125,-155.65,-9.65,-155.65,-146.01,True,BACKWARDS_LEFT,0.122,0,0,STUCK,False,False,True,0,True,FORCE_AWAY_FROM_PERSON|STUCK_DETECTED,0.00,0
1764635440.381697,129.977,118,TEST2_OBSTACLE_BYPASS,False,0.0,0.0,0.0,0.00,0.000,0.0,-836.2,-20.9,-170.41,-171.48,-170.41,171.00,84.13,-0.0032,10.0,36.539,0.0594,2.7376,2.7382,1.24,-2.8133,-2.0821,3.5000,-126.50,73,200.0,116.0,-2.7540,0.6555,2.8309,-76.61,0.00,-76.61,0.00,False,NONE,0.000,0,0,STUCK,False,False,True,0,True,STUCK_DETECTED,0.00,0
1764635440.4221091,130.017,119,TEST2_OBSTACLE_BYPASS,False,0.0,0.0,0.0,0.00,0.000,0.0,-835.2,-20.7,-170.55,-171.69,-170.55,170.89,84.30,-0.0032,10.0,36.230,0.0587,2.7377,2.7383,1.23,-2.3525,-2.5915,3.5000,-137.77,71,200.0,116.0,-2.2937,0.1462,2.2984,-86.35,0.00,-86.35,0.00,False,NONE,0.000,0,0,STUCK,False,False,True,0,True,STUCK_DETECTED,0.00,0
1764635440.4595063,130.054,120,TEST2_OBSTACLE_BYPASS,False,0.0,0.0,0.0,0.00,0.000,0.0,-834.2,-20.6,-170.81,-172.03,-170.81,170.71,84.41,0.0107,10.0,35.918,0.0581,2.7378,2.7385,1.22,-3.1794,-1.4634,3.5000,-114.72,73,200.0,116.0,-3.1212,1.2744,3.3714,-67.79,0.00,-67.79,0.00,False,NONE,0.000,0,0,STUCK,False,False,True,0,True,STUCK_DETECTED,0.00,0
1764635440.501945,130.097,121,TEST2_OBSTACLE_BYPASS,False,0.0,0.0,0.0,0.00,0.000,0.0,-833.1,-20.4,-171.08,-172.29,-171.08,170.64,84.47,0.0160,10.0,35.600,0.0575,2.7380,2.7386,1.20,-1.7910,-3.0070,3.5000,-149.22,58,200.0,116.0,-1.7336,-0.2691,1.7543,-98.82,0.00,-98.82,0.00,False,NONE,0.000,0,0,STUCK,False,False,True,0,True,STUCK_DETECTED,0.00,0
1764635440.540476,130.135,122,TEST2_OBSTACLE_BYPASS,False,0.0,0.0,0.0,0.00,0.000,0.0,-832.2,-20.3,-171.33,-172.42,-171.33,170.56,84.49,-0.0011,10.0,35.285,0.0569,2.7381,2.7387,1.19,-3.4858,-0.3150,3.5000,-95.16,62,200.0,116.0,-3.4289,2.4231,4.1987,-54.75,0.00,-54.75,0.00,False,NONE,0.000,0,0,STUCK,False,False,True,0,True,STUCK_DETECTED,0.00,0
1764635440.5813386,130.176,123,TEST2_OBSTACLE_BYPASS,False,0.0,0.0,0.0,0.00,0.000,0.0,-831.1,-20.1,-171.59,-172.72,-171.59,170.15,84.43,0.0309,10.0,34.617,0.0562,2.7382,2.7388,1.18,-2.9331,-1.9097,3.5000,-123.07,57,200.0,116.0,-2.8769,0.8285,2.9938,-73.93,0.00,-73.93,0.00,False,NONE,0.000,0,0,STUCK,False,False,True,0,True,STUCK_DETECTED,0.00,0
1764635440.619321,130.214,124,TEST2_OBSTACLE_BYPASS,False,0.0,0.0,0.0,0.00,0.000,0.0,-830.2,-20.0,-171.84,-172.75,-171.84,169.93,84.38,-0.0362,10.0,33.596,0.0556,2.7383,2.7389,1.16,-3.2929,1.1860,3.5000,-70.19,62,200.0,116.0,-3.2373,3.9243,5.0873,-39.52,0.00,-39.52,0.00,False,NONE,0.000,0,0,STUCK,False,False,True,0,True,STUCK_DETECTED,0.00,0
1764635440.665723,130.261,125,TEST2_OBSTACLE_BYPASS,False,0.0,0.0,0.0,0.00,0.000,0.0,-829.1,-19.8,-172.03,-172.57,-172.03,169.97,84.35,0.0107,10.0,32.223,0.0550,2.7384,2.7390,1.15,-3.4679,0.4733,3.5000,-82.23,61,200.0,116.0,-3.4129,3.2117,4.6865,-46.74,0.00,-46.74,0.00,False,FORWARDS_LEFT,1.000,0,0,STUCK,False,False,True,0,True,STUCK_DETECTED,0.00,0
1764635440.7025867,130.298,126,TEST2_OBSTACLE_BYPASS,True,-2057.3,3693.8,4228.1,330.88,0.849,0.0,-837.1,-20.9,-172.22,-173.07,-172.22,169.51,84.40,0.0021,10.0,30.497,-0.9578,2.9158,3.0691,-18.18,-2.7893,2.1142,3.5000,-52.84,64,200.0,116.0,-3.7471,5.0300,6.2723,-36.68,-29.12,-36.68,-7.57,False,FORWARDS_LEFT,1.000,0,0,STUCK,False,False,True,0,True,STUCK_DETECTED,0.00,0
1764635440.745947,130.341,127,TEST2_OBSTACLE_BYPASS,True,-2057.3,3693.8,4228.1,330.88,0.849,0.0,-845.4,-22.0,-172.43,-173.30,-172.43,169.31,84.44,0.0202,10.0,28.414,-0.9520,2.9189,3.0703,-18.06,-2.9793,1.8367,3.5000,-58.35,54,200.0,116.0,-3.9314,4.7556,6.1702,-39.58,-29.12,-39.58,-10.46,False,FORWARDS_LEFT,1.000,0,0,STUCK,False,False,True,0,True,STUCK_DETECTED,0.00,0
1764635440.7877133,130.383,128,TEST2_OBSTACLE_BYPASS,True,-2129.4,3652.7,4228.1,329.76,0.849,0.0,-854.3,-23.2,-172.60,-173.22,-172.60,169.27,84.41,0.0064,10.0,26.331,-1.0108,2.9139,3.0842,-19.13,-1.6810,3.0699,3.5000,-28.70,56,200.0,116.0,-2.6918,5.9838,6.5614,-24.22,-30.24,-24.22,6.02,False,FORWARDS_LEFT,1.000,0,0,STUCK,False,False,True,0,True,STUCK_DETECTED,0.00,0
1764635440.824207,130.419,129,TEST2_OBSTACLE_BYPASS,True,-2129.4,3652.7,4228.1,329.76,0.849,0.0,-862.2,-24.2,-172.75,-173.10,-172.75,169.21,84.31,-0.0043,10.0,23.890,-1.0054,2.9171,3.0855,-19.02,-1.5504,3.1379,3.5000,-26.29,55,200.0,116.0,-2.5558,6.0550,6.5723,-22.88,-30.24,-22.88,7.36,False,FORWARDS_LEFT,1.000,0,0,STUCK,False,False,True,0,True,STUCK_DETECTED,0.00,0
1764635440.86716,130.462,130,TEST2_OBSTACLE_BYPASS,True,-1228.5,2213.9,2531.9,330.97,0.996,0.0,-871.1,-25.3,-172.87,-173.29,-172.87,168.99,84.34,0.0288,10.0,21.451,-0.8341,5.2259,5.2921,-9.07,-0.6063,3.4471,3.5000,-9.98,60,200.0,116.0,-1.3107,7.8919,8.0000,-9.43,-29.03,-9.43,19.60,False,FORWARDS,1.000,0,0,STUCK,False,False,True,0,True,STUCK_DETECTED,0.00,0
1764635440.904331,130.499,131,TEST2_OBSTACLE_BYPASS,True,-1228.5,2213.9,2531.9,330.97,0.996,0.0,-882.2,-26.7,-173.02,-173.79,-173.02,168.53,84.41,0.0138,10.0,19.015,-0.8083,5.2309,5.2930,-8.78,0.2802,3.4888,3.5000,4.59,57,200.0,116.0,-0.4836,7.9854,8.0000,-3.47,-29.03,-3.47,25.56,False,FORWARDS,1.000,0,0,STUCK,False,False,True,0,True,STUCK_DETECTED,0.00,0
1764635440.9481099,130.543,132,TEST2_OBSTACLE_BYPASS,True,-1228.5,2213.9,2531.9,330.97,0.996,0.0,-894.7,-28.2,-173.17,-173.92,-173.17,168.34,84.39,0.0000,10.0,16.576,-0.7794,5.2362,5.2939,-8.47,-0.1499,3.4968,3.5000,-2.45,71,200.0,116.0,-0.8465,7.9551,8.0000,-6.07,-29.03,-6.07,22.95,False,FORWARDS,1.000,0,0,STUCK,False,False,True,0,True,STUCK_DETECTED,0.00,0
1764635440.9847841,130.580,133,TEST2_OBSTACLE_BYPASS,True,-1228.5,2213.9,2531.9,330.97,0.996,0.0,-906.4,-29.5,-173.28,-173.82,-173.28,168.36,84.42,0.0032,10.0,14.490,-0.7524,5.2409,5.2947,-8.17,-0.1536,3.4966,3.5000,-2.52,77,200.0,116.0,-0.8251,7.9573,8.0000,-5.92,-29.03,-5.92,23.11,False,FORWARDS,1.000,0,0,STUCK,False,False,True,0,True,STUCK_DETECTED,0.00,0
1764635441.0327482,130.628,134,TEST2_OBSTACLE_BYPASS,True,-1271.7,2189.3,2531.9,329.85,0.996,0.0,-920.8,-31.2,-173.37,-173.63,-173.37,168.48,84.35,-0.0128,10.0,12.758,-0.8332,5.2724,5.3378,-8.98,0.8565,3.3936,3.5000,14.17,78,200.0,116.0,0.0216,8.0000,8.0000,0.15,-30.15,0.15,30.31,False,FORWARDS,1.000,0,0,STUCK,False,False,True,0,True,STUCK_DETECTED,0.00,0
1764635441.0861485,130.681,135,TEST2_OBSTACLE_BYPASS,True,-1271.7,2189.3,2531.9,329.85,0.996,0.0,-934.0,-32.7,-173.49,-173.73,-173.49,168.42,84.34,0.0085,10.0,11.380,-0.8023,5.2784,5.3391,-8.64,1.8095,2.9960,3.5000,31.13,69,200.0,116.0,0.9666,7.9414,8.0000,6.94,-30.15,6.94,37.09,False,FORWARDS,1.000,0,0,NAVIGATING,True,False,False,0,False,,0.00,0
1764635441.114231,130.709,136,TEST2_OBSTACLE_BYPASS,True,-1271.7,2189.3,2531.9,329.85,0.996,0.0,-944.1,-33.9,-173.59,-174.09,-173.59,168.22,84.32,0.0085,10.0,10.348,-0.7784,5.2829,5.3400,-8.38,3.3073,1.1453,3.5000,70.90,65,200.0,116.0,2.5289,6.4282,6.9078,21.47,-30.15,21.47,51.63,False,FORWARDS,1.000,0,0,NAVIGATING,False,False,False,0,False,,0.00,0
1764635441.156959,130.752,137,TEST2_OBSTACLE_BYPASS,True,-1271.7,2189.3,2531.9,329.85,0.996,0.0,-957.4,-35.3,-173.62,-173.62,-173.62,168.75,84.24,-0.0245,10.0,9.662,-0.7471,5.2885,5.3410,-8.04,1.9978,2.8738,3.5000,34.81,79,200.0,116.0,1.2116,7.9077,8.0000,8.71,-30.15,8.71,38.86,False,FORWARDS,1.000,0,0,NAVIGATING,False,False,False,0,False,,0.00,0
1764635441.1939347,130.789,138,TEST2_OBSTACLE_BYPASS,False,0.0,0.0,0.0,0.00,0.000,0.0,-969.4,-36.7,-173.65,-173.50,-173.65,169.01,84.32,-0.0288,10.0,9.318,-0.7189,5.2931,5.3417,-7.73,2.6906,2.2385,3.5000,50.24,73,200.0,116.0,1.9717,7.5316,7.7854,14.67,0.00,14.67,0.00,False,NONE,0.000,0,0,SEARCHING,True,False,False,0,False,,0.00,0
1764635441.238254,130.833,139,TEST2_OBSTACLE_BYPASS,False,0.0,0.0,0.0,0.00,0.000,0.0,-982.2,-38.1,-173.56,-172.25,-173.56,170.21,84.16,-0.0895,10.0,9.324,-0.6887,5.2978,5.3423,-7.41,2.4306,2.5184,3.5000,43.98,78,200.0,116.0,1.7402,7.8084,8.0000,12.56,0.00,12.56,0.00,False,NONE,0.000,0,0,SEARCHING,False,False,False,0,False,,0.00,0
1764635441.298159,130.893,140,TEST2_OBSTACLE_BYPASS,False,0.0,0.0,0.0,0.00,0.000,0.0,-1000.2,-40.3,-173.23,-169.91,-173.23,172.76,83.83,-0.0469,10.0,9.326,-0.6458,5.3035,5.3426,-6.94,3.0984,1.6279,3.5000,62.28,74,200.0,116.0,2.4526,6.9313,7.3525,19.49,0.00,19.49,0.00,False,NONE,0.000,0,0,SEARCHING,False,False,False,0,False,,0.00,0
1764635441.3339047,130.929,141,TEST2_OBSTACLE_BYPASS,False,0.0,0.0,0.0,0.00,0.000,0.0,-1011.0,-41.6,-172.76,-169.09,-172.76,173.90,83.69,-0.0298,10.0,9.333,-0.6202,5.3063,5.3424,-6.67,3.4595,-0.5310,3.5000,98.73,76,200.0,116.0,2.8393,4.7754,5.5557,30.73,0.00,30.73,0.00,False,NONE,0.000,0,0,SEARCHING,False,False,False,0,False,,0.00,0
1764635441.374173,130.969,142,TEST2_OBSTACLE_BYPASS,False,0.0,0.0,0.0,0.00,0.000,0.0,-1023.2,-43.3,-172.22,-168.54,-172.22,175.12,83.47,-0.0160,10.0,9.344,-0.5910,5.3090,5.3418,-6.35,3.4986,0.1002,3.5000,88.36,62,200.0,116.0,2.9076,5.4092,6.1411,28.26,0.00,28.26,0.00,False,NONE,0.000,0,0,SEARCHING,False,False,False,0,False,,0.00,0
1764635441.4141307,131.009,143,TEST2_OBSTACLE_BYPASS,False,0.0,0.0,0.0,0.00,0.000,0.0,-1034.9,-45.0,-171.68,-168.41,-171.68,176.07,83.37,0.0405,10.0,9.359,-0.5630,5.3110,5.3408,-6.05,3.4991,-0.0776,3.5000,91.27,62,200.0,116.0,2.9361,5.2334,6.0008,29.29,0.00,29.29,0.00,False,NONE,0.000,0,0,SEARCHING,False,False,False,0,False,,0.00,0
1764635441.4587831,131.054,144,TEST2_OBSTACLE_BYPASS,False,0.0,0.0,0.0,0.00,0.000,0.0,-1047.6,-47.0,-171.22,-169.07,-171.22,176.43,83.21,0.0160,10.0,9.371,-0.5323,5.3126,5.3392,-5.72,3.4560,-0.5534,3.5000,99.10,65,200.0,116.0,2.9236,4.7592,5.5855,31.56,0.00,31.56,0.00,False,FORWARDS_RIGHT,1.000,0,0,SEARCHING,False,False,False,0,False,,0.00,0
1764635441.4966118,131.092,145,TEST2_OBSTACLE_BYPASS,False,0.0,0.0,0.0,0.00,0.000,0.0,-1055.5,-48.2,-170.79,-169.44,-170.79,176.89,83.09,0.0330,10.0,9.379,-0.5135,5.3133,5.3380,-5.52,3.3356,-1.0600,3.5000,107.63,63,200.0,116.0,2.8221,4.2533,5.1044,33.56,0.00,33.56,0.00,False,FORWARDS_RIGHT,1.000,0,0,SEARCHING,False,False,False,0,False,,0.00,0
1764635441.5362496,131.131,146,TEST2_OBSTACLE_BYPASS,False,0.0,0.0,0.0,0.00,0.000,0.0,-1064.0,-49.7,-170.34,-169.57,-170.34,177.98,82.99,0.0820,10.0,9.387,-0.4930,5.3137,5.3365,-5.30,3.0029,-1.7979,3.5000,120.91,45,200.0,116.0,2.5099,3.5158,4.3197,35.52,0.00,35.52,0.00,False,FORWARDS_RIGHT,1.000,0,0,SEARCHING,False,False,False,0,False,,0.00,0
1764635441.5795364,131.174,147,TEST2_OBSTACLE_BYPASS,False,0.0,0.0,0.0,0.00,0.000,0.0,-1072.1,-51.1,-170.11,-171.36,-170.11,176.69,83.10,0.1811,10.0,9.396,-0.4733,5.3139,5.3349,-5.09,2.7827,-2.1229,3.5000,127.34,44,200.0,116.0,2.3093,3.1909,3.9389,35.89,0.00,35.89,0.00,False,FORWARDS_RIGHT,1.000,0,0,SEARCHING,False,False,False,0,False,,0.00,0
1764635441.620457,131.215,148,TEST2_OBSTACLE_BYPASS,False,0.0,0.0,0.0,0.00,0.000,0.0,-1081.1,-52.6,-170.34,-175.71,-170.34,172.88,83.37,0.1225,10.0,9.404,-0.4518,5.3140,5.3331,-4.86,2.7556,-2.1579,3.5000,128.06,38,200.0,116.0,2.3038,3.1561,3.9075,36.13,0.00,36.13,0.00,False,FORWARDS_RIGHT,1.000,0,0,SEARCHING,False,False,False,0,False,,0.00,0
1764635441.6597161,131.255,149,TEST2_OBSTACLE_BYPASS,False,0.0,0.0,0.0,0.00,0.000,0.0,-1089.2,-53.9,-171.04,-179.26,-171.04,169.76,83.68,0.1374,10.0,9.405,-0.4323,5.3142,5.3317,-4.65,2.7597,-2.1527,3.5000,127.96,40,200.0,116.0,2.3274,3.1614,3.9257,36.36,0.00,36.36,0.00,False,FORWARDS_RIGHT,1.000,0,0,SEARCHING,False,False,True,0,True,STUCK_DETECTED,0.00,0
1764635441.6982276,131.293,150,TEST2_OBSTACLE_BYPASS,False,0.0,0.0,0.0,0.00,0.000,0.0,-1095.1,-59.6,-136.34,177.05,-136.34,166.70,84.25,-0.0192,10.0,9.749,-0.4164,5.3032,5.3195,-4.49,2.9513,-1.8814,3.5000,122.52,45,200.0,116.0,2.5349,3.4218,4.2584,36.53,0.00,36.53,0.00,False,FORWARDS_RIGHT,1.000,0,0,SEARCHING,False,False,True,0,True,STUCK_DETECTED,0.00,0
1764635441.7436392,131.339,151,TEST2_OBSTACLE_BYPASS,False,0.0,0.0,0.0,0.00,0.000,0.0,-1096.9,-68.4,-101.50,179.36,-101.50,168.98,84.11,-0.1268,10.0,10.437,-0.4090,5.2834,5.2992,-4.43,2.7273,-2.1936,3.5000,128.81,41,200.0,116.0,2.3183,3.0898,3.8629,36.88,0.00,36.88,0.00,False,FORWARDS_RIGHT,1.000,0,0,SEARCHING,False,False,True,0,True,STUCK_DETECTED,0.00,0
1764635441.7829473,131.378,152,TEST2_OBSTACLE_BYPASS,False,0.0,0.0,0.0,0.00,0.000,0.0,-1098.8,-76.8,-102.42,-177.78,-102.42,171.38,83.79,-0.0735,10.0,11.104,-0.4018,5.2647,5.2800,-4.36,2.8373,-2.0493,3.5000,125.84,42,200.0,116.0,2.4356,3.2154,4.0337,37.14,0.00,37.14,0.00,False,FORWARDS_RIGHT,1.000,0,0,SEARCHING,False,False,True,0,True,STUCK_DETECTED,0.00,0
1764635441.8250895,131.420,153,TEST2_OBSTACLE_BYPASS,False,0.0,0.0,0.0,0.00,0.000,0.0,-1100.8,-85.6,-103.19,-176.16,-103.19,172.21,83.51,-0.0032,10.0,11.752,-0.3940,5.2453,5.2601,-4.30,2.6840,-2.2464,3.5000,129.93,41,200.0,116.0,2.2900,2.9989,3.7733,37.37,0.00,37.37,0.00,False,FORWARDS_RIGHT,1.000,0,0,SEARCHING,False,False,True,0,True,STUCK_DETECTED,0.00,0
1764635441.8626025,131.458,154,TEST2_OBSTACLE_BYPASS,False,0.0,0.0,0.0,0.00,0.000,0.0,-1102.8,-93.4,-103.92,-176.35,-103.92,171.76,83.53,0.0107,10.0,12.383,-0.3869,5.2282,5.2425,-4.23,2.8316,-2.0573,3.5000,126.00,39,200.0,116.0,2.4446,3.1710,4.0039,37.63,0.00,37.63,0.00,False,FORWARDS_RIGHT,1.000,0,0,SEARCHING,False,False,True,0,True,STUCK_DETECTED,0.00,0
1764635441.9060457,131.501,155,TEST2_OBSTACLE_BYPASS,False,0.0,0.0,0.0,0.00,0.000,0.0,-1105.0,-102.0,-104.63,-176.49,-104.63,171.44,83.50,0.0437,10.0,12.998,-0.3790,5.2095,5.2232,-4.16,2.7429,-2.1741,3.5000,128.40,41,200.0,116.0,2.3639,3.0354,3.8473,37.91,0.00,37.91,0.00,False,FORWARDS_RIGHT,1.000,0,0,SEARCHING,False,False,True,0,True,STUCK_DETECTED,0.00,0
1764635441.944203,131.539,156,TEST2_OBSTACLE_BYPASS,False,0.0,0.0,0.0,0.00,0.000,0.0,-1107.2,-110.0,-105.43,-177.64,-105.43,170.59,83.56,0.0714,10.0,13.600,-0.3714,5.1923,5.2056,-4.09,2.8739,-1.9976,3.5000,124.80,40,200.0,116.0,2.5025,3.1947,4.0581,38.07,0.00,38.07,0.00,False,FORWARDS_RIGHT,1.000,0,0,SEARCHING,False,False,True,0,True,STUCK_DETECTED,0.00,0
1764635441.9833472,131.578,157,TEST2_OBSTACLE_BYPASS,False,0.0,0.0,0.0,0.00,0.000,0.0,-1109.4,-117.5,-106.21,-179.11,-106.21,169.52,83.73,0.0469,10.0,14.187,-0.3641,5.1762,5.1890,-4.02,2.7493,-2.1659,3.5000,128.23,45,200.0,116.0,2.3852,3.0102,3.8406,38.39,0.00,38.39,0.00,False,FORWARDS_RIGHT,1.000,0,0,SEARCHING,False,False,True,0,True,STUCK_DETECTED,0.00,0
1764635442.0246449,131.620,158,TEST2_OBSTACLE_BYPASS,False,0.0,0.0,0.0,0.00,0.000,0.0,-1112.0,-126.1,-106.59,-179.55,-106.59,169.24,83.82,-0.0170,10.0,14.761,-0.3559,5.1581,5.1703,-3.95,2.7922,-2.1104,3.5000,127.08,40,200.0,116.0,2.4363,3.0477,3.9018,38.64,0.00,38.64,0.00,False,FORWARDS_RIGHT,1.000,0,0,SEARCHING,False,False,True,0,True,STUCK_DETECTED,0.00,0
1764635442.0637705,131.659,159,TEST2_OBSTACLE_BYPASS,False,0.0,0.0,0.0,0.00,0.000,0.0,-1114.3,-133.9,-106.54,-178.77,-106.54,169.81,83.74,-0.0469,10.0,15.321,-0.3484,5.1416,5.1534,-3.88,2.7127,-2.2117,3.5000,129.19,43,200.0,116.0,2.3642,2.9299,3.7649,38.90,0.00,38.90,0.00,False,FORWARDS_RIGHT,1.000,0,0,SEARCHING,False,False,True,0,True,STUCK_DETECTED,0.00,0
1764635442.105592,131.701,160,TEST2_OBSTACLE_BYPASS,False,0.0,0.0,0.0,0.00,0.000,0.0,-1121.3,-139.3,-142.02,-177.76,-142.02,170.49,83.62,-0.0309,10.0,15.512,-0.3315,5.1317,5.1424,-3.70,2.7559,-2.1576,3.5000,128.06,40,200.0,116.0,2.4243,2.9741,3.8370,39.18,0.00,39.18,0.00,False,FORWARDS_RIGHT,1.000,0,0,SEARCHING,False,False,True,0,True,STUCK_DETECTED,0.00,0
1764635442.1448123,131.740,161,TEST2_OBSTACLE_BYPASS,False,0.0,0.0,0.0,0.00,0.000,0.0,-1129.4,-139.7,-177.69,-177.31,-177.69,170.83,83.55,0.0064,10.0,15.332,-0.3137,5.1332,5.1428,-3.50,2.6571,-2.2782,3.5000,130.61,44,200.0,116.0,2.3433,2.8551,3.6936,39.38,0.00,39.38,0.00,False,FORWARDS_RIGHT,1.000,0,0,SEARCHING,False,False,True,0,True,STUCK_DETECTED,0.00,0
1764635442.1872585,131.782,162,TEST2_OBSTACLE_BYPASS,False,0.0,0.0,0.0,0.00,0.000,0.0,-1138.2,-140.0,-177.72,-178.04,-177.72,170.25,83.61,0.0447,10.0,15.142,0.0000,0.0000,0.0000,0.00,2.7570,-2.1562,3.5000,128.03,40,200.0,116.0,2.7570,-2.1562,3.5000,128.03,0.00,128.03,0.00,False,BACKWARDS_RIGHT,0.500,0,0,SEARCHING,False,False,True,0,True,STUCK_DETECTED,0.00,0
1764635442.2223363,131.817,163,TEST2_OBSTACLE_BYPASS,False,0.0,0.0,0.0,0.00,0.000,0.0,-1134.2,-139.9,-177.98,-178.77,-177.98,169.63,83.68,0.0266,10.0,14.949,0.0000,0.0000,0.0000,0.00,2.8282,-2.0619,3.5000,126.09,45,200.0,116.0,2.8282,-2.0619,3.5000,126.09,0.00,126.09,0.00,False,BACKWARDS_RIGHT,0.500,0,0,SEARCHING,False,False,True,0,True,STUCK_DETECTED,0.00,0
1764635442.2676923,131.863,164,TEST2_OBSTACLE_BYPASS,False,0.0,0.0,0.0,0.00,0.000,0.0,-1129.7,-139.7,-178.22,-178.76,-178.22,169.67,83.66,-0.0213,10.0,14.760,0.0000,0.0000,0.0000,0.00,2.7782,-2.1288,3.5000,127.46,42,200.0,116.0,2.7782,-2.1288,3.5000,127.46,0.00,127.46,0.00,False,BACKWARDS_RIGHT,0.500,0,0,SEARCHING,False,False,True,0,True,STUCK_DETECTED,0.00,0
