timestamp,elapsed_time,log_number,test_mode,person_detected,person_x_mm,person_y_mm,person_distance_mm,person_angle_deg,person_confidence,time_since_person_update_ms,robot_x_mm,robot_y_mm,robot_orientation_deg,imu_yaw_raw,imu_yaw_smoothed,imu_roll,imu_pitch,imu_angular_vel_z,imu_update_rate,imu_drift_estimate,attr_force_x,attr_force_y,attr_force_magnitude,attr_force_direction_deg,repul_force_x,repul_force_y,repul_force_magnitude,repul_force_direction_deg,num_obstacles_in_range,closest_obstacle_dist_mm,closest_obstacle_angle_deg,total_force_x,total_force_y,total_force_magnitude,total_force_direction_deg,expected_direction_to_person_deg,force_direction_deg,direction_error_deg,direction_mismatch_flag,commanded_direction,commanded_speed,motor_1_speed,motor_2_speed,nav_state,nav_state_changed,goal_reached,stuck_detected,time_in_current_state_s,anomaly_detected,anomaly_type,calculation_time_ms,obstacles_filtered_for_person
1764572159.3237627,22.326,1,TEST2_OBSTACLE_BYPASS,True,694.6,2935.1,3016.1,13.31,0.946,0.0,0.0,0.0,164.42,164.37,164.42,167.81,87.88,0.0096,10.0,0.000,0.9163,3.8717,3.9786,13.31,5.4291,-4.6239,7.1313,130.42,0,850.0,259.0,6.3454,-0.7522,6.3898,96.76,13.31,96.76,83.45,False,RIGHT,0.700,0,0,NAVIGATING,True,False,False,0,False,,0.00,0
1764572159.3628213,22.365,2,TEST2_OBSTACLE_BYPASS,True,694.6,2935.1,3016.1,13.31,0.946,0.0,0.0,0.0,164.39,164.24,164.39,167.69,87.89,-0.0053,10.0,0.000,0.9163,3.8717,3.9786,13.31,5.4291,-4.6239,7.1313,130.42,0,850.0,259.0,6.3454,-0.7522,6.3898,96.76,13.31,96.76,83.45,False,RIGHT,0.700,0,0,NAVIGATING,False,False,False,0,False,,0.00,0
1764572159.4059012,22.408,3,TEST2_OBSTACLE_BYPASS,True,694.6,2935.1,3016.1,13.31,0.946,0.0,0.0,0.0,164.37,164.24,164.37,167.69,87.89,-0.0043,10.0,0.000,0.9163,3.8717,3.9786,13.31,6.2381,-5.0086,8.0000,128.76,0,850.0,259.0,7.1544,-1.1369,7.2442,99.03,13.31,99.03,85.71,False,RIGHT,0.700,0,0,NAVIGATING,False,False,False,0,False,,0.00,0
1764572159.441024,22.443,4,TEST2_OBSTACLE_BYPASS,True,694.6,2935.1,3016.1,13.31,0.946,0.0,0.0,0.0,164.35,164.31,164.35,167.75,88.02,0.0107,10.0,0.000,0.9163,3.8717,3.9786,13.31,6.2381,-5.0086,8.0000,128.76,0,850.0,259.0,7.1544,-1.1369,7.2442,99.03,13.31,99.03,85.71,False,RIGHT,0.700,0,0,NAVIGATING,False,False,False,0,False,,0.00,0
1764572159.4850962,22.487,5,TEST2_OBSTACLE_BYPASS,True,694.6,2935.1,3016.1,13.31,0.946,0.0,0.0,0.0,164.33,164.30,164.33,167.75,87.88,0.0085,10.0,0.000,0.9163,3.8717,3.9786,13.31,5.9203,-4.7576,7.5950,128.79,0,850.0,259.0,6.8366,-0.8859,6.8937,97.38,13.31,97.38,84.07,False,RIGHT,0.700,0,0,NAVIGATING,False,False,False,0,False,,0.00,0
1764572159.5243104,22.526,6,TEST2_OBSTACLE_BYPASS,True,694.6,2935.1,3016.1,13.31,0.946,0.0,0.0,0.0,164.32,164.30,164.32,167.75,87.88,-0.0011,10.0,0.000,0.9163,3.8717,3.9786,13.31,5.9203,-4.7576,7.5950,128.79,0,850.0,259.0,6.8366,-0.8859,6.8937,97.38,13.31,97.38,84.07,False,RIGHT,0.700,0,0,NAVIGATING,False,False,False,0,False,,0.00,0
1764572159.5627153,22.565,7,TEST2_OBSTACLE_BYPASS,True,694.6,2935.1,3016.1,13.31,0.946,0.0,0.0,0.0,164.32,164.30,164.32,167.75,87.88,-0.0053,10.0,0.000,0.9163,3.8717,3.9786,13.31,5.8753,-4.9890,7.7077,130.34,0,850.0,259.0,6.7916,-1.1173,6.8829,99.34,13.31,99.34,86.03,False,RIGHT,0.700,0,0,NAVIGATING,False,False,False,0,False,,0.00,0
1764572159.6099284,22.612,8,TEST2_OBSTACLE_BYPASS,True,694.6,2935.1,3016.1,13.31,0.946,0.0,0.0,0.0,164.31,164.30,164.31,167.75,87.88,0.0000,10.0,0.000,0.9163,3.8717,3.9786,13.31,5.8753,-4.9890,7.7077,130.34,0,850.0,259.0,6.7916,-1.1173,6.8829,99.34,13.31,99.34,86.03,False,RIGHT,0.700,0,0,NAVIGATING,False,False,False,0,False,,0.00,0
1764572159.644045,22.646,9,TEST2_OBSTACLE_BYPASS,False,0.0,0.0,0.0,0.00,0.000,0.0,0.0,0.0,164.30,164.30,164.30,167.75,87.88,-0.0085,10.0,0.000,0.9163,3.8717,3.9786,13.31,6.0827,-5.1962,8.0000,130.51,0,850.0,259.0,6.9990,-1.3245,7.1232,100.72,0.00,100.72,0.00,False,RIGHT,0.700,0,0,SEARCHING,True,False,False,0,False,,0.00,0
1764572159.687222,22.689,10,TEST2_OBSTACLE_BYPASS,False,0.0,0.0,0.0,0.00,0.000,0.0,0.0,0.0,164.30,164.30,164.30,167.75,87.88,0.0021,10.0,0.000,0.9163,3.8717,3.9786,13.31,6.0827,-5.1962,8.0000,130.51,0,850.0,259.0,6.9990,-1.3245,7.1232,100.72,0.00,100.72,0.00,False,RIGHT,0.700,0,0,SEARCHING,False,False,True,0,True,STUCK_DETECTED,0.00,0
1764572159.7256522,22.728,11,TEST2_OBSTACLE_BYPASS,False,0.0,0.0,0.0,0.00,0.000,0.0,0.0,0.0,164.19,163.33,164.19,166.89,87.86,0.0107,10.0,0.000,0.9163,3.8717,3.9786,13.31,5.9507,-5.3468,8.0000,131.94,0,850.0,259.0,6.8670,-1.4752,7.0237,102.12,0.00,102.12,0.00,False,RIGHT,0.700,0,0,SEARCHING,False,False,True,0,True,STUCK_DETECTED,0.00,0
1764572159.7686925,22.771,12,TEST2_OBSTACLE_BYPASS,False,0.0,0.0,0.0,0.00,0.000,0.0,0.0,0.0,163.99,162.24,163.99,165.99,87.91,0.0117,10.0,-0.133,0.9163,3.8717,3.9786,13.31,5.9507,-5.3468,8.0000,131.94,0,850.0,259.0,6.8670,-1.4752,7.0237,102.12,0.00,102.12,0.00,False,RIGHT,0.700,0,0,SEARCHING,False,False,True,0,True,STUCK_DETECTED,0.00,0
1764572159.8071728,22.809,13,TEST2_OBSTACLE_BYPASS,False,0.0,0.0,0.0,0.00,0.000,0.0,0.0,0.0,163.49,159.18,163.49,163.38,87.86,0.0937,10.0,-0.199,0.9163,3.8717,3.9786,13.31,4.7369,-6.4468,8.0000,143.69,0,800.0,259.0,5.6532,-2.5752,6.2121,114.49,0.00,114.49,0.00,False,BACKWARDS_RIGHT,0.500,0,0,SEARCHING,False,False,True,0,True,STUCK_DETECTED,0.00,0
1764572159.8591373,22.861,14,TEST2_OBSTACLE_BYPASS,False,0.0,0.0,0.0,0.00,0.000,0.0,4.6,-1.4,162.68,156.20,162.68,161.06,87.49,0.1395,10.0,-0.318,0.9101,3.8727,3.9782,13.22,4.7369,-6.4468,8.0000,143.69,0,800.0,259.0,5.6470,-2.5741,6.2060,114.51,0.00,114.51,0.00,False,BACKWARDS_RIGHT,0.500,0,0,SEARCHING,False,False,True,0,True,STUCK_DETECTED,0.00,0
1764572159.8888423,22.891,15,TEST2_OBSTACLE_BYPASS,False,0.0,0.0,0.0,0.00,0.000,0.0,8.1,-2.6,161.67,154.25,161.67,159.57,87.31,0.0394,10.0,-0.492,0.9051,3.8734,3.9777,13.15,4.2685,-6.7661,8.0000,147.75,0,800.0,259.0,5.1737,-2.8927,5.9275,119.21,0.00,119.21,0.00,False,BACKWARDS_RIGHT,0.500,0,0,SEARCHING,False,False,True,0,True,STUCK_DETECTED,0.00,0
1764572159.9391253,22.941,16,TEST2_OBSTACLE_BYPASS,True,714.2,2937.8,3023.3,13.66,0.975,0.0,12.4,-4.1,160.58,153.41,160.58,159.57,87.39,-0.0469,10.0,-0.715,0.9206,3.8594,3.9677,13.42,4.2685,-6.7661,8.0000,147.75,0,800.0,259.0,5.1892,-2.9067,5.9478,119.25,13.66,119.25,105.59,True,BACKWARDS_RIGHT,0.500,0,0,NAVIGATING,True,False,True,0,True,FORCE_AWAY_FROM_PERSON|STUCK_DETECTED,0.00,3
1764572159.9954946,22.998,17,TEST2_OBSTACLE_BYPASS,True,714.2,2937.8,3023.3,13.66,0.975,0.0,18.0,-6.2,159.84,156.87,159.84,164.57,87.82,-0.1374,10.0,-0.956,0.9129,3.8603,3.9668,13.30,3.7084,-7.0886,8.0000,152.38,0,800.0,259.0,4.6212,-3.2283,5.6372,124.94,13.66,124.94,111.27,True,BACKWARDS_RIGHT,0.500,0,0,STUCK,True,False,True,0,True,FORCE_AWAY_FROM_PERSON|STUCK_DETECTED,0.00,2
1764572160.0253887,23.027,18,TEST2_OBSTACLE_BYPASS,True,689.3,2942.6,3022.3,13.18,0.776,0.0,21.5,-7.5,159.57,161.61,159.57,170.62,88.17,-0.0991,10.0,-1.186,0.8760,3.8694,3.9673,12.76,2.8991,-7.4562,8.0000,158.75,1,750.0,259.0,3.7750,-3.5869,5.2074,133.54,13.18,133.54,120.35,True,BACKWARDS_RIGHT,0.500,0,0,STUCK,False,False,True,0,True,FORCE_AWAY_FROM_PERSON|STUCK_DETECTED,0.00,1
1764572160.068212,23.070,19,TEST2_OBSTACLE_BYPASS,True,689.3,2942.6,3022.3,13.18,0.776,0.0,25.6,-9.0,159.61,164.67,159.61,175.21,88.27,0.0181,10.0,-1.387,0.8702,3.8699,3.9665,12.67,2.8991,-7.4562,8.0000,158.75,1,750.0,259.0,3.7693,-3.5864,5.2028,133.58,13.18,133.58,120.39,True,BACKWARDS_RIGHT,0.500,0,0,STUCK,False,False,True,0,True,FORCE_AWAY_FROM_PERSON|STUCK_DETECTED,0.00,1
1764572160.1081548,23.110,20,TEST2_OBSTACLE_BYPASS,True,689.3,2942.6,3022.3,13.18,0.776,0.0,29.3,-10.4,159.38,162.06,159.38,173.97,88.37,0.0735,10.0,-1.579,0.8650,3.8703,3.9658,12.60,2.5100,-7.5961,8.0000,161.71,2,750.0,113.0,3.3749,-3.7258,5.0271,137.83,13.18,137.83,124.64,True,BACKWARDS_RIGHT,0.500,0,0,STUCK,False,False,True,0,True,FORCE_AWAY_FROM_PERSON|STUCK_DETECTED,0.00,0
1764572160.1489744,23.151,21,TEST2_OBSTACLE_BYPASS,True,689.3,2942.6,3022.3,13.18,0.776,0.0,33.6,-12.0,158.79,157.37,158.79,170.68,87.99,0.0469,10.0,-1.782,0.8591,3.8707,3.9649,12.51,2.5100,-7.5961,8.0000,161.71,2,750.0,113.0,3.3690,-3.7254,5.0228,137.88,13.18,137.88,124.69,True,BACKWARDS_RIGHT,0.500,0,0,STUCK,False,False,True,0,True,FORCE_AWAY_FROM_PERSON|STUCK_DETECTED,0.00,0
1764572160.1918468,23.194,22,TEST2_OBSTACLE_BYPASS,True,689.3,2942.6,3022.3,13.18,0.776,0.0,37.4,-13.6,158.24,156.74,158.24,171.57,87.95,-0.0415,10.0,-1.992,0.8536,3.8710,3.9640,12.44,2.3824,-7.6370,8.0000,162.67,3,750.0,115.0,3.2360,-3.7660,4.9654,139.33,13.18,139.33,126.14,True,BACKWARDS_RIGHT,0.500,0,0,STUCK,False,False,True,0,True,FORCE_AWAY_FROM_PERSON|STUCK_DETECTED,0.00,0
1764572160.23069,23.233,23,TEST2_OBSTACLE_BYPASS,True,689.3,2942.6,3022.3,13.18,0.776,0.0,41.6,-15.2,158.35,160.28,158.35,176.58,87.91,-0.0692,10.0,-2.177,0.8478,3.8713,3.9631,12.35,2.3824,-7.6370,8.0000,162.67,3,750.0,115.0,3.2302,-3.7657,4.9613,139.38,13.18,139.38,126.19,True,BACKWARDS_RIGHT,0.500,0,0,STUCK,False,False,True,0,True,FORCE_AWAY_FROM_PERSON|STUCK_DETECTED,0.00,0
1764572160.2691915,23.271,24,TEST2_OBSTACLE_BYPASS,True,689.3,2942.6,3022.3,13.18,0.776,0.0,45.4,-16.7,159.04,163.14,159.04,-179.18,88.16,0.0149,10.0,-2.316,0.8425,3.8717,3.9623,12.28,2.2049,-7.6902,8.0000,164.00,3,750.0,137.0,3.0473,-3.8185,4.8854,141.41,13.18,141.41,128.22,True,BACKWARDS_RIGHT,0.500,0,0,STUCK,False,False,True,0,True,FORCE_AWAY_FROM_PERSON|STUCK_DETECTED,0.00,0
1764572160.3122885,23.314,25,TEST2_OBSTACLE_BYPASS,True,689.3,2942.6,3022.3,13.18,0.776,0.0,49.5,-18.2,159.57,159.55,159.57,178.68,88.13,0.0266,10.0,-2.422,0.8367,3.8721,3.9614,12.19,2.2049,-7.6902,8.0000,164.00,3,750.0,137.0,3.0415,-3.8181,4.8815,141.46,13.18,141.46,128.28,True,BACKWARDS_RIGHT,0.500,0,0,STUCK,False,False,True,0,True,FORCE_AWAY_FROM_PERSON|STUCK_DETECTED,0.00,0
1764572160.3537438,23.356,26,TEST2_OBSTACLE_BYPASS,False,0.0,0.0,0.0,0.00,0.000,0.0,53.9,-19.8,160.14,159.14,160.14,178.88,88.24,-0.0149,10.0,-2.496,0.8306,3.8725,3.9606,12.11,1.5801,-7.8424,8.0000,168.61,3,750.0,252.0,2.4107,-3.9699,4.6445,148.73,0.00,148.73,0.00,False,BACKWARDS_RIGHT,0.500,0,0,STUCK,False,False,True,0,True,STUCK_DETECTED,0.00,0
1764572160.3962984,23.398,27,TEST2_OBSTACLE_BYPASS,False,0.0,0.0,0.0,0.00,0.000,0.0,57.9,-21.2,160.48,160.27,160.48,-179.30,88.07,-0.0128,10.0,-2.552,0.8251,3.8730,3.9599,12.03,1.5801,-7.8424,8.0000,168.61,3,750.0,252.0,2.4052,-3.9694,4.6413,148.79,0.00,148.79,0.00,False,BACKWARDS_RIGHT,0.500,0,0,STUCK,False,False,True,0,True,STUCK_DETECTED,0.00,0
1764572160.4406207,23.443,28,TEST2_OBSTACLE_BYPASS,False,0.0,0.0,0.0,0.00,0.000,0.0,62.4,-22.8,160.41,160.85,160.41,-178.25,87.98,0.0107,10.0,-2.606,0.8189,3.8734,3.9591,11.94,1.2108,-7.9078,8.0000,171.30,2,750.0,137.0,2.0297,-4.0344,4.5162,153.29,0.00,153.29,0.00,False,BACKWARDS_RIGHT,0.500,0,0,STUCK,False,False,True,0,True,STUCK_DETECTED,0.00,0
1764572160.475766,23.478,29,TEST2_OBSTACLE_BYPASS,False,0.0,0.0,0.0,0.00,0.000,0.0,66.1,-24.2,160.04,160.99,160.04,-177.89,88.13,-0.0170,10.0,-2.669,0.8137,3.8738,3.9583,11.86,1.2108,-7.9078,8.0000,171.30,2,750.0,137.0,2.0245,-4.0341,4.5135,153.35,0.00,153.35,0.00,False,BACKWARDS_RIGHT,0.500,0,0,STUCK,False,False,True,0,True,STUCK_DETECTED,0.00,0
1764572160.523454,23.526,30,TEST2_OBSTACLE_BYPASS,True,62.6,2996.8,2997.4,1.20,0.996,0.0,70.3,-25.7,159.89,160.57,159.89,-178.19,88.17,0.0128,10.0,-2.733,-0.0102,3.9702,3.9702,-0.15,0.9287,-7.9459,8.0000,173.33,3,750.0,137.0,0.9185,-3.9757,4.0804,166.99,1.20,166.99,165.79,True,BACKWARDS,0.500,0,0,STUCK,False,False,True,0,True,FORCE_AWAY_FROM_PERSON|BACKWARD_TOWARD_FRONT_PERSON|STUCK_DETECTED,0.00,3
1764572160.564697,23.567,31,TEST2_OBSTACLE_BYPASS,True,62.6,2996.8,2997.4,1.20,0.996,0.0,75.6,-27.6,160.12,159.64,160.12,-178.99,88.30,0.0234,10.0,-2.786,-0.0171,3.9677,3.9677,-0.25,0.9287,-7.9459,8.0000,173.33,3,750.0,137.0,0.9116,-3.9782,4.0813,167.09,1.20,167.09,165.90,True,BACKWARDS,0.500,0,0,STUCK,False,False,True,0,True,FORCE_AWAY_FROM_PERSON|BACKWARD_TOWARD_FRONT_PERSON|STUCK_DETECTED,0.00,3
1764572160.6030736,23.605,32,TEST2_OBSTACLE_BYPASS,True,62.6,2996.8,2997.4,1.20,0.996,0.0,81.8,-29.9,160.11,156.71,160.11,178.31,88.28,0.0181,10.0,-2.835,-0.0251,3.9647,3.9648,-0.36,0.8573,-7.9539,8.0000,173.85,3,750.0,137.0,0.8321,-3.9893,4.0751,168.22,1.20,168.22,167.02,True,BACKWARDS,0.500,0,0,STUCK,False,False,True,0,True,FORCE_AWAY_FROM_PERSON|BACKWARD_TOWARD_FRONT_PERSON|STUCK_DETECTED,0.00,3
1764572160.6454227,23.648,33,TEST2_OBSTACLE_BYPASS,True,62.6,2996.8,2997.4,1.20,0.996,0.0,87.6,-32.0,159.64,155.54,159.64,177.29,88.33,-0.0021,10.0,-2.896,-0.0327,3.9617,3.9619,-0.47,0.5914,-7.9781,8.0000,175.76,3,750.0,137.0,0.5587,-4.0164,4.0550,172.08,1.20,172.08,170.89,True,BACKWARDS,0.500,0,0,STUCK,False,False,True,0,True,FORCE_AWAY_FROM_PERSON|BACKWARD_TOWARD_FRONT_PERSON|STUCK_DETECTED,0.00,3
1764572160.6849213,23.687,34,TEST2_OBSTACLE_BYPASS,True,3.7,2997.4,2997.4,0.07,0.996,0.0,93.4,-34.3,158.92,155.95,158.92,177.99,88.10,-0.0096,10.0,-2.975,-0.1170,3.9547,3.9565,-1.69,0.5914,-7.9781,8.0000,175.76,3,750.0,137.0,0.4743,-4.0234,4.0512,173.28,0.07,173.28,173.21,True,BACKWARDS,0.500,0,0,STUCK,False,False,True,0,True,FORCE_AWAY_FROM_PERSON|BACKWARD_TOWARD_FRONT_PERSON|STUCK_DETECTED,0.00,3
1764572160.7271647,23.729,35,TEST2_OBSTACLE_BYPASS,True,3.7,2997.4,2997.4,0.07,0.996,0.0,98.8,-36.4,158.68,157.10,158.68,179.31,88.14,-0.0181,10.0,-3.056,-0.1239,3.9516,3.9535,-1.80,0.2340,-7.9966,8.0000,178.32,3,750.0,137.0,0.1101,-4.0450,4.0465,178.44,0.07,178.44,178.37,True,BACKWARDS,0.500,0,0,STUCK,False,False,True,0,True,FORCE_AWAY_FROM_PERSON|BACKWARD_TOWARD_FRONT_PERSON|STUCK_DETECTED,0.00,5
1764572160.7653472,23.767,36,TEST2_OBSTACLE_BYPASS,True,3.7,2997.4,2997.4,0.07,0.996,0.0,104.7,-38.7,158.37,156.10,158.37,178.72,88.17,0.0213,10.0,-3.142,-0.1313,3.9481,3.9502,-1.90,0.2340,-7.9966,8.0000,178.32,3,750.0,137.0,0.1027,-4.0485,4.0498,178.55,0.07,178.55,178.48,True,BACKWARDS,0.500,0,0,STUCK,False,False,True,0,True,FORCE_AWAY_FROM_PERSON|BACKWARD_TOWARD_FRONT_PERSON|STUCK_DETECTED,0.00,5
1764572160.8032806,23.805,37,TEST2_OBSTACLE_BYPASS,True,3.7,2997.4,2997.4,0.07,0.996,0.0,110.1,-40.9,157.82,154.71,157.82,177.63,88.28,-0.0053,10.0,-3.238,-0.1381,3.9447,3.9472,-2.00,-0.1748,-7.9981,8.0000,-178.75,2,750.0,137.0,-0.3129,-4.0533,4.0654,-175.59,0.07,-175.59,-175.66,True,BACKWARDS,0.500,0,0,STUCK,False,False,True,0,True,FORCE_AWAY_FROM_PERSON|BACKWARD_TOWARD_FRONT_PERSON|STUCK_DETECTED,0.00,3
1764572160.8450303,23.847,38,TEST2_OBSTACLE_BYPASS,False,0.0,0.0,0.0,0.00,0.000,0.0,115.6,-43.2,157.18,154.47,157.18,177.77,88.17,0.0075,10.0,-3.346,-0.1450,3.9412,3.9439,-2.11,-0.1748,-7.9981,8.0000,-178.75,2,750.0,137.0,-0.3198,-4.0568,4.0694,-175.49,0.00,-175.49,0.00,False,BACKWARDS,0.500,0,0,STUCK,False,False,True,0,True,STUCK_DETECTED,0.00,0
1764572160.8866,23.889,39,TEST2_OBSTACLE_BYPASS,False,0.0,0.0,0.0,0.00,0.000,0.0,121.4,-45.8,156.39,153.15,156.39,176.79,88.22,0.0107,10.0,-3.469,-0.1523,3.9374,3.9403,-2.21,0.0175,-8.0000,8.0000,179.87,2,750.0,137.0,-0.1348,-4.0626,4.0648,-178.10,0.00,-178.10,0.00,False,BACKWARDS,0.500,0,0,STUCK,False,False,True,0,True,STUCK_DETECTED,0.00,0
1764572160.9250984,23.927,40,TEST2_OBSTACLE_BYPASS,False,0.0,0.0,0.0,0.00,0.000,0.0,126.7,-48.2,155.56,152.21,155.56,176.32,88.26,-0.0053,10.0,-3.608,-0.1588,3.9338,3.9370,-2.31,0.0175,-8.0000,8.0000,179.87,2,750.0,137.0,-0.1413,-4.0662,4.0687,-178.01,0.00,-178.01,0.00,False,BACKWARDS,0.500,0,0,STUCK,False,False,True,0,True,STUCK_DETECTED,0.00,0
1764572160.9708261,23.973,41,TEST2_OBSTACLE_BYPASS,False,0.0,0.0,0.0,0.00,0.000,0.0,132.6,-50.9,154.93,153.40,154.93,177.86,88.34,-0.0234,10.0,-3.755,-0.1661,3.9296,3.9331,-2.42,0.1883,-7.9978,8.0000,178.65,2,750.0,135.0,0.0222,-4.0682,4.0683,179.69,0.00,179.69,0.00,False,BACKWARDS,0.500,0,0,STUCK,False,False,True,0,True,STUCK_DETECTED,0.00,0
1764572161.0043588,24.006,42,TEST2_OBSTACLE_BYPASS,False,0.0,0.0,0.0,0.00,0.000,0.0,137.5,-53.2,154.76,155.01,154.76,179.65,88.43,0.0138,10.0,-3.899,-0.1721,3.9261,3.9298,-2.51,0.1883,-7.9978,8.0000,178.65,2,750.0,135.0,0.0162,-4.0717,4.0717,179.77,0.00,179.77,0.00,False,BACKWARDS,0.500,0,0,STUCK,False,False,True,0,True,STUCK_DETECTED,0.00,0
1764572161.0478368,24.050,43,TEST2_OBSTACLE_BYPASS,False,0.0,0.0,0.0,0.00,0.000,0.0,143.4,-56.0,154.66,154.50,154.66,179.36,88.36,0.0383,10.0,-4.038,-0.1794,3.9218,3.9259,-2.62,0.4871,-7.9852,8.0000,176.51,3,750.0,135.0,0.3077,-4.0633,4.0750,175.67,0.00,175.67,0.00,False,BACKWARDS,0.500,0,0,STUCK,False,False,True,0,True,STUCK_DETECTED,0.00,0
1764572161.0892298,24.091,44,TEST2_OBSTACLE_BYPASS,False,0.0,0.0,0.0,0.00,0.000,0.0,148.9,-58.7,154.42,153.54,154.42,178.47,88.54,0.0149,10.0,-4.177,-0.1861,3.9178,3.9222,-2.72,0.4871,-7.9852,8.0000,176.51,3,750.0,135.0,0.3009,-4.0674,4.0785,175.77,0.00,175.77,0.00,False,BACKWARDS,0.500,0,0,STUCK,False,False,True,0,True,STUCK_DETECTED,0.00,0
1764572161.1279626,24.130,45,TEST2_OBSTACLE_BYPASS,False,0.0,0.0,0.0,0.00,0.000,0.0,154.0,-61.2,153.91,152.00,153.91,177.01,88.35,0.0234,10.0,-4.321,-0.1924,3.9139,3.9186,-2.81,0.6019,-7.9773,8.0000,175.69,3,750.0,135.0,0.4095,-4.0634,4.0840,174.25,0.00,174.25,0.00,False,BACKWARDS,0.500,0,0,STUCK,False,False,True,0,True,STUCK_DETECTED,0.00,0
1764572161.1707618,24.173,46,TEST2_OBSTACLE_BYPASS,False,0.0,0.0,0.0,0.00,0.000,0.0,159.7,-64.0,153.27,149.67,153.27,174.68,88.22,-0.0032,10.0,-4.473,-0.1992,3.9096,3.9147,-2.92,0.6019,-7.9773,8.0000,175.69,3,750.0,135.0,0.4027,-4.0677,4.0876,174.35,0.00,174.35,0.00,False,BACKWARDS,0.500,0,0,STUCK,False,False,True,0,True,STUCK_DETECTED,0.00,0
1764572161.206753,24.209,47,TEST2_OBSTACLE_BYPASS,False,0.0,0.0,0.0,0.00,0.000,0.0,164.7,-66.6,152.82,150.23,152.82,175.08,88.28,-0.0234,10.0,-4.628,-0.2052,3.9056,3.9110,-3.01,0.6754,-7.9714,8.0000,175.16,4,750.0,135.0,0.4702,-4.0658,4.0929,173.40,0.00,173.40,0.00,False,BACKWARDS,0.500,0,0,STUCK,False,False,True,0,True,STUCK_DETECTED,0.00,0
1764572161.2519147,24.254,48,TEST2_OBSTACLE_BYPASS,True,-182.9,3168.9,3174.2,356.70,0.997,0.0,170.4,-69.6,152.66,152.92,152.66,177.72,88.23,-0.0469,10.0,-4.780,-0.3995,3.6619,3.6836,-6.23,0.6754,-7.9714,8.0000,175.16,4,750.0,135.0,0.2759,-4.3096,4.3184,176.34,-3.30,176.34,179.64,True,BACKWARDS,0.500,0,0,STUCK,False,False,True,0,True,FORCE_AWAY_FROM_PERSON|BACKWARD_TOWARD_FRONT_PERSON|STUCK_DETECTED,0.00,3
1764572161.2880883,24.290,49,TEST2_OBSTACLE_BYPASS,True,-182.9,3168.9,3174.2,356.70,0.997,0.0,175.5,-72.2,152.78,154.31,152.78,179.02,88.21,0.0032,10.0,-4.923,-0.4045,3.6577,3.6800,-6.31,0.9270,-7.9461,8.0000,173.35,4,750.0,135.0,0.5225,-4.2884,4.3201,173.05,-3.30,173.05,176.36,True,BACKWARDS,0.500,0,0,STUCK,False,False,True,0,True,FORCE_AWAY_FROM_PERSON|BACKWARD_TOWARD_FRONT_PERSON|STUCK_DETECTED,0.00,3
1764572161.3326597,24.335,50,TEST2_OBSTACLE_BYPASS,True,-182.9,3168.9,3174.2,356.70,0.997,0.0,181.1,-75.1,152.82,152.65,152.82,177.12,88.30,0.0320,10.0,-5.059,-0.4099,3.6532,3.6761,-6.40,0.9270,-7.9461,8.0000,173.35,4,750.0,135.0,0.5171,-4.2929,4.3239,173.13,-3.30,173.13,176.44,True,BACKWARDS,0.500,0,0,STUCK,False,False,True,0,True,FORCE_AWAY_FROM_PERSON|BACKWARD_TOWARD_FRONT_PERSON|STUCK_DETECTED,0.00,3
1764572161.3684876,24.371,51,TEST2_OBSTACLE_BYPASS,True,-741.4,3019.5,3109.2,346.20,0.996,0.0,186.2,-77.7,152.55,150.65,152.55,174.78,88.25,0.0224,10.0,-5.195,-1.0649,3.5555,3.7116,-16.67,1.1127,-7.9222,8.0000,172.01,5,750.0,135.0,0.0478,-4.3667,4.3670,179.37,-13.80,179.37,-166.83,True,BACKWARDS,0.500,0,0,STUCK,False,False,True,0,True,FORCE_AWAY_FROM_PERSON|BACKWARD_TOWARD_FRONT_PERSON|STUCK_DETECTED,0.00,4
1764572161.415789,24.418,52,TEST2_OBSTACLE_BYPASS,True,-741.4,3019.5,3109.2,346.20,0.996,0.0,191.8,-80.6,152.18,151.33,152.18,174.69,88.25,-0.0064,10.0,-5.333,-1.0684,3.5492,3.7065,-16.75,1.1127,-7.9222,8.0000,172.01,5,750.0,135.0,0.0443,-4.3730,4.3733,179.42,-13.80,179.42,-166.79,True,BACKWARDS,0.500,0,0,STUCK,False,False,True,0,True,FORCE_AWAY_FROM_PERSON|BACKWARD_TOWARD_FRONT_PERSON|STUCK_DETECTED,0.00,4
1764572161.4508219,24.453,53,TEST2_OBSTACLE_BYPASS,True,-741.4,3019.5,3109.2,346.20,0.996,0.0,196.8,-83.3,151.90,151.67,151.90,174.65,88.22,-0.0149,10.0,-5.472,-1.0715,3.5434,3.7019,-16.82,1.1950,-7.9102,8.0000,171.41,5,750.0,165.0,0.1235,-4.3668,4.3686,178.38,-13.80,178.38,-167.82,True,BACKWARDS,0.500,0,0,STUCK,False,False,True,0,True,FORCE_AWAY_FROM_PERSON|BACKWARD_TOWARD_FRONT_PERSON|STUCK_DETECTED,0.00,3
1764572161.49651,24.499,54,TEST2_OBSTACLE_BYPASS,True,-741.4,3019.5,3109.2,346.20,0.996,0.0,202.5,-86.4,151.87,153.27,151.87,175.38,88.46,-0.0170,10.0,-5.605,-1.0749,3.5370,3.6967,-16.90,1.1950,-7.9102,8.0000,171.41,5,750.0,165.0,0.1201,-4.3733,4.3749,178.43,-13.80,178.43,-167.78,True,BACKWARDS,0.500,0,0,STUCK,False,False,True,0,True,FORCE_AWAY_FROM_PERSON|BACKWARD_TOWARD_FRONT_PERSON|STUCK_DETECTED,0.00,3
1764572161.5304997,24.533,55,TEST2_OBSTACLE_BYPASS,True,-741.4,3019.5,3109.2,346.20,0.996,0.0,207.8,-89.2,152.00,153.32,152.00,174.88,88.33,0.0138,10.0,-5.731,-1.0781,3.5309,3.6919,-16.98,1.4072,-7.8753,8.0000,169.87,6,750.0,165.0,0.3290,-4.3443,4.3568,175.67,-13.80,175.67,-170.54,True,BACKWARDS,0.500,0,0,STUCK,False,False,True,0,True,FORCE_AWAY_FROM_PERSON|BACKWARD_TOWARD_FRONT_PERSON|STUCK_DETECTED,0.00,2
1764572161.57394,24.576,56,TEST2_OBSTACLE_BYPASS,True,-741.4,3019.5,3109.2,346.20,0.996,0.0,213.2,-92.0,152.30,152.63,152.30,173.74,88.19,0.0138,10.0,-5.848,-1.0814,3.5248,3.6870,-17.06,1.3180,-7.8907,8.0000,170.52,7,750.0,133.0,0.2366,-4.3659,4.3723,176.90,-13.80,176.90,-169.31,True,BACKWARDS,0.500,0,0,STUCK,False,False,True,0,True,FORCE_AWAY_FROM_PERSON|BACKWARD_TOWARD_FRONT_PERSON|STUCK_DETECTED,0.00,2
1764572161.6137295,24.616,57,TEST2_OBSTACLE_BYPASS,True,-800.6,3004.4,3109.2,345.08,0.996,0.0,218.8,-94.9,152.50,152.26,152.50,173.01,88.36,-0.0117,10.0,-5.956,-1.1491,3.4939,3.6780,-18.21,1.3180,-7.8907,8.0000,170.52,7,750.0,133.0,0.1689,-4.3968,4.4000,177.80,-14.92,177.80,-167.28,True,BACKWARDS,0.500,0,0,STUCK,False,False,True,0,True,FORCE_AWAY_FROM_PERSON|BACKWARD_TOWARD_FRONT_PERSON|STUCK_DETECTED,0.00,1
1764572161.654828,24.657,58,TEST2_OBSTACLE_BYPASS,True,-800.6,3004.4,3109.2,345.08,0.996,0.0,223.9,-97.6,152.45,152.39,152.45,173.00,88.35,-0.0032,10.0,-6.062,-1.1520,3.4881,3.6734,-18.28,1.5293,-7.8525,8.0000,168.98,7,750.0,133.0,0.3773,-4.3644,4.3807,175.06,-14.92,175.06,-170.02,True,BACKWARDS,0.500,0,0,STUCK,False,False,True,0,True,FORCE_AWAY_FROM_PERSON|BACKWARD_TOWARD_FRONT_PERSON|STUCK_DETECTED,0.00,1
1764572161.6972985,24.699,59,TEST2_OBSTACLE_BYPASS,False,0.0,0.0,0.0,0.00,0.000,0.0,229.7,-100.7,152.31,152.95,152.31,173.50,88.43,-0.0053,10.0,-6.166,-1.1552,3.4814,3.6680,-18.36,1.5293,-7.8525,8.0000,168.98,7,750.0,133.0,0.3741,-4.3711,4.3871,175.11,0.00,175.11,0.00,False,BACKWARDS,0.500,0,0,STUCK,False,False,True,0,True,STUCK_DETECTED,0.00,0
1764572161.7331312,24.735,60,TEST2_OBSTACLE_BYPASS,False,0.0,0.0,0.0,0.00,0.000,0.0,234.7,-103.2,152.35,153.09,152.35,173.49,88.48,0.0032,10.0,-6.266,-1.1579,3.4758,3.6635,-18.42,1.7269,-7.8114,8.0000,167.53,8,750.0,133.0,0.5690,-4.3356,4.3728,172.52,0.00,172.52,0.00,False,BACKWARDS,0.500,0,0,STUCK,False,False,True,0,True,STUCK_DETECTED,0.00,0
1764572161.7781825,24.780,61,TEST2_OBSTACLE_BYPASS,True,-725.6,2922.8,3011.5,346.06,0.998,0.0,240.4,-106.2,152.51,152.26,152.51,172.47,88.31,0.0128,10.0,-6.360,-1.1467,3.5960,3.7744,-17.69,1.7269,-7.8114,8.0000,167.53,8,750.0,133.0,0.5802,-4.2154,4.2551,172.16,-13.94,172.16,-173.90,True,BACKWARDS,0.500,0,0,STUCK,False,False,True,0,True,FORCE_AWAY_FROM_PERSON|BACKWARD_TOWARD_FRONT_PERSON|STUCK_DETECTED,0.00,0
1764572161.8200843,24.822,62,TEST2_OBSTACLE_BYPASS,True,-782.8,2908.0,3011.5,344.93,0.998,0.0,246.2,-109.2,152.53,151.47,152.53,171.46,88.35,0.0021,10.0,-6.451,-1.2150,3.5628,3.7643,-18.83,1.7289,-7.8110,8.0000,167.52,9,750.0,133.0,0.5138,-4.2482,4.2791,173.10,-15.07,173.10,-171.83,True,BACKWARDS,0.500,0,0,STUCK,False,False,True,0,True,FORCE_AWAY_FROM_PERSON|BACKWARD_TOWARD_FRONT_PERSON|STUCK_DETECTED,0.00,0
1764572161.860963,24.863,63,TEST2_OBSTACLE_BYPASS,True,-782.8,2908.0,3011.5,344.93,0.998,0.0,251.4,-112.0,152.50,151.36,152.50,171.31,88.27,0.0032,10.0,-6.539,-1.2179,3.5565,3.7593,-18.90,1.7289,-7.8110,8.0000,167.52,9,750.0,133.0,0.5109,-4.2545,4.2850,173.15,-15.07,173.15,-171.78,True,BACKWARDS,0.500,0,0,STUCK,False,False,True,0,True,FORCE_AWAY_FROM_PERSON|BACKWARD_TOWARD_FRONT_PERSON|STUCK_DETECTED,0.00,0
1764572161.902478,24.905,64,TEST2_OBSTACLE_BYPASS,True,-708.7,2858.2,2944.7,346.07,0.990,0.0,257.0,-114.9,152.32,151.44,152.32,171.36,88.32,0.0032,10.0,-6.627,-1.1859,3.6511,3.8389,-17.99,1.6112,-7.8361,8.0000,168.38,10,700.0,133.0,0.4253,-4.1850,4.2065,174.20,-13.93,174.20,-171.88,True,BACKWARDS,0.500,0,0,STUCK,False,False,True,0,True,FORCE_AWAY_FROM_PERSON|BACKWARD_TOWARD_FRONT_PERSON|STUCK_DETECTED,0.00,0
1764572161.9369211,24.939,65,TEST2_OBSTACLE_BYPASS,True,-708.7,2858.2,2944.7,346.07,0.990,0.0,261.9,-117.5,152.06,150.77,152.06,170.64,88.27,0.0181,10.0,-6.717,-1.1889,3.6450,3.8340,-18.06,1.6112,-7.8361,8.0000,168.38,10,700.0,133.0,0.4223,-4.1911,4.2123,174.25,-13.93,174.25,-171.83,True,BACKWARDS,0.500,0,0,STUCK,False,False,True,0,True,FORCE_AWAY_FROM_PERSON|BACKWARD_TOWARD_FRONT_PERSON|STUCK_DETECTED,0.00,0
1764572161.9830625,24.985,66,TEST2_OBSTACLE_BYPASS,True,-692.4,2885.0,2966.9,346.50,0.973,0.0,267.5,-120.5,151.79,149.87,151.79,169.59,88.21,0.0245,10.0,-6.808,-1.1571,3.6232,3.8034,-17.71,1.5883,-7.8408,8.0000,168.55,11,700.0,133.0,0.4312,-4.2176,4.2396,174.16,-13.50,174.16,-172.34,True,BACKWARDS,0.500,0,0,STUCK,False,False,True,0,True,FORCE_AWAY_FROM_PERSON|BACKWARD_TOWARD_FRONT_PERSON|STUCK_DETECTED,0.00,0
1764572162.0182881,25.020,67,TEST2_OBSTACLE_BYPASS,True,-748.9,2870.9,2966.9,345.38,0.973,0.0,272.4,-123.1,151.45,148.87,151.45,168.27,88.37,0.0234,10.0,-6.901,-1.2246,3.5903,3.7934,-18.83,1.5883,-7.8408,8.0000,168.55,11,700.0,133.0,0.3636,-4.2505,4.2660,175.11,-14.62,175.11,-170.27,True,BACKWARDS,0.500,0,0,STUCK,False,False,True,0,True,FORCE_AWAY_FROM_PERSON|BACKWARD_TOWARD_FRONT_PERSON|STUCK_DETECTED,0.00,0
1764572162.064503,25.067,68,TEST2_OBSTACLE_BYPASS,True,-759.6,2881.5,2979.9,345.23,0.983,0.0,278.3,-126.4,151.01,148.07,151.01,167.18,88.30,0.0085,10.0,-6.998,-1.2302,3.5650,3.7713,-19.04,1.7361,-7.8094,8.0000,167.47,14,700.0,133.0,0.5059,-4.2443,4.2744,173.20,-14.77,173.20,-172.03,True,BACKWARDS,0.500,0,0,STUCK,False,False,True,0,True,FORCE_AWAY_FROM_PERSON|BACKWARD_TOWARD_FRONT_PERSON|STUCK_DETECTED,0.00,0
1764572162.1017282,25.104,69,TEST2_OBSTACLE_BYPASS,True,-759.6,2881.5,2979.9,345.23,0.983,0.0,283.2,-129.2,150.46,147.36,150.46,166.37,88.19,0.0117,10.0,-7.101,-1.2327,3.5589,3.7663,-19.11,1.7361,-7.8094,8.0000,167.47,14,700.0,133.0,0.5034,-4.2505,4.2802,173.25,-14.77,173.25,-171.99,True,BACKWARDS,0.500,0,0,STUCK,False,False,True,0,True,FORCE_AWAY_FROM_PERSON|BACKWARD_TOWARD_FRONT_PERSON|STUCK_DETECTED,0.00,0
1764572162.1451418,25.147,70,TEST2_OBSTACLE_BYPASS,True,-759.6,2881.5,2979.9,345.23,0.983,0.0,288.7,-132.4,149.85,147.04,149.85,166.01,88.24,0.0011,10.0,-7.209,-1.2355,3.5519,3.7606,-19.18,1.7826,-7.7989,8.0000,167.12,17,700.0,133.0,0.5472,-4.2470,4.2821,172.66,-14.77,172.66,-172.57,True,BACKWARDS,0.500,0,0,STUCK,False,False,True,0,True,FORCE_AWAY_FROM_PERSON|BACKWARD_TOWARD_FRONT_PERSON|STUCK_DETECTED,0.00,0
1764572162.1818578,25.184,71,TEST2_OBSTACLE_BYPASS,True,-759.6,2881.5,2979.9,345.23,0.983,0.0,293.6,-135.3,149.36,147.31,149.36,166.28,88.21,0.0160,10.0,-7.321,-1.2379,3.5456,3.7554,-19.25,1.7826,-7.7989,8.0000,167.12,17,700.0,133.0,0.5448,-4.2533,4.2880,172.70,-14.77,172.70,-172.53,True,BACKWARDS,0.500,0,0,STUCK,False,False,True,0,True,FORCE_AWAY_FROM_PERSON|BACKWARD_TOWARD_FRONT_PERSON|STUCK_DETECTED,0.00,0
1764572162.2228327,25.225,72,TEST2_OBSTACLE_BYPASS,True,-759.6,2881.5,2979.9,345.23,0.983,0.0,298.7,-138.4,148.93,147.24,148.93,166.00,88.10,0.0064,10.0,-7.436,-1.2403,3.5391,3.7501,-19.31,2.0053,-7.7446,8.0000,165.48,19,700.0,133.0,0.7650,-4.2055,4.2745,169.69,-14.77,169.69,-175.54,True,BACKWARDS,0.500,0,0,STUCK,False,False,True,0,True,FORCE_AWAY_FROM_PERSON|BACKWARD_TOWARD_FRONT_PERSON|STUCK_DETECTED,0.00,0
1764572162.2644076,25.266,73,TEST2_OBSTACLE_BYPASS,True,-816.1,2866.0,2979.9,344.11,0.983,0.0,304.0,-141.6,148.40,146.05,148.40,164.49,88.22,0.0085,10.0,-7.555,-1.3049,3.5039,3.7390,-20.43,2.0053,-7.7446,8.0000,165.48,19,700.0,133.0,0.7005,-4.2407,4.2981,170.62,-15.89,170.62,-173.49,True,BACKWARDS,0.500,0,0,STUCK,False,False,True,0,True,FORCE_AWAY_FROM_PERSON|BACKWARD_TOWARD_FRONT_PERSON|STUCK_DETECTED,0.00,0
1764572162.3004332,25.303,74,TEST2_OBSTACLE_BYPASS,True,-816.1,2866.0,2979.9,344.11,0.983,0.0,309.1,-144.8,147.81,145.55,147.81,163.50,88.12,0.0000,10.0,-7.679,-1.3069,3.4973,3.7335,-20.49,1.8739,-7.7774,8.0000,166.45,21,700.0,133.0,0.5670,-4.2802,4.3176,172.45,-15.89,172.45,-171.65,True,BACKWARDS,0.500,0,0,STUCK,False,False,True,0,True,FORCE_AWAY_FROM_PERSON|BACKWARD_TOWARD_FRONT_PERSON|STUCK_DETECTED,0.00,0
1764572162.3474033,25.349,75,TEST2_OBSTACLE_BYPASS,True,-762.0,2905.1,3003.4,345.30,0.725,0.0,314.4,-148.3,147.32,145.81,147.32,163.25,88.13,-0.0043,10.0,-7.807,-1.2324,3.4956,3.7065,-19.42,1.8739,-7.7774,8.0000,166.45,21,700.0,133.0,0.6416,-4.2818,4.3296,171.48,-14.70,171.48,-173.82,True,BACKWARDS,0.500,0,0,STUCK,False,False,True,0,True,FORCE_AWAY_FROM_PERSON|BACKWARD_TOWARD_FRONT_PERSON|STUCK_DETECTED,0.00,0
1764572162.383312,25.385,76,TEST2_OBSTACLE_BYPASS,True,-762.0,2905.1,3003.4,345.30,0.725,0.0,319.2,-151.4,146.94,146.13,146.94,162.93,88.29,0.0138,10.0,-7.936,-1.2344,3.4894,3.7013,-19.48,2.0480,-7.7334,8.0000,165.17,25,700.0,133.0,0.8136,-4.2440,4.3213,169.15,-14.70,169.15,-176.15,True,BACKWARDS,0.500,0,0,STUCK,False,False,True,0,True,FORCE_AWAY_FROM_PERSON|BACKWARD_TOWARD_FRONT_PERSON|STUCK_DETECTED,0.00,0
1764572162.4312909,25.433,77,TEST2_OBSTACLE_BYPASS,True,-714.3,2937.5,3023.1,346.33,0.987,0.0,324.7,-155.0,146.55,144.96,146.55,160.71,88.20,0.0266,10.0,-8.066,-1.1715,3.4868,3.6783,-18.57,2.0480,-7.7334,8.0000,165.17,25,700.0,133.0,0.8765,-4.2466,4.3361,168.34,-13.67,168.34,-177.99,True,BACKWARDS,0.500,0,0,STUCK,False,False,True,0,True,FORCE_AWAY_FROM_PERSON|BACKWARD_TOWARD_FRONT_PERSON|STUCK_DETECTED,0.00,0
1764572162.4658906,25.468,78,TEST2_OBSTACLE_BYPASS,True,-771.8,2922.9,3023.1,345.21,0.987,0.0,329.5,-158.2,146.21,144.64,146.21,159.84,88.22,-0.0021,10.0,-8.198,-1.2344,3.4534,3.6674,-19.67,1.9692,-7.7539,8.0000,165.75,27,700.0,133.0,0.7348,-4.3004,4.3627,170.30,-14.79,170.30,-174.90,True,BACKWARDS,0.500,0,0,STUCK,False,False,True,0,True,FORCE_AWAY_FROM_PERSON|BACKWARD_TOWARD_FRONT_PERSON|STUCK_DETECTED,0.00,0
1764572162.5101643,25.512,79,TEST2_OBSTACLE_BYPASS,True,-765.8,2936.5,3034.7,345.38,0.994,0.0,335.0,-161.9,145.93,144.55,145.93,158.94,88.24,-0.0117,10.0,-8.330,-1.2218,3.4389,3.6495,-19.56,1.9406,-7.7611,8.0000,165.96,28,700.0,133.0,0.7188,-4.3222,4.3815,170.56,-14.62,170.56,-174.83,True,BACKWARDS,0.500,0,0,STUCK,False,False,True,0,True,FORCE_AWAY_FROM_PERSON|BACKWARD_TOWARD_FRONT_PERSON|STUCK_DETECTED,0.00,0
1764572162.5546634,25.557,80,TEST2_OBSTACLE_BYPASS,True,-752.6,2962.7,3056.8,345.75,0.998,0.0,340.2,-165.5,145.70,144.74,145.70,158.89,88.13,-0.0160,10.0,-8.462,-1.1944,3.4189,3.6216,-19.26,1.9406,-7.7611,8.0000,165.96,28,700.0,133.0,0.7462,-4.3421,4.4058,170.25,-14.25,170.25,-175.50,True,BACKWARDS,0.500,0,0,STUCK,False,False,True,0,True,FORCE_AWAY_FROM_PERSON|BACKWARD_TOWARD_FRONT_PERSON|STUCK_DETECTED,0.00,0
1764572162.5896595,25.592,81,TEST2_OBSTACLE_BYPASS,True,-752.6,2962.7,3056.8,345.75,0.998,0.0,344.7,-168.6,145.46,144.98,145.46,159.22,88.19,-0.0043,10.0,-8.593,-1.1961,3.4132,3.6167,-19.31,1.8176,-7.7908,8.0000,166.87,30,650.0,133.0,0.6214,-4.3776,4.4215,171.92,-14.25,171.92,-173.83,True,BACKWARDS,0.500,0,0,STUCK,False,False,True,0,True,FORCE_AWAY_FROM_PERSON|BACKWARD_TOWARD_FRONT_PERSON|STUCK_DETECTED,0.00,0
1764572162.6292422,25.631,82,TEST2_OBSTACLE_BYPASS,True,-752.6,2962.7,3056.8,345.75,0.998,0.0,349.7,-172.0,145.28,145.39,145.28,159.74,88.16,0.0053,10.0,-8.723,-1.1980,3.4069,3.6114,-19.37,1.8176,-7.7908,8.0000,166.87,30,650.0,133.0,0.6196,-4.3839,4.4275,171.96,-14.25,171.96,-173.79,True,BACKWARDS,0.500,0,0,STUCK,False,False,True,0,True,FORCE_AWAY_FROM_PERSON|BACKWARD_TOWARD_FRONT_PERSON|STUCK_DETECTED,0.00,0
1764572162.6703444,25.672,83,TEST2_OBSTACLE_BYPASS,True,-713.0,2996.3,3079.9,346.62,0.999,0.0,355.0,-175.7,145.20,145.27,145.20,159.75,88.21,0.0128,10.0,-8.851,-1.1440,3.3979,3.5854,-18.61,1.9092,-7.7688,8.0000,166.19,32,650.0,133.0,0.7652,-4.3709,4.4374,170.07,-13.38,170.07,-176.54,True,BACKWARDS,0.500,0,0,STUCK,False,False,True,0,True,FORCE_AWAY_FROM_PERSON|BACKWARD_TOWARD_FRONT_PERSON|STUCK_DETECTED,0.00,0
1764572162.7148085,25.717,84,TEST2_OBSTACLE_BYPASS,True,-771.7,2981.7,3079.9,345.49,0.999,0.0,360.1,-179.3,145.10,144.57,145.10,159.16,88.20,-0.0053,10.0,-8.977,-1.2048,3.3650,3.5741,-19.70,1.9092,-7.7688,8.0000,166.19,32,650.0,133.0,0.7044,-4.4039,4.4599,170.91,-14.51,170.91,-174.58,True,BACKWARDS,0.500,0,0,STUCK,False,False,True,0,True,FORCE_AWAY_FROM_PERSON|BACKWARD_TOWARD_FRONT_PERSON|STUCK_DETECTED,0.00,0
1764572162.751308,25.753,85,TEST2_OBSTACLE_BYPASS,True,-771.7,2981.7,3079.9,345.49,0.999,0.0,364.8,-182.6,145.04,145.15,145.04,159.90,88.15,-0.0085,10.0,-9.101,-1.2064,3.3591,3.5692,-19.76,1.9205,-7.7661,8.0000,166.11,32,650.0,133.0,0.7141,-4.4070,4.4644,170.80,-14.51,170.80,-174.69,True,BACKWARDS,0.500,0,0,STUCK,False,False,True,0,True,FORCE_AWAY_FROM_PERSON|BACKWARD_TOWARD_FRONT_PERSON|STUCK_DETECTED,0.00,0
1764572162.798333,25.800,86,TEST2_OBSTACLE_BYPASS,True,-771.7,2981.7,3079.9,345.49,0.999,0.0,370.3,-186.4,144.99,145.63,144.99,160.50,88.27,-0.0021,10.0,-9.223,-1.2083,3.3522,3.5633,-19.82,1.9205,-7.7661,8.0000,166.11,32,650.0,133.0,0.7122,-4.4139,4.4710,170.83,-14.51,170.83,-174.66,True,BACKWARDS,0.500,0,0,STUCK,False,False,True,0,True,FORCE_AWAY_FROM_PERSON|BACKWARD_TOWARD_FRONT_PERSON|STUCK_DETECTED,0.00,0
1764572162.8335407,25.836,87,TEST2_OBSTACLE_BYPASS,True,-771.7,2981.7,3079.9,345.49,0.999,0.0,374.9,-189.6,145.06,145.67,145.06,160.58,88.26,0.0096,10.0,-9.341,-1.2099,3.3465,3.5585,-19.88,1.8834,-7.7751,8.0000,166.38,35,650.0,133.0,0.6735,-4.4286,4.4795,171.35,-14.51,171.35,-174.14,True,BACKWARDS,0.500,0,0,STUCK,False,False,True,0,True,FORCE_AWAY_FROM_PERSON|BACKWARD_TOWARD_FRONT_PERSON|STUCK_DETECTED,0.00,0
1764572162.8762448,25.878,88,TEST2_OBSTACLE_BYPASS,True,-553.2,3054.4,3104.1,349.73,0.998,0.0,380.1,-193.3,145.14,145.49,145.14,160.13,88.30,0.0064,10.0,-9.455,-0.9809,3.4131,3.5512,-16.03,1.8834,-7.7751,8.0000,166.38,35,650.0,133.0,0.9025,-4.3621,4.4544,168.31,-10.27,168.31,178.58,True,BACKWARDS,0.500,0,0,STUCK,False,False,True,0,True,FORCE_AWAY_FROM_PERSON|BACKWARD_TOWARD_FRONT_PERSON|STUCK_DETECTED,0.00,0
1764572162.917197,25.919,89,TEST2_OBSTACLE_BYPASS,True,-653.8,3071.3,3140.1,347.98,0.999,0.0,385.3,-196.9,145.19,145.05,145.19,159.49,88.22,0.0032,10.0,-9.566,-1.0602,3.3346,3.4991,-17.64,1.8830,-7.7752,8.0000,166.39,36,650.0,133.0,0.8228,-4.4406,4.5162,169.50,-12.02,169.50,-178.48,True,BACKWARDS,0.500,0,0,STUCK,False,False,True,0,True,FORCE_AWAY_FROM_PERSON|BACKWARD_TOWARD_FRONT_PERSON|STUCK_DETECTED,0.00,0
1764572162.956572,25.959,90,TEST2_OBSTACLE_BYPASS,True,-653.8,3071.3,3140.1,347.98,0.999,0.0,389.9,-200.1,145.21,144.87,145.21,159.16,88.35,-0.0032,10.0,-9.674,-1.0622,3.3292,3.4946,-17.70,1.8830,-7.7752,8.0000,166.39,36,650.0,133.0,0.8208,-4.4460,4.5211,169.54,-12.02,169.54,-178.44,True,BACKWARDS,0.500,0,0,STUCK,False,False,True,0,True,FORCE_AWAY_FROM_PERSON|BACKWARD_TOWARD_FRONT_PERSON|STUCK_DETECTED,0.00,0
1764572162.9991088,26.001,91,TEST2_OBSTACLE_BYPASS,True,-643.3,3090.5,3156.8,348.24,0.998,0.0,395.2,-203.8,145.21,145.04,145.21,159.37,88.37,-0.0128,10.0,-9.780,-1.0446,3.3133,3.4741,-17.50,1.7229,-7.8123,8.0000,167.56,39,650.0,245.0,0.6783,-4.4990,4.5498,171.43,-11.76,171.43,-176.81,True,BACKWARDS,0.500,0,0,STUCK,False,False,True,0,True,FORCE_AWAY_FROM_PERSON|BACKWARD_TOWARD_FRONT_PERSON|STUCK_DETECTED,0.00,1
1764572163.0444632,26.047,92,TEST2_OBSTACLE_BYPASS,True,-643.3,3090.5,3156.8,348.24,0.998,0.0,400.3,-207.3,145.25,145.75,145.25,160.20,88.27,-0.0085,10.0,-9.883,-1.0467,3.3075,3.4692,-17.56,1.7229,-7.8123,8.0000,167.56,39,650.0,245.0,0.6762,-4.5048,4.5552,171.46,-11.76,171.46,-176.78,True,BACKWARDS,0.500,0,0,STUCK,False,False,True,0,True,FORCE_AWAY_FROM_PERSON|BACKWARD_TOWARD_FRONT_PERSON|STUCK_DETECTED,0.00,1
1764572163.0835354,26.086,93,TEST2_OBSTACLE_BYPASS,True,-643.3,3090.5,3156.8,348.24,0.998,0.0,405.6,-210.9,145.37,146.44,145.37,160.73,88.31,-0.0075,10.0,-9.983,-1.0489,3.3015,3.4641,-17.63,1.9424,-7.7606,8.0000,165.95,40,650.0,245.0,0.8935,-4.4591,4.5477,168.67,-11.76,168.67,-179.57,True,BACKWARDS,0.500,0,0,STUCK,False,False,True,0,True,FORCE_AWAY_FROM_PERSON|BACKWARD_TOWARD_FRONT_PERSON|STUCK_DETECTED,0.00,1
1764572163.1222832,26.124,94,TEST2_OBSTACLE_BYPASS,True,-703.9,3077.3,3156.8,347.12,0.998,0.0,410.2,-214.1,145.53,146.18,145.53,160.15,88.35,0.0160,10.0,-10.079,-1.1072,3.2711,3.4534,-18.70,1.9424,-7.7606,8.0000,165.95,40,650.0,245.0,0.8352,-4.4896,4.5666,169.46,-12.88,169.46,-177.65,True,BACKWARDS,0.500,0,0,STUCK,False,False,True,0,True,FORCE_AWAY_FROM_PERSON|BACKWARD_TOWARD_FRONT_PERSON|STUCK_DETECTED,0.00,1
1764572163.161308,26.163,95,TEST2_OBSTACLE_BYPASS,True,-709.9,3080.7,3161.4,347.02,0.999,0.0,415.3,-217.6,145.55,145.40,145.55,158.90,88.19,0.0021,10.0,-10.172,-1.1118,3.2590,3.4434,-18.84,1.9776,-7.7517,8.0000,165.69,41,650.0,245.0,0.8658,-4.4927,4.5754,169.09,-12.98,169.09,-177.93,True,BACKWARDS,0.500,0,0,STUCK,False,False,True,0,True,FORCE_AWAY_FROM_PERSON|BACKWARD_TOWARD_FRONT_PERSON|STUCK_DETECTED,0.00,0
1764572163.2033718,26.205,96,TEST2_OBSTACLE_BYPASS,True,-718.9,3092.7,3175.1,346.91,0.999,0.0,420.4,-221.1,145.50,145.14,145.50,158.17,88.22,-0.0117,10.0,-10.264,-1.1134,3.2384,3.4245,-18.97,1.9413,-7.7609,8.0000,165.96,39,650.0,245.0,0.8279,-4.5225,4.5976,169.63,-13.09,169.63,-177.29,True,BACKWARDS,0.500,0,0,STUCK,False,False,True,0,True,FORCE_AWAY_FROM_PERSON|BACKWARD_TOWARD_FRONT_PERSON|STUCK_DETECTED,0.00,0
1764572163.2458212,26.248,97,TEST2_OBSTACLE_BYPASS,True,-718.9,3092.7,3175.1,346.91,0.999,0.0,425.7,-224.7,145.53,145.99,145.53,158.50,88.25,0.0043,10.0,-10.354,-1.1153,3.2325,3.4195,-19.04,1.9413,-7.7609,8.0000,165.96,39,650.0,245.0,0.8260,-4.5284,4.6031,169.66,-13.09,169.66,-177.25,True,BACKWARDS,0.500,0,0,STUCK,False,False,True,0,True,FORCE_AWAY_FROM_PERSON|BACKWARD_TOWARD_FRONT_PERSON|STUCK_DETECTED,0.00,0
1764572163.287494,26.290,98,TEST2_OBSTACLE_BYPASS,True,-718.9,3092.7,3175.1,346.91,0.999,0.0,430.4,-228.0,145.63,146.44,145.63,158.57,88.21,-0.0170,10.0,-10.441,-1.1170,3.2271,3.4150,-19.09,1.9413,-7.7609,8.0000,165.96,39,650.0,245.0,0.8243,-4.5338,4.6081,169.70,-13.09,169.70,-177.22,True,BACKWARDS,0.500,0,0,STUCK,False,False,True,0,True,FORCE_AWAY_FROM_PERSON|BACKWARD_TOWARD_FRONT_PERSON|STUCK_DETECTED,0.00,0
1764572163.3244472,26.327,99,TEST2_OBSTACLE_BYPASS,True,-779.5,3078.0,3175.1,345.79,0.999,0.0,435.4,-231.4,145.82,146.98,145.82,158.61,88.38,0.0245,10.0,-10.525,-1.1731,3.1955,3.4040,-20.16,1.9145,-7.7676,8.0000,166.15,40,650.0,245.0,0.7414,-4.5721,4.6318,170.79,-14.21,170.79,-175.00,True,BACKWARDS,0.500,0,0,STUCK,False,False,True,0,True,FORCE_AWAY_FROM_PERSON|BACKWARD_TOWARD_FRONT_PERSON|STUCK_DETECTED,0.00,0
1764572163.3670025,26.369,100,TEST2_OBSTACLE_BYPASS,True,-779.5,3078.0,3175.1,345.79,0.999,0.0,441.0,-235.2,145.92,145.80,145.92,157.30,88.18,0.0234,10.0,-10.605,-1.1748,3.1892,3.3987,-20.22,1.7590,-7.8042,8.0000,167.30,37,650.0,245.0,0.5842,-4.6151,4.6519,172.79,-14.21,172.79,-173.00,True,BACKWARDS,0.500,0,0,STUCK,False,False,True,0,True,FORCE_AWAY_FROM_PERSON|BACKWARD_TOWARD_FRONT_PERSON|STUCK_DETECTED,0.00,0
1764572163.4114194,26.413,101,TEST2_OBSTACLE_BYPASS,True,-779.5,3078.0,3175.1,345.79,0.999,0.0,446.0,-238.5,145.97,145.61,145.97,157.23,88.27,-0.0043,10.0,-10.684,-1.1764,3.1836,3.3940,-20.28,1.7590,-7.8042,8.0000,167.30,37,650.0,245.0,0.5826,-4.6207,4.6573,172.81,-14.21,172.81,-172.97,True,BACKWARDS,0.500,0,0,STUCK,False,False,True,0,True,FORCE_AWAY_FROM_PERSON|BACKWARD_TOWARD_FRONT_PERSON|STUCK_DETECTED,0.00,0
1764572163.4493623,26.451,102,TEST2_OBSTACLE_BYPASS,True,-732.1,3110.4,3195.4,346.75,0.998,0.0,451.3,-242.1,146.03,146.34,146.03,158.07,88.48,-0.0053,10.0,-10.867,-1.1235,3.1828,3.3753,-19.44,1.9226,-7.7655,8.0000,166.09,38,600.0,245.0,0.7991,-4.5827,4.6519,170.11,-13.25,170.11,-176.65,True,BACKWARDS,0.500,0,0,STUCK,False,False,True,0,True,FORCE_AWAY_FROM_PERSON|BACKWARD_TOWARD_FRONT_PERSON|STUCK_DETECTED,0.00,0
1764572163.4895449,26.492,103,TEST2_OBSTACLE_BYPASS,True,-732.1,3110.4,3195.4,346.75,0.998,0.0,456.0,-245.3,146.08,146.97,146.08,158.75,88.44,-0.0107,10.0,-11.050,-1.1251,3.1777,3.3710,-19.50,1.9226,-7.7655,8.0000,166.09,38,600.0,245.0,0.7975,-4.5878,4.6566,170.14,-13.25,170.14,-176.62,True,BACKWARDS,0.500,0,0,STUCK,False,False,True,0,True,FORCE_AWAY_FROM_PERSON|BACKWARD_TOWARD_FRONT_PERSON|STUCK_DETECTED,0.00,0
1764572163.533429,26.536,104,TEST2_OBSTACLE_BYPASS,True,-742.9,3120.3,3207.5,346.61,0.983,0.0,461.6,-249.0,146.24,147.76,146.24,159.14,88.38,0.0021,10.0,-11.231,-1.1290,3.1580,3.3537,-19.67,1.9934,-7.7477,8.0000,165.57,35,600.0,245.0,0.8644,-4.5897,4.6704,169.33,-13.39,169.33,-177.27,True,BACKWARDS,0.500,0,0,STUCK,False,False,True,0,True,FORCE_AWAY_FROM_PERSON|BACKWARD_TOWARD_FRONT_PERSON|STUCK_DETECTED,0.00,0
1764572163.5662456,26.568,105,TEST2_OBSTACLE_BYPASS,True,-742.9,3120.3,3207.5,346.61,0.983,0.0,465.9,-251.9,146.34,146.34,146.34,157.04,88.27,0.0192,10.0,-11.411,-1.1304,3.1534,3.3499,-19.72,1.9934,-7.7477,8.0000,165.57,35,600.0,245.0,0.8630,-4.5943,4.6746,169.36,-13.39,169.36,-177.25,True,BACKWARDS,0.500,0,0,STUCK,False,False,True,0,True,FORCE_AWAY_FROM_PERSON|BACKWARD_TOWARD_FRONT_PERSON|STUCK_DETECTED,0.00,0
1764572163.6100736,26.612,106,TEST2_OBSTACLE_BYPASS,True,-683.2,3152.0,3225.2,347.77,0.945,0.0,471.2,-255.4,146.37,145.49,146.37,155.65,88.35,-0.0032,10.0,-11.591,-1.0703,3.1592,3.3356,-18.72,2.0399,-7.7356,8.0000,165.23,35,600.0,245.0,0.9696,-4.5764,4.6780,168.04,-12.23,168.04,-179.73,True,BACKWARDS,0.500,0,0,STUCK,False,False,True,0,True,FORCE_AWAY_FROM_PERSON|BACKWARD_TOWARD_FRONT_PERSON|STUCK_DETECTED,0.00,0
1764572163.6512735,26.653,107,TEST2_OBSTACLE_BYPASS,True,-683.2,3152.0,3225.2,347.77,0.945,0.0,476.1,-258.6,146.34,145.62,146.34,155.39,88.33,-0.0149,10.0,-11.770,-1.0720,3.1541,3.3313,-18.77,2.0399,-7.7356,8.0000,165.23,35,600.0,245.0,0.9679,-4.5815,4.6826,168.07,-12.23,168.07,-179.70,True,BACKWARDS,0.500,0,0,STUCK,False,False,True,0,True,FORCE_AWAY_FROM_PERSON|BACKWARD_TOWARD_FRONT_PERSON|STUCK_DETECTED,0.00,0
1764572163.6907287,26.693,108,TEST2_OBSTACLE_BYPASS,True,-683.2,3152.0,3225.2,347.77,0.945,0.0,481.2,-262.0,146.35,146.62,146.35,156.01,88.22,-0.0085,10.0,-11.950,-1.0739,3.1487,3.3268,-18.83,2.0901,-7.7221,8.0000,164.85,35,600.0,245.0,1.0163,-4.5734,4.6850,167.47,-12.23,167.47,179.70,True,BACKWARDS,0.500,0,0,STUCK,False,False,True,0,True,FORCE_AWAY_FROM_PERSON|BACKWARD_TOWARD_FRONT_PERSON|STUCK_DETECTED,0.00,0
1764572163.7271268,26.729,109,TEST2_OBSTACLE_BYPASS,True,-683.2,3152.0,3225.2,347.77,0.945,0.0,486.0,-265.3,146.31,146.54,146.31,155.77,88.36,0.0170,10.0,-12.130,-1.0756,3.1436,3.3225,-18.89,2.0901,-7.7221,8.0000,164.85,35,600.0,245.0,1.0146,-4.5785,4.6896,167.51,-12.23,167.51,179.73,True,BACKWARDS,0.500,0,0,STUCK,False,False,True,0,True,FORCE_AWAY_FROM_PERSON|BACKWARD_TOWARD_FRONT_PERSON|STUCK_DETECTED,0.00,0
1764572163.7732034,26.775,110,TEST2_OBSTACLE_BYPASS,True,-690.5,3159.8,3234.4,347.67,0.883,0.0,491.4,-268.8,146.29,145.57,146.29,154.94,88.17,0.0117,10.0,-12.310,-1.0783,3.1282,3.3088,-19.02,2.0396,-7.7356,8.0000,165.23,37,600.0,245.0,0.9613,-4.6074,4.7066,168.21,-12.33,168.21,-179.46,True,BACKWARDS,0.500,0,0,STUCK,False,False,True,0,True,FORCE_AWAY_FROM_PERSON|BACKWARD_TOWARD_FRONT_PERSON|STUCK_DETECTED,0.00,0
1764572163.8127975,26.815,111,TEST2_OBSTACLE_BYPASS,True,-694.5,3178.4,3253.4,347.67,0.895,0.0,496.3,-272.1,146.25,145.24,146.25,154.68,88.21,-0.0032,10.0,-12.489,-1.0725,3.1076,3.2875,-19.04,2.0396,-7.7356,8.0000,165.23,37,600.0,245.0,0.9671,-4.6280,4.7280,168.20,-12.33,168.20,-179.48,True,BACKWARDS,0.500,0,0,STUCK,False,False,True,0,True,FORCE_AWAY_FROM_PERSON|BACKWARD_TOWARD_FRONT_PERSON|STUCK_DETECTED,0.00,0
1764572163.848358,26.850,112,TEST2_OBSTACLE_BYPASS,True,-694.5,3178.4,3253.4,347.67,0.895,0.0,501.1,-275.4,146.10,144.82,146.10,154.30,88.37,0.0011,10.0,-12.668,-1.0741,3.1027,3.2833,-19.10,1.9851,-7.7498,8.0000,165.63,38,600.0,245.0,0.9110,-4.6471,4.7356,168.91,-12.33,168.91,-178.77,True,BACKWARDS,0.500,0,0,STUCK,False,False,True,0,True,FORCE_AWAY_FROM_PERSON|BACKWARD_TOWARD_FRONT_PERSON|STUCK_DETECTED,0.00,0
1764572163.8901074,26.892,113,TEST2_OBSTACLE_BYPASS,True,-694.5,3178.4,3253.4,347.67,0.895,0.0,506.1,-278.7,145.86,144.56,145.86,153.95,88.22,-0.0021,10.0,-12.845,-1.0757,3.0975,3.2790,-19.15,1.9851,-7.7498,8.0000,165.63,38,600.0,245.0,0.9094,-4.6523,4.7403,168.94,-12.33,168.94,-178.73,True,BACKWARDS,0.500,0,0,STUCK,False,False,True,0,True,FORCE_AWAY_FROM_PERSON|BACKWARD_TOWARD_FRONT_PERSON|STUCK_DETECTED,0.00,0
1764572163.9331422,26.935,114,TEST2_OBSTACLE_BYPASS,True,-694.5,3178.4,3253.4,347.67,0.895,0.0,511.3,-282.3,145.52,144.43,145.52,153.46,88.29,-0.0064,10.0,-13.016,-1.0774,3.0921,3.2744,-19.21,2.1320,-7.7107,8.0000,164.54,37,600.0,245.0,1.0546,-4.6186,4.7374,167.14,-12.33,167.14,179.46,True,BACKWARDS,0.500,0,0,STUCK,False,False,True,0,True,FORCE_AWAY_FROM_PERSON|BACKWARD_TOWARD_FRONT_PERSON|STUCK_DETECTED,0.00,0
1764572163.9780471,26.980,115,TEST2_OBSTACLE_BYPASS,True,-458.5,3271.7,3303.6,352.02,0.999,0.0,516.3,-285.8,145.30,144.07,145.30,152.92,88.34,0.0096,10.0,-13.180,-0.8598,3.1376,3.2533,-15.32,2.1320,-7.7107,8.0000,164.54,37,600.0,245.0,1.2722,-4.5731,4.7467,164.45,-7.98,164.45,172.43,True,BACKWARDS,0.500,0,0,STUCK,False,False,True,0,True,FORCE_AWAY_FROM_PERSON|BACKWARD_TOWARD_FRONT_PERSON|STUCK_DETECTED,0.00,1
1764572164.015808,27.018,116,TEST2_OBSTACLE_BYPASS,True,-458.5,3271.7,3303.6,352.02,0.999,0.0,521.6,-289.4,145.10,143.53,145.10,152.42,88.24,0.0043,10.0,-13.335,-0.8621,3.1325,3.2489,-15.39,2.1987,-7.6919,8.0000,164.05,37,600.0,245.0,1.3366,-4.5595,4.7513,163.66,-7.98,163.66,171.64,True,BACKWARDS,0.500,0,0,STUCK,False,False,True,0,True,FORCE_AWAY_FROM_PERSON|BACKWARD_TOWARD_FRONT_PERSON|STUCK_DETECTED,0.00,1
1764572164.0636942,27.066,117,TEST2_OBSTACLE_BYPASS,True,-463.5,3294.1,3326.5,351.99,0.997,0.0,526.7,-293.1,144.94,144.04,144.94,153.01,88.32,-0.0107,10.0,-13.484,-0.8580,3.1084,3.2247,-15.43,2.1987,-7.6919,8.0000,164.05,37,600.0,245.0,1.3406,-4.5835,4.7756,163.70,-8.01,163.70,171.70,True,BACKWARDS,0.500,0,0,STUCK,False,False,True,0,True,FORCE_AWAY_FROM_PERSON|BACKWARD_TOWARD_FRONT_PERSON|STUCK_DETECTED,0.00,1
1764572164.0963078,27.098,118,TEST2_OBSTACLE_BYPASS,True,-463.5,3294.1,3326.5,351.99,0.997,0.0,531.4,-296.4,144.73,144.50,144.73,153.58,88.23,-0.0075,10.0,-13.632,-0.8600,3.1039,3.2208,-15.49,2.3863,-7.6358,8.0000,162.65,39,600.0,245.0,1.5262,-4.5319,4.7820,161.39,-8.01,161.39,169.40,True,BACKWARDS,0.500,0,0,STUCK,False,False,True,0,True,FORCE_AWAY_FROM_PERSON|BACKWARD_TOWARD_FRONT_PERSON|STUCK_DETECTED,0.00,1
1764572164.1395748,27.142,119,TEST2_OBSTACLE_BYPASS,True,-430.2,3325.7,3353.4,352.63,0.997,0.0,536.6,-300.1,144.56,144.84,144.56,154.00,88.32,-0.0096,10.0,-13.783,-0.8239,3.0900,3.1979,-14.93,2.3449,-7.6486,8.0000,162.96,41,600.0,245.0,1.5210,-4.5586,4.8057,161.55,-7.37,161.55,168.92,True,BACKWARDS,0.500,0,0,STUCK,False,False,True,0,True,FORCE_AWAY_FROM_PERSON|BACKWARD_TOWARD_FRONT_PERSON|STUCK_DETECTED,0.00,2
1764572164.1778255,27.180,120,TEST2_OBSTACLE_BYPASS,True,-430.2,3325.7,3353.4,352.63,0.997,0.0,541.3,-303.4,144.54,145.35,144.54,154.58,88.39,0.0000,10.0,-13.931,-0.8259,3.0855,3.1941,-14.99,2.3449,-7.6486,8.0000,162.96,41,600.0,245.0,1.5190,-4.5631,4.8093,161.59,-7.37,161.59,168.96,True,BACKWARDS,0.500,0,0,STUCK,False,False,True,0,True,FORCE_AWAY_FROM_PERSON|BACKWARD_TOWARD_FRONT_PERSON|STUCK_DETECTED,0.00,2
1764572164.2215464,27.224,121,TEST2_OBSTACLE_BYPASS,True,-430.2,3325.7,3353.4,352.63,0.997,0.0,546.5,-307.1,144.52,145.10,144.52,154.44,88.28,0.0021,10.0,-14.074,-0.8282,3.0806,3.1900,-15.05,2.2147,-7.6873,8.0000,163.93,43,600.0,245.0,1.3866,-4.6067,4.8109,163.25,-7.37,163.25,170.62,True,BACKWARDS,0.500,0,0,STUCK,False,False,True,0,True,FORCE_AWAY_FROM_PERSON|BACKWARD_TOWARD_FRONT_PERSON|STUCK_DETECTED,0.00,1
1764572164.2601135,27.262,122,TEST2_OBSTACLE_BYPASS,True,-426.8,3336.7,3363.8,352.71,0.999,0.0,551.3,-310.6,144.59,145.49,144.59,154.93,88.20,-0.0096,10.0,-14.210,-0.8231,3.0694,3.1779,-15.01,2.2147,-7.6873,8.0000,163.93,43,600.0,245.0,1.3916,-4.6179,4.8230,163.23,-7.29,163.23,170.52,True,BACKWARDS,0.500,0,0,STUCK,False,False,True,0,True,FORCE_AWAY_FROM_PERSON|BACKWARD_TOWARD_FRONT_PERSON|STUCK_DETECTED,0.00,2
1764572164.298828,27.301,123,TEST2_OBSTACLE_BYPASS,True,-426.8,3336.7,3363.8,352.71,0.999,0.0,556.1,-313.9,144.75,146.12,144.75,155.63,88.25,-0.0075,10.0,-14.346,-0.8252,3.0650,3.1741,-15.07,2.0398,-7.7356,8.0000,165.23,43,600.0,245.0,1.2146,-4.6706,4.8260,165.42,-7.29,165.42,172.71,True,BACKWARDS,0.500,0,0,STUCK,False,False,True,0,True,FORCE_AWAY_FROM_PERSON|BACKWARD_TOWARD_FRONT_PERSON|STUCK_DETECTED,0.00,4
1764572164.3419888,27.344,124,TEST2_OBSTACLE_BYPASS,True,-433.4,3340.3,3368.3,352.61,0.999,0.0,561.3,-317.6,144.95,146.47,144.95,156.09,88.23,0.0021,10.0,-14.487,-0.8307,3.0547,3.1656,-15.21,2.0398,-7.7356,8.0000,165.23,43,600.0,245.0,1.2092,-4.6809,4.8345,165.52,-7.39,165.52,172.91,True,BACKWARDS,0.500,0,0,STUCK,False,False,True,0,True,FORCE_AWAY_FROM_PERSON|BACKWARD_TOWARD_FRONT_PERSON|STUCK_DETECTED,0.00,3
1764572164.3812418,27.383,125,TEST2_OBSTACLE_BYPASS,True,-433.4,3340.3,3368.3,352.61,0.999,0.0,566.1,-320.9,145.19,146.52,145.19,156.17,88.37,0.0149,10.0,-14.631,-0.8327,3.0503,3.1619,-15.27,2.1463,-7.7067,8.0000,164.44,49,600.0,245.0,1.3136,-4.6564,4.8381,164.25,-7.39,164.25,171.64,True,BACKWARDS,0.500,0,0,STUCK,False,False,True,0,True,FORCE_AWAY_FROM_PERSON|BACKWARD_TOWARD_FRONT_PERSON|STUCK_DETECTED,0.00,2
1764572164.4223547,27.424,126,TEST2_OBSTACLE_BYPASS,True,-422.7,3358.2,3384.7,352.83,0.999,0.0,571.2,-324.4,145.47,146.28,145.47,156.03,88.28,-0.0021,10.0,-14.778,-0.8198,3.0373,3.1460,-15.10,2.1463,-7.7067,8.0000,164.44,49,600.0,245.0,1.3266,-4.6694,4.8542,164.14,-7.17,164.14,171.32,True,BACKWARDS,0.500,0,0,STUCK,False,False,True,0,True,FORCE_AWAY_FROM_PERSON|BACKWARD_TOWARD_FRONT_PERSON|STUCK_DETECTED,0.00,3
1764572164.4585493,27.461,127,TEST2_OBSTACLE_BYPASS,True,-422.7,3358.2,3384.7,352.83,0.999,0.0,575.9,-327.6,145.72,146.52,145.72,156.34,88.33,0.0032,10.0,-14.925,-0.8218,3.0331,3.1424,-15.16,2.3523,-7.6464,8.0000,162.90,51,600.0,245.0,1.5305,-4.6133,4.8605,161.65,-7.17,161.65,168.82,True,BACKWARDS,0.500,0,0,STUCK,False,False,True,0,True,FORCE_AWAY_FROM_PERSON|BACKWARD_TOWARD_FRONT_PERSON|STUCK_DETECTED,0.00,3
1764572164.5020773,27.504,128,TEST2_OBSTACLE_BYPASS,True,-422.7,3358.2,3384.7,352.83,0.999,0.0,581.1,-331.1,145.93,146.60,145.93,156.49,88.40,0.0107,10.0,-15.070,-0.8240,3.0284,3.1385,-15.22,2.3523,-7.6464,8.0000,162.90,51,600.0,245.0,1.5283,-4.6180,4.8643,161.69,-7.17,161.69,168.86,True,BACKWARDS,0.500,0,0,STUCK,False,False,True,0,True,FORCE_AWAY_FROM_PERSON|BACKWARD_TOWARD_FRONT_PERSON|STUCK_DETECTED,0.00,3
1764572164.5386832,27.541,129,TEST2_OBSTACLE_BYPASS,True,-422.7,3358.2,3384.7,352.83,0.999,0.0,585.8,-334.3,146.09,146.51,146.09,156.50,88.32,0.0107,10.0,-15.210,-0.8260,3.0242,3.1350,-15.28,2.4682,-7.6097,8.0000,162.03,55,600.0,245.0,1.6421,-4.5855,4.8707,160.30,-7.17,160.30,167.47,True,BACKWARDS,0.500,0,0,STUCK,False,False,True,0,True,FORCE_AWAY_FROM_PERSON|BACKWARD_TOWARD_FRONT_PERSON|STUCK_DETECTED,0.00,3
1764572164.5827253,27.585,130,TEST2_OBSTACLE_BYPASS,True,-456.5,3377.1,3407.8,352.30,0.998,0.0,591.2,-337.9,146.22,146.58,146.22,156.67,88.27,0.0021,10.0,-15.346,-0.8438,2.9922,3.1089,-15.75,2.4682,-7.6097,8.0000,162.03,55,600.0,245.0,1.6243,-4.6175,4.8949,160.62,-7.70,160.62,168.32,True,BACKWARDS,0.500,0,0,STUCK,False,False,True,0,True,FORCE_AWAY_FROM_PERSON|BACKWARD_TOWARD_FRONT_PERSON|STUCK_DETECTED,0.00,3
1764572164.6181457,27.620,131,TEST2_OBSTACLE_BYPASS,True,-456.5,3377.1,3407.8,352.30,0.998,0.0,595.8,-341.0,146.37,146.62,146.37,156.78,88.32,-0.0043,10.0,-15.484,-0.8457,2.9882,3.1055,-15.80,2.2360,-7.6812,8.0000,163.77,59,600.0,245.0,1.3903,-4.6930,4.8946,163.50,-7.70,163.50,171.20,True,BACKWARDS,0.500,0,0,STUCK,False,False,True,0,True,FORCE_AWAY_FROM_PERSON|BACKWARD_TOWARD_FRONT_PERSON|STUCK_DETECTED,0.00,2
1764572164.663194,27.665,132,TEST2_OBSTACLE_BYPASS,True,-454.9,3409.4,3439.6,352.40,0.999,0.0,601.2,-344.5,146.49,146.68,146.49,156.90,88.38,0.0181,10.0,-15.620,-0.8333,2.9622,3.0772,-15.71,2.2360,-7.6812,8.0000,163.77,59,600.0,245.0,1.4027,-4.7189,4.9230,163.45,-7.60,163.45,171.05,True,BACKWARDS,0.500,0,0,STUCK,False,False,True,0,True,FORCE_AWAY_FROM_PERSON|BACKWARD_TOWARD_FRONT_PERSON|STUCK_DETECTED,0.00,2
1764572164.6990244,27.701,133,TEST2_OBSTACLE_BYPASS,True,-454.9,3409.4,3439.6,352.40,0.999,0.0,605.8,-347.6,146.49,146.16,146.49,156.45,88.42,0.0138,10.0,-15.751,-0.8352,2.9583,3.0739,-15.76,2.2560,-7.6753,8.0000,163.62,58,600.0,245.0,1.4209,-4.7170,4.9264,163.24,-7.60,163.24,170.84,True,BACKWARDS,0.500,0,0,STUCK,False,False,True,0,True,FORCE_AWAY_FROM_PERSON|BACKWARD_TOWARD_FRONT_PERSON|STUCK_DETECTED,0.00,2
1764572164.7423456,27.744,134,TEST2_OBSTACLE_BYPASS,True,-461.1,3424.1,3455.0,352.33,0.997,0.0,611.0,-351.1,146.44,145.90,146.44,156.27,88.22,0.0096,10.0,-15.876,-0.8353,2.9415,3.0578,-15.85,2.2560,-7.6753,8.0000,163.62,58,600.0,245.0,1.4207,-4.7338,4.9424,163.29,-7.67,163.29,170.96,True,BACKWARDS,0.500,0,0,STUCK,False,False,True,0,True,FORCE_AWAY_FROM_PERSON|BACKWARD_TOWARD_FRONT_PERSON|STUCK_DETECTED,0.00,2
1764572164.779296,27.781,135,TEST2_OBSTACLE_BYPASS,True,-461.1,3424.1,3455.0,352.33,0.997,0.0,615.8,-354.3,146.32,145.38,146.32,155.81,88.28,-0.0096,10.0,-16.000,-0.8372,2.9374,3.0544,-15.91,2.1659,-7.7012,8.0000,164.29,60,600.0,245.0,1.3287,-4.7639,4.9457,164.42,-7.67,164.42,172.08,True,BACKWARDS,0.500,0,0,STUCK,False,False,True,0,True,FORCE_AWAY_FROM_PERSON|BACKWARD_TOWARD_FRONT_PERSON|STUCK_DETECTED,0.00,2
1764572164.8189058,27.821,136,TEST2_OBSTACLE_BYPASS,True,-461.1,3424.1,3455.0,352.33,0.997,0.0,621.1,-357.8,146.24,145.43,146.24,155.95,88.18,-0.0107,10.0,-16.121,-0.8392,2.9329,3.0506,-15.97,2.1659,-7.7012,8.0000,164.29,60,600.0,245.0,1.3266,-4.7684,4.9495,164.45,-7.67,164.45,172.12,True,BACKWARDS,0.500,0,0,STUCK,False,False,True,0,True,FORCE_AWAY_FROM_PERSON|BACKWARD_TOWARD_FRONT_PERSON|STUCK_DETECTED,0.00,2
1764572164.8630233,27.865,137,TEST2_OBSTACLE_BYPASS,True,-468.7,3444.3,3476.0,352.25,0.995,0.0,626.2,-361.2,146.14,145.52,146.14,156.10,88.21,0.0064,10.0,-16.238,-0.8379,2.9123,3.0304,-16.05,2.3435,-7.6490,8.0000,162.97,66,600.0,245.0,1.5056,-4.7368,4.9703,162.37,-7.75,162.37,170.12,True,BACKWARDS,0.500,0,0,STUCK,False,False,True,0,True,FORCE_AWAY_FROM_PERSON|BACKWARD_TOWARD_FRONT_PERSON|STUCK_DETECTED,0.00,2
1764572164.897056,27.899,138,TEST2_OBSTACLE_BYPASS,True,-468.7,3444.3,3476.0,352.25,0.995,0.0,630.7,-364.2,145.99,145.14,145.99,155.73,88.31,0.0075,10.0,-16.350,-0.8396,2.9085,3.0272,-16.10,2.3435,-7.6490,8.0000,162.97,66,600.0,245.0,1.5039,-4.7406,4.9734,162.40,-7.75,162.40,170.15,True,BACKWARDS,0.500,0,0,STUCK,False,False,True,0,True,FORCE_AWAY_FROM_PERSON|BACKWARD_TOWARD_FRONT_PERSON|STUCK_DETECTED,0.00,2
1764572164.941467,27.944,139,TEST2_OBSTACLE_BYPASS,True,-479.7,3452.9,3486.0,352.09,0.995,0.0,635.9,-367.8,145.84,144.93,145.84,155.61,88.17,0.0064,10.0,-16.455,-0.8450,2.8941,3.0149,-16.28,2.3803,-7.6377,8.0000,162.69,72,600.0,245.0,1.5352,-4.7436,4.9859,162.07,-7.91,162.07,169.98,True,BACKWARDS,0.500,0,0,STUCK,False,False,True,0,True,FORCE_AWAY_FROM_PERSON|BACKWARD_TOWARD_FRONT_PERSON|STUCK_DETECTED,0.00,2
1764572164.9799268,27.982,140,TEST2_OBSTACLE_BYPASS,True,-479.7,3452.9,3486.0,352.09,0.995,0.0,640.7,-371.1,145.65,144.71,145.65,155.46,88.23,0.0064,10.0,-16.554,-0.8468,2.8900,3.0115,-16.33,2.3803,-7.6377,8.0000,162.69,72,600.0,245.0,1.5335,-4.7477,4.9892,162.10,-7.91,162.10,170.01,True,BACKWARDS,0.500,0,0,STUCK,False,False,True,0,True,FORCE_AWAY_FROM_PERSON|BACKWARD_TOWARD_FRONT_PERSON|STUCK_DETECTED,0.00,2
1764572165.022714,28.025,141,TEST2_OBSTACLE_BYPASS,True,-507.9,3469.0,3506.0,351.67,0.997,0.0,646.0,-374.7,145.46,144.75,145.46,155.54,88.24,-0.0043,10.0,-16.649,-0.8598,2.8639,2.9902,-16.71,2.3454,-7.6485,8.0000,162.95,75,600.0,245.0,1.4857,-4.7846,5.0099,162.75,-8.33,162.75,171.08,True,BACKWARDS,0.500,0,0,RECOVERING,True,False,True,0,True,FORCE_AWAY_FROM_PERSON|BACKWARD_TOWARD_FRONT_PERSON|STUCK_DETECTED,0.00,2
1764572165.0586576,28.061,142,TEST2_OBSTACLE_BYPASS,True,-507.9,3469.0,3506.0,351.67,0.997,0.0,650.6,-377.9,145.27,144.77,145.27,155.62,88.22,0.0021,10.0,-16.744,-0.8613,2.8600,2.9869,-16.76,2.3454,-7.6485,8.0000,162.95,75,600.0,245.0,1.4841,-4.7885,5.0132,162.78,-8.33,162.78,171.11,True,BACKWARDS,0.500,0,0,RECOVERING,False,False,True,0,True,FORCE_AWAY_FROM_PERSON|BACKWARD_TOWARD_FRONT_PERSON|STUCK_DETECTED,0.00,2
1764572165.1049995,28.107,143,TEST2_OBSTACLE_BYPASS,True,-507.9,3469.0,3506.0,351.67,0.997,0.0,655.9,-381.6,145.11,144.55,145.11,155.42,88.38,0.0160,10.0,-16.840,-0.8631,2.8555,2.9831,-16.82,2.2273,-7.6837,8.0000,163.83,74,600.0,245.0,1.3642,-4.8282,5.0172,164.22,-8.33,164.22,172.55,True,BACKWARDS,0.500,0,0,RECOVERING,False,False,True,0,True,FORCE_AWAY_FROM_PERSON|BACKWARD_TOWARD_FRONT_PERSON|STUCK_DETECTED,0.00,2
1764572165.1428869,28.145,144,TEST2_OBSTACLE_BYPASS,True,-507.9,3469.0,3506.0,351.67,0.997,0.0,660.6,-384.9,144.88,143.62,144.88,154.56,88.18,0.0138,10.0,-16.935,-0.8646,2.8515,2.9797,-16.87,2.2273,-7.6837,8.0000,163.83,74,600.0,245.0,1.3627,-4.8322,5.0206,164.25,-8.33,164.25,172.58,True,BACKWARDS,0.500,0,0,RECOVERING,False,False,True,0,True,FORCE_AWAY_FROM_PERSON|BACKWARD_TOWARD_FRONT_PERSON|STUCK_DETECTED,0.00,2
1764572165.1837742,28.186,145,TEST2_OBSTACLE_BYPASS,True,-516.1,3478.4,3516.5,351.56,0.996,0.0,665.7,-388.5,144.68,143.40,144.68,154.39,88.17,0.0064,10.0,-17.027,-0.8674,2.8382,2.9677,-16.99,2.1193,-7.7142,8.0000,164.64,74,600.0,245.0,1.2519,-4.8760,5.0342,165.60,-8.44,165.60,174.04,True,BACKWARDS,0.500,0,0,RECOVERING,False,False,True,0,True,FORCE_AWAY_FROM_PERSON|BACKWARD_TOWARD_FRONT_PERSON|STUCK_DETECTED,0.00,2
1764572165.2263043,28.228,146,TEST2_OBSTACLE_BYPASS,True,-516.1,3478.4,3516.5,351.56,0.996,0.0,670.4,-391.9,144.45,143.12,144.45,154.16,88.17,0.0085,10.0,-17.115,-0.8689,2.8342,2.9644,-17.04,2.1193,-7.7142,8.0000,164.64,74,600.0,245.0,1.2504,-4.8800,5.0377,165.63,-8.44,165.63,174.07,True,BACKWARDS,0.500,0,0,RECOVERING,False,False,True,0,True,FORCE_AWAY_FROM_PERSON|BACKWARD_TOWARD_FRONT_PERSON|STUCK_DETECTED,0.00,2
1764572165.2642107,28.266,147,TEST2_OBSTACLE_BYPASS,True,-517.3,3483.8,3522.0,351.55,0.997,0.0,675.5,-395.6,144.21,143.16,144.21,154.22,88.26,0.0107,10.0,-17.201,-0.8690,2.8261,2.9567,-17.09,2.1369,-7.7093,8.0000,164.51,79,600.0,245.0,1.2679,-4.8832,5.0451,165.44,-8.45,165.44,173.89,True,BACKWARDS,0.500,0,0,RECOVERING,False,False,True,0,True,FORCE_AWAY_FROM_PERSON|BACKWARD_TOWARD_FRONT_PERSON|STUCK_DETECTED,0.00,3
1764572165.3038898,28.306,148,TEST2_OBSTACLE_BYPASS,True,-517.3,3483.8,3522.0,351.55,0.997,0.0,680.1,-398.9,143.99,142.86,143.99,153.97,88.23,-0.0085,10.0,-17.288,-0.8704,2.8223,2.9534,-17.14,2.1369,-7.7093,8.0000,164.51,79,600.0,245.0,1.2666,-4.8871,5.0485,165.47,-8.45,165.47,173.92,True,BACKWARDS,0.500,0,0,RECOVERING,False,False,True,0,True,FORCE_AWAY_FROM_PERSON|BACKWARD_TOWARD_FRONT_PERSON|STUCK_DETECTED,0.00,3
