timestamp,elapsed_time,log_number,test_mode,person_detected,person_x_mm,person_y_mm,person_distance_mm,person_angle_deg,person_confidence,time_since_person_update_ms,robot_x_mm,robot_y_mm,robot_orientation_deg,imu_yaw_raw,imu_yaw_smoothed,imu_roll,imu_pitch,imu_angular_vel_z,imu_update_rate,imu_drift_estimate,attr_force_x,attr_force_y,attr_force_magnitude,attr_force_direction_deg,repul_force_x,repul_force_y,repul_force_magnitude,repul_force_direction_deg,num_obstacles_in_range,closest_obstacle_dist_mm,closest_obstacle_angle_deg,total_force_x,total_force_y,total_force_magnitude,total_force_direction_deg,expected_direction_to_person_deg,force_direction_deg,direction_error_deg,direction_mismatch_flag,commanded_direction,commanded_speed,motor_1_speed,motor_2_speed,nav_state,nav_state_changed,goal_reached,stuck_detected,time_in_current_state_s,anomaly_detected,anomaly_type,calculation_time_ms,obstacles_filtered_for_person
1764574865.9300046,51.119,1,TEST2_OBSTACLE_BYPASS,False,0.0,0.0,0.0,0.00,0.000,0.0,1114.2,-1097.4,114.36,114.45,114.36,156.65,87.24,-0.0117,10.0,0.000,-1.0927,3.1533,3.3372,-19.11,-7.9289,-1.0642,8.0000,-97.64,9,750.0,27.0,-7.7938,1.8047,8.0000,-76.96,0.00,-76.96,0.00,False,NONE,0.000,0,0,SEARCHING,True,False,False,0,False,,0.00,0
1764574865.9686162,51.157,2,TEST2_OBSTACLE_BYPASS,False,0.0,0.0,0.0,0.00,0.000,0.0,1114.2,-1097.4,114.36,114.35,114.36,156.56,87.20,0.0021,10.0,0.000,-1.0927,3.1533,3.3372,-19.11,-7.9208,-1.1227,8.0000,-98.07,9,750.0,27.0,-7.8044,1.7582,8.0000,-77.30,0.00,-77.30,0.00,False,LEFT,0.700,0,0,SEARCHING,False,False,False,0,False,,0.00,0
1764574866.0121396,51.201,3,TEST2_OBSTACLE_BYPASS,False,0.0,0.0,0.0,0.00,0.000,0.0,1114.2,-1097.4,114.36,114.35,114.36,156.56,87.20,-0.0149,10.0,0.000,-1.0927,3.1533,3.3372,-19.11,-7.9208,-1.1227,8.0000,-98.07,9,750.0,27.0,-7.8044,1.7582,8.0000,-77.30,0.00,-77.30,0.00,False,LEFT,0.700,0,0,SEARCHING,False,False,False,0,False,,0.00,0
1764574866.0494971,51.238,4,TEST2_OBSTACLE_BYPASS,False,0.0,0.0,0.0,0.00,0.000,0.0,1114.2,-1097.4,114.36,114.35,114.36,156.56,87.20,-0.0032,10.0,0.000,-1.0927,3.1533,3.3372,-19.11,-7.9208,-1.1227,8.0000,-98.07,9,750.0,27.0,-7.8044,1.7582,8.0000,-77.30,0.00,-77.30,0.00,False,LEFT,0.700,0,0,SEARCHING,False,False,False,0,False,,0.00,0
1764574866.0933344,51.282,5,TEST2_OBSTACLE_BYPASS,False,0.0,0.0,0.0,0.00,0.000,0.0,1114.2,-1097.4,114.36,114.35,114.36,156.56,87.20,0.0053,10.0,0.000,-1.0927,3.1533,3.3372,-19.11,-7.9208,-1.1227,8.0000,-98.07,9,750.0,27.0,-7.8044,1.7582,8.0000,-77.30,0.00,-77.30,0.00,False,LEFT,0.700,0,0,SEARCHING,False,False,False,0,False,,0.00,0
1764574866.1291225,51.318,6,TEST2_OBSTACLE_BYPASS,False,0.0,0.0,0.0,0.00,0.000,0.0,1114.2,-1097.4,114.36,114.35,114.36,156.56,87.20,0.0064,10.0,0.000,-1.0927,3.1533,3.3372,-19.11,-7.9208,-1.1227,8.0000,-98.07,9,750.0,27.0,-7.8044,1.7582,8.0000,-77.30,0.00,-77.30,0.00,False,LEFT,0.700,0,0,SEARCHING,False,False,False,0,False,,0.00,0
1764574866.1723824,51.361,7,TEST2_OBSTACLE_BYPASS,False,0.0,0.0,0.0,0.00,0.000,0.0,1114.2,-1097.4,114.37,114.35,114.37,156.56,87.20,-0.0128,10.0,0.000,-1.0927,3.1533,3.3372,-19.11,-7.9208,-1.1227,8.0000,-98.07,9,750.0,27.0,-7.8044,1.7582,8.0000,-77.30,0.00,-77.30,0.00,False,LEFT,0.700,0,0,SEARCHING,False,False,False,0,False,,0.00,0
1764574866.2102315,51.399,8,TEST2_OBSTACLE_BYPASS,False,0.0,0.0,0.0,0.00,0.000,0.0,1114.2,-1097.4,114.37,114.35,114.37,156.56,87.20,0.0085,10.0,0.000,-1.0927,3.1533,3.3372,-19.11,-7.9316,-1.0440,8.0000,-97.50,9,750.0,27.0,-7.7900,1.8208,8.0000,-76.84,0.00,-76.84,0.00,False,LEFT,0.700,0,0,SEARCHING,False,False,False,0,False,,0.00,0
1764574866.2529597,51.442,9,TEST2_OBSTACLE_BYPASS,False,0.0,0.0,0.0,0.00,0.000,0.0,1114.2,-1097.4,114.37,114.35,114.37,156.56,87.20,0.0043,10.0,0.000,-1.0927,3.1533,3.3372,-19.11,-7.9316,-1.0440,8.0000,-97.50,9,750.0,27.0,-7.7900,1.8208,8.0000,-76.84,0.00,-76.84,0.00,False,LEFT,0.700,0,0,SEARCHING,False,False,False,0,False,,0.00,0
1764574866.2959495,51.484,10,TEST2_OBSTACLE_BYPASS,False,0.0,0.0,0.0,0.00,0.000,0.0,1114.2,-1097.4,114.34,114.19,114.34,156.45,87.11,-0.0075,10.0,0.000,-1.0927,3.1533,3.3372,-19.11,-7.9438,-0.9470,8.0000,-96.80,10,750.0,27.0,-7.7717,1.8975,8.0000,-76.28,0.00,-76.28,0.00,False,LEFT,0.700,0,0,SEARCHING,False,False,True,0,True,STUCK_DETECTED,0.00,0
1764574866.3303204,51.519,11,TEST2_OBSTACLE_BYPASS,False,0.0,0.0,0.0,0.00,0.000,0.0,1114.2,-1097.4,114.34,114.41,114.34,156.64,87.10,-0.0032,10.0,0.000,-1.0927,3.1533,3.3372,-19.11,-7.9438,-0.9470,8.0000,-96.80,10,750.0,27.0,-7.7717,1.8975,8.0000,-76.28,0.00,-76.28,0.00,False,LEFT,0.700,0,0,SEARCHING,False,False,True,0,True,STUCK_DETECTED,0.00,0
1764574866.3740957,51.563,12,TEST2_OBSTACLE_BYPASS,False,0.0,0.0,0.0,0.00,0.000,0.0,1114.2,-1097.4,114.43,115.32,114.43,157.39,87.07,-0.0298,10.0,0.010,-1.0927,3.1533,3.3372,-19.11,-7.9481,-0.9096,8.0000,-96.53,13,750.0,27.0,-7.7645,1.9269,8.0000,-76.06,0.00,-76.06,0.00,False,LEFT,0.700,0,0,SEARCHING,False,False,True,0,True,STUCK_DETECTED,0.00,0
1764574866.4139366,51.602,13,TEST2_OBSTACLE_BYPASS,False,0.0,0.0,0.0,0.00,0.000,0.0,1114.2,-1097.4,114.72,117.19,114.72,158.96,87.16,-0.0341,10.0,0.040,0.0000,0.0000,0.0000,0.00,-7.9481,-0.9096,8.0000,-96.53,13,750.0,27.0,-7.9481,-0.9096,8.0000,-96.53,0.00,-96.53,0.00,False,LEFT,0.700,0,0,SEARCHING,False,False,True,0,True,STUCK_DETECTED,0.00,0
1764574866.4530947,51.642,14,TEST2_OBSTACLE_BYPASS,False,0.0,0.0,0.0,0.00,0.000,0.0,1114.2,-1097.4,115.24,119.57,115.24,161.04,87.10,-0.0874,10.0,0.105,0.0000,0.0000,0.0000,0.00,-7.9218,-1.1161,8.0000,-98.02,12,750.0,27.0,-7.9218,-1.1161,8.0000,-98.02,0.00,-98.02,0.00,False,LEFT,0.700,0,0,SEARCHING,False,False,True,0,True,STUCK_DETECTED,0.00,0
1764574866.4940853,51.683,15,TEST2_OBSTACLE_BYPASS,True,-65.0,2299.9,2300.8,358.38,0.973,0.0,1114.2,-1097.4,116.04,122.35,116.04,163.48,87.19,-0.0501,10.0,0.218,-1.0942,3.1524,3.3369,-19.14,-7.9218,-1.1161,8.0000,-98.02,12,750.0,27.0,-7.8034,1.7625,8.0000,-77.27,-1.62,-77.27,-75.65,False,LEFT,0.700,0,0,NAVIGATING,True,False,True,0,True,STUCK_DETECTED,0.00,1
1764574866.5392566,51.728,16,TEST2_OBSTACLE_BYPASS,True,-65.0,2299.9,2300.8,358.38,0.973,0.0,1114.2,-1097.4,116.77,121.62,116.77,162.47,87.19,0.0660,10.0,0.364,-1.0942,3.1524,3.3369,-19.14,-7.9105,-1.1933,8.0000,-98.58,16,750.0,27.0,-7.8171,1.7007,8.0000,-77.73,-1.62,-77.73,-76.11,False,LEFT,0.700,0,0,STUCK,True,False,True,0,True,STUCK_DETECTED,0.00,1
1764574866.5786095,51.767,17,TEST2_OBSTACLE_BYPASS,True,-65.0,2299.9,2300.8,358.38,0.973,0.0,1114.2,-1097.4,117.22,118.83,117.22,159.29,87.17,0.0852,10.0,0.520,-1.0942,3.1524,3.3369,-19.14,-7.9105,-1.1933,8.0000,-98.58,16,750.0,27.0,-7.8171,1.7007,8.0000,-77.73,-1.62,-77.73,-76.11,False,LEFT,0.700,0,0,STUCK,False,False,True,0,True,STUCK_DETECTED,0.00,1
1764574866.6184292,51.807,18,TEST2_OBSTACLE_BYPASS,True,-65.0,2299.9,2300.8,358.38,0.973,0.0,1114.2,-1097.4,117.49,117.11,117.49,157.07,87.13,0.0703,10.0,0.674,-1.0942,3.1524,3.3369,-19.14,-7.9307,-1.0509,8.0000,-97.55,16,750.0,27.0,-7.7915,1.8143,8.0000,-76.89,-1.62,-76.89,-75.27,False,LEFT,0.700,0,0,STUCK,False,False,True,0,True,STUCK_DETECTED,0.00,2
1764574866.657251,51.846,19,TEST2_OBSTACLE_BYPASS,True,-65.0,2299.9,2300.8,358.38,0.973,0.0,1114.2,-1097.4,117.71,116.50,117.71,155.42,86.94,0.0075,10.0,0.823,-1.0942,3.1524,3.3369,-19.14,-7.8620,-1.4795,8.0000,-100.66,16,750.0,27.0,-7.8640,1.4689,8.0000,-79.42,-1.62,-79.42,-77.80,False,LEFT,0.700,0,0,STUCK,False,False,True,0,True,STUCK_DETECTED,0.00,0
1764574866.7003744,51.889,20,TEST2_OBSTACLE_BYPASS,True,-65.0,2299.9,2300.8,358.38,0.973,0.0,1114.2,-1097.4,118.02,117.24,118.02,155.45,87.01,-0.0298,10.0,0.972,-1.0942,3.1524,3.3369,-19.14,-7.8620,-1.4795,8.0000,-100.66,16,750.0,27.0,-7.8640,1.4689,8.0000,-79.42,-1.62,-79.42,-77.80,False,LEFT,0.700,0,0,STUCK,False,False,True,0,True,STUCK_DETECTED,0.00,0
1764574866.738149,51.927,21,TEST2_OBSTACLE_BYPASS,True,-65.0,2299.9,2300.8,358.38,0.973,0.0,1114.2,-1097.4,118.52,119.48,118.52,156.49,87.00,-0.0575,10.0,1.132,-1.0942,3.1524,3.3369,-19.14,-7.9205,-1.1247,8.0000,-98.08,16,750.0,27.0,-7.8050,1.7556,8.0000,-77.32,-1.62,-77.32,-75.70,False,LEFT,0.700,0,0,STUCK,False,False,True,0,True,STUCK_DETECTED,0.00,1
1764574866.7833211,51.972,22,TEST2_OBSTACLE_BYPASS,True,-65.0,2299.9,2300.8,358.38,0.973,0.0,1114.2,-1097.4,119.19,121.99,119.19,157.55,87.04,-0.0618,10.0,1.308,-1.0942,3.1524,3.3369,-19.14,-7.9205,-1.1247,8.0000,-98.08,16,750.0,27.0,-7.8050,1.7556,8.0000,-77.32,-1.62,-77.32,-75.70,False,LEFT,0.700,0,0,STUCK,False,False,True,0,True,STUCK_DETECTED,0.00,1
1764574866.8146524,52.003,23,TEST2_OBSTACLE_BYPASS,False,0.0,0.0,0.0,0.00,0.000,0.0,1114.2,-1097.4,119.78,123.07,119.78,157.59,87.11,-0.0117,10.0,1.495,-1.0942,3.1524,3.3369,-19.14,-7.8940,-1.2982,8.0000,-99.34,17,750.0,124.0,-7.8350,1.6163,8.0000,-78.34,0.00,-78.34,0.00,False,NONE,0.000,0,0,STUCK,False,False,True,0,True,STUCK_DETECTED,0.00,0
1764574866.8602166,52.049,24,TEST2_OBSTACLE_BYPASS,False,0.0,0.0,0.0,0.00,0.000,0.0,1114.2,-1097.4,120.08,122.59,120.08,156.16,87.11,-0.0064,10.0,1.679,-1.0942,3.1524,3.3369,-19.14,-7.8940,-1.2982,8.0000,-99.34,17,750.0,124.0,-7.8350,1.6163,8.0000,-78.34,0.00,-78.34,0.00,False,NONE,0.000,0,0,STUCK,False,False,True,0,True,STUCK_DETECTED,0.00,0
1764574866.8996358,52.088,25,TEST2_OBSTACLE_BYPASS,False,0.0,0.0,0.0,0.00,0.000,0.0,1114.2,-1097.4,120.16,123.12,120.16,155.37,87.23,-0.0181,10.0,1.851,-1.0942,3.1524,3.3369,-19.14,-7.9556,-0.8419,8.0000,-96.04,15,750.0,124.0,-7.7514,1.9790,8.0000,-75.68,0.00,-75.68,0.00,False,NONE,0.000,0,0,STUCK,False,False,True,0,True,STUCK_DETECTED,0.00,0
1764574866.9387648,52.127,26,TEST2_OBSTACLE_BYPASS,False,0.0,0.0,0.0,0.00,0.000,0.0,1114.2,-1097.4,120.43,124.39,120.43,155.34,87.20,-0.0256,10.0,2.020,-1.0942,3.1524,3.3369,-19.14,-7.9556,-0.8419,8.0000,-96.04,15,750.0,124.0,-7.7514,1.9790,8.0000,-75.68,0.00,-75.68,0.00,False,NONE,0.000,0,0,STUCK,False,False,True,0,True,STUCK_DETECTED,0.00,0
1764574866.9814672,52.170,27,TEST2_OBSTACLE_BYPASS,False,0.0,0.0,0.0,0.00,0.000,0.0,1114.2,-1097.4,121.11,125.63,121.11,155.00,87.10,-0.0107,10.0,2.202,-1.0942,3.1524,3.3369,-19.14,-7.9775,-0.5999,8.0000,-94.30,16,750.0,124.0,-7.7010,2.1668,8.0000,-74.29,0.00,-74.29,0.00,False,NONE,0.000,0,0,STUCK,False,False,True,0,True,STUCK_DETECTED,0.00,0
1764574867.0185797,52.207,28,TEST2_OBSTACLE_BYPASS,False,0.0,0.0,0.0,0.00,0.000,0.0,1114.2,-1097.4,122.06,126.54,122.06,154.83,87.13,-0.0160,10.0,2.406,-1.0942,3.1524,3.3369,-19.14,-7.9775,-0.5999,8.0000,-94.30,16,750.0,124.0,-7.7010,2.1668,8.0000,-74.29,0.00,-74.29,0.00,False,NONE,0.000,0,0,STUCK,False,False,True,0,True,STUCK_DETECTED,0.00,0
1764574867.0611885,52.250,29,TEST2_OBSTACLE_BYPASS,False,0.0,0.0,0.0,0.00,0.000,0.0,1114.2,-1097.4,123.14,127.38,123.14,154.77,87.15,-0.0224,10.0,2.634,-1.0942,3.1524,3.3369,-19.14,-7.9681,0.7141,8.0000,-84.88,17,750.0,130.0,-7.3583,3.1394,8.0000,-66.89,0.00,-66.89,0.00,False,NONE,0.000,0,0,STUCK,False,False,True,0,True,STUCK_DETECTED,0.00,0
1764574867.0986717,52.287,30,TEST2_OBSTACLE_BYPASS,False,0.0,0.0,0.0,0.00,0.000,0.0,1114.2,-1097.4,124.25,128.34,124.25,154.84,87.16,-0.0170,10.0,2.884,-1.0942,3.1524,3.3369,-19.14,-7.9681,0.7141,8.0000,-84.88,17,750.0,130.0,-7.3583,3.1394,8.0000,-66.89,0.00,-66.89,0.00,False,NONE,0.000,0,0,STUCK,False,False,True,0,True,STUCK_DETECTED,0.00,0
1764574867.1413598,52.330,31,TEST2_OBSTACLE_BYPASS,False,0.0,0.0,0.0,0.00,0.000,0.0,1114.2,-1097.4,125.21,129.04,125.21,154.46,87.16,-0.0128,10.0,3.150,-1.0942,3.1524,3.3369,-19.14,-7.8998,1.2622,8.0000,-80.92,17,750.0,130.0,-7.1815,3.5250,8.0000,-63.86,0.00,-63.86,0.00,False,NONE,0.000,0,0,STUCK,False,False,True,0,True,STUCK_DETECTED,0.00,0
1764574867.1779516,52.366,32,TEST2_OBSTACLE_BYPASS,False,0.0,0.0,0.0,0.00,0.000,0.0,1114.2,-1097.4,125.95,129.41,125.95,153.58,87.16,-0.0021,10.0,3.422,-1.0942,3.1524,3.3369,-19.14,-7.8998,1.2622,8.0000,-80.92,17,750.0,130.0,-7.1815,3.5250,8.0000,-63.86,0.00,-63.86,0.00,False,NONE,0.000,0,0,STUCK,False,False,True,0,True,STUCK_DETECTED,0.00,0
1764574867.2216027,52.410,33,TEST2_OBSTACLE_BYPASS,False,0.0,0.0,0.0,0.00,0.000,0.0,1114.2,-1097.4,126.67,130.27,126.67,153.35,87.11,0.0128,10.0,3.700,-1.0942,3.1524,3.3369,-19.14,-6.3325,4.8887,8.0000,-52.33,21,700.0,130.0,-5.4279,5.8769,8.0000,-42.73,0.00,-42.73,0.00,False,NONE,0.000,0,0,STUCK,False,False,True,0,True,STUCK_DETECTED,0.00,0
1764574867.2675977,52.456,34,TEST2_OBSTACLE_BYPASS,True,10.8,3139.5,3139.5,0.20,0.979,0.0,1114.2,-1097.4,127.51,130.95,127.51,153.12,87.06,0.0053,10.0,3.987,-0.6908,2.6524,2.7408,-14.60,-6.3325,4.8887,8.0000,-52.33,21,700.0,130.0,-5.4523,5.8543,8.0000,-42.96,0.20,-42.96,-43.16,False,FORWARDS_LEFT,1.000,0,0,STUCK,False,False,True,0,True,STUCK_DETECTED,0.00,4
1764574867.309013,52.498,35,TEST2_OBSTACLE_BYPASS,True,10.8,3139.5,3139.5,0.20,0.979,0.0,1108.6,-1090.4,128.35,131.60,128.35,152.32,87.06,-0.0053,10.0,4.281,-0.6899,2.6579,2.7460,-14.55,-5.9442,5.3541,8.0000,-47.99,20,700.0,39.0,-5.1021,6.1619,8.0000,-39.62,0.20,-39.62,-39.82,False,FORWARDS_LEFT,1.000,0,0,STUCK,False,False,True,0,True,STUCK_DETECTED,0.00,2
1764574867.3476536,52.536,36,TEST2_OBSTACLE_BYPASS,True,10.8,3139.5,3139.5,0.20,0.979,0.0,1103.3,-1083.8,129.16,132.46,129.16,151.99,87.01,-0.0075,10.0,4.582,-0.6889,2.6632,2.7508,-14.50,-4.9662,6.2719,8.0000,-38.37,31,650.0,137.0,-4.2784,6.7598,8.0000,-32.33,0.20,-32.33,-32.53,False,FORWARDS_LEFT,1.000,0,0,STUCK,False,False,True,0,True,STUCK_DETECTED,0.00,1
1764574867.3885791,52.577,37,TEST2_OBSTACLE_BYPASS,True,10.8,3139.5,3139.5,0.20,0.979,0.0,1097.6,-1077.1,129.97,133.75,129.97,151.95,86.98,-0.0330,10.0,4.888,-0.6879,2.6687,2.7559,-14.45,-4.9662,6.2719,8.0000,-38.37,31,650.0,137.0,-4.2760,6.7614,8.0000,-32.31,0.20,-32.31,-32.51,False,FORWARDS_LEFT,1.000,0,0,STUCK,False,False,True,0,True,STUCK_DETECTED,0.00,1
1764574867.4278853,52.616,38,TEST2_OBSTACLE_BYPASS,True,10.8,3139.5,3139.5,0.20,0.979,0.0,1092.3,-1070.9,130.74,134.25,130.74,151.40,87.05,-0.0170,10.0,5.199,-0.6868,2.6737,2.7605,-14.41,-3.8777,6.9974,8.0000,-28.99,39,650.0,137.0,-3.4146,7.2347,8.0000,-25.27,0.20,-25.27,-25.46,False,FORWARDS_LEFT,1.000,0,0,STUCK,False,False,True,0,True,STUCK_DETECTED,0.00,0
1764574867.4724553,52.661,39,TEST2_OBSTACLE_BYPASS,True,10.8,3139.5,3139.5,0.20,0.979,0.0,1086.4,-1064.2,131.46,134.55,131.46,150.69,86.98,0.0032,10.0,5.513,-0.6856,2.6792,2.7655,-14.35,-3.8777,6.9974,8.0000,-28.99,39,650.0,137.0,-3.4122,7.2358,8.0000,-25.25,0.20,-25.25,-25.44,False,FORWARDS_LEFT,1.000,0,0,STUCK,False,False,True,0,True,STUCK_DETECTED,0.00,0
1764574867.5140033,52.703,40,TEST2_OBSTACLE_BYPASS,True,10.8,3139.5,3139.5,0.20,0.979,0.0,1079.8,-1056.9,132.08,134.51,132.08,149.42,87.07,0.0075,10.0,5.826,-0.6841,2.6853,2.7711,-14.29,-3.5778,7.1554,8.0000,-26.57,44,600.0,43.0,-3.1793,7.3411,8.0000,-23.42,0.20,-23.42,-23.61,False,FORWARDS_LEFT,1.000,0,0,STUCK,False,False,True,0,True,STUCK_DETECTED,0.00,0
1764574867.559586,52.748,41,TEST2_OBSTACLE_BYPASS,True,10.8,3139.5,3139.5,0.20,0.979,0.0,1073.5,-1050.1,132.73,135.59,132.73,148.76,87.03,-0.0277,10.0,6.139,-0.6826,2.6911,2.7763,-14.23,-3.5778,7.1554,8.0000,-26.57,44,600.0,43.0,-3.1768,7.3422,8.0000,-23.40,0.20,-23.40,-23.59,False,FORWARDS_LEFT,1.000,0,0,STUCK,False,False,True,0,True,STUCK_DETECTED,0.00,0
1764574867.5968487,52.785,42,TEST2_OBSTACLE_BYPASS,False,0.0,0.0,0.0,0.00,0.000,0.0,1067.9,-1044.1,133.54,137.50,133.54,149.13,86.95,-0.0256,10.0,6.458,-0.6812,2.6962,2.7809,-14.18,-3.4921,7.1976,8.0000,-25.88,50,600.0,159.0,-3.1092,7.3711,8.0000,-22.87,0.00,-22.87,0.00,False,NONE,0.000,0,0,STUCK,False,False,True,0,True,STUCK_DETECTED,0.00,0
1764574867.6335533,52.822,43,TEST2_OBSTACLE_BYPASS,False,0.0,0.0,0.0,0.00,0.000,0.0,1062.2,-1038.3,134.33,138.18,134.33,148.52,86.96,0.0043,10.0,6.780,-0.6798,2.7012,2.7855,-14.13,-3.4921,7.1976,8.0000,-25.88,50,600.0,159.0,-3.1069,7.3720,8.0000,-22.85,0.00,-22.85,0.00,False,NONE,0.000,0,0,STUCK,False,False,True,0,True,STUCK_DETECTED,0.00,0
1764574867.6818137,52.870,44,TEST2_OBSTACLE_BYPASS,False,0.0,0.0,0.0,0.00,0.000,0.0,1055.7,-1031.9,135.21,139.67,135.21,148.62,86.81,0.0192,10.0,7.107,-0.6781,2.7069,2.7905,-14.06,-3.2730,7.2998,8.0000,-24.15,57,550.0,142.0,-2.9380,7.4410,8.0000,-21.55,0.00,-21.55,0.00,False,NONE,0.000,0,0,STUCK,False,False,True,0,True,STUCK_DETECTED,0.00,0
1764574867.715883,52.904,45,TEST2_OBSTACLE_BYPASS,False,0.0,0.0,0.0,0.00,0.000,0.0,1050.1,-1026.5,136.22,141.73,136.22,149.27,86.47,0.0107,10.0,7.442,-0.6765,2.7117,2.7948,-14.01,-3.2730,7.2998,8.0000,-24.15,57,550.0,142.0,-2.9358,7.4419,8.0000,-21.53,0.00,-21.53,0.00,False,NONE,0.000,0,0,STUCK,False,False,True,0,True,STUCK_DETECTED,0.00,0
1764574867.7631557,52.952,46,TEST2_OBSTACLE_BYPASS,False,0.0,0.0,0.0,0.00,0.000,0.0,1042.7,-1019.8,137.50,145.22,137.50,150.33,86.26,-0.0490,10.0,7.791,-0.6743,2.7178,2.8002,-13.93,-3.4788,7.2040,8.0000,-25.78,60,500.0,143.0,-3.0890,7.3796,8.0000,-22.71,0.00,-22.71,0.00,False,NONE,0.000,0,0,STUCK,False,False,True,0,True,STUCK_DETECTED,0.00,0
1764574867.809644,52.998,47,TEST2_OBSTACLE_BYPASS,False,0.0,0.0,0.0,0.00,0.000,0.0,1036.3,-1014.1,138.83,147.07,138.83,149.93,86.38,-0.0309,10.0,8.154,-0.6723,2.7231,2.8048,-13.87,-3.4788,7.2040,8.0000,-25.78,60,500.0,143.0,-3.0863,7.3807,8.0000,-22.69,0.00,-22.69,0.00,False,NONE,0.000,0,0,STUCK,False,False,True,0,True,STUCK_DETECTED,0.00,0
1764574867.8423676,53.031,48,TEST2_OBSTACLE_BYPASS,False,0.0,0.0,0.0,0.00,0.000,0.0,1030.1,-1009.0,140.17,147.66,140.17,148.83,86.31,-0.0085,10.0,8.529,-0.6703,2.7280,2.8091,-13.80,-3.5730,7.1577,8.0000,-26.53,70,500.0,150.0,-3.1555,7.3514,8.0000,-23.23,0.00,-23.23,0.00,False,NONE,0.000,0,0,STUCK,False,False,True,0,True,STUCK_DETECTED,0.00,0
1764574867.8896601,53.078,49,TEST2_OBSTACLE_BYPASS,False,0.0,0.0,0.0,0.00,0.000,0.0,1022.4,-1002.8,141.48,147.71,141.48,146.41,86.32,0.0352,10.0,8.917,-0.6676,2.7339,2.8142,-13.72,-3.7047,7.0905,8.0000,-27.59,70,450.0,73.0,-3.2528,7.3088,8.0000,-23.99,0.00,-23.99,0.00,False,NONE,0.000,0,0,STUCK,False,False,True,0,True,STUCK_DETECTED,0.00,0
1764574867.9274192,53.116,50,TEST2_OBSTACLE_BYPASS,False,0.0,0.0,0.0,0.00,0.000,0.0,1016.0,-998.0,142.69,146.57,142.69,143.35,86.40,0.0011,10.0,9.313,-0.6654,2.7387,2.8183,-13.66,-3.7047,7.0905,8.0000,-27.59,70,450.0,73.0,-3.2501,7.3100,8.0000,-23.97,0.00,-23.97,0.00,False,NONE,0.000,0,0,STUCK,False,False,True,0,True,STUCK_DETECTED,0.00,0
1764574867.9705782,53.159,51,TEST2_OBSTACLE_BYPASS,False,0.0,0.0,0.0,0.00,0.000,0.0,1008.7,-992.6,143.57,144.37,143.57,138.48,86.48,0.0234,10.0,9.711,-0.6627,2.7441,2.8230,-13.58,-3.5877,7.1504,8.0000,-26.64,67,450.0,158.0,-3.1576,7.3505,8.0000,-23.25,0.00,-23.25,0.00,False,NONE,0.000,0,0,STUCK,False,False,True,0,True,STUCK_DETECTED,0.00,0
1764574868.0075262,53.196,52,TEST2_OBSTACLE_BYPASS,False,0.0,0.0,0.0,0.00,0.000,0.0,1002.1,-987.9,144.40,145.83,144.40,138.09,86.32,0.0181,10.0,10.110,-0.6602,2.7489,2.8270,-13.51,-3.5877,7.1504,8.0000,-26.64,67,450.0,158.0,-3.1547,7.3517,8.0000,-23.22,0.00,-23.22,0.00,False,NONE,0.000,0,0,STUCK,False,False,True,0,True,STUCK_DETECTED,0.00,0
1764574868.0517163,53.240,53,TEST2_OBSTACLE_BYPASS,False,0.0,0.0,0.0,0.00,0.000,0.0,994.8,-982.8,145.47,148.91,145.47,139.35,85.92,0.0032,10.0,10.514,-0.6574,2.7541,2.8314,-13.43,-3.5455,7.1714,8.0000,-26.31,68,450.0,287.0,-3.1194,7.3668,8.0000,-22.95,0.00,-22.95,0.00,False,NONE,0.000,0,0,STUCK,False,False,True,0,True,STUCK_DETECTED,0.00,0
1764574868.088861,53.277,54,TEST2_OBSTACLE_BYPASS,False,0.0,0.0,0.0,0.00,0.000,0.0,988.2,-978.5,146.63,151.27,146.63,140.29,85.72,0.0000,10.0,10.924,-0.6548,2.7586,2.8353,-13.35,-3.5455,7.1714,8.0000,-26.31,68,450.0,287.0,-3.1166,7.3680,8.0000,-22.93,0.00,-22.93,0.00,False,NONE,0.000,0,0,STUCK,False,False,True,0,True,STUCK_DETECTED,0.00,0
1764574868.1343474,53.323,55,TEST2_OBSTACLE_BYPASS,False,0.0,0.0,0.0,0.00,0.000,0.0,980.7,-973.7,147.75,152.88,147.75,140.72,85.69,-0.0277,10.0,11.340,-0.6517,2.7638,2.8396,-13.27,-3.4641,7.2111,8.0000,-25.66,75,400.0,340.0,-3.0514,7.3952,8.0000,-22.42,0.00,-22.42,0.00,False,FORWARDS,1.000,0,0,STUCK,False,False,True,0,True,STUCK_DETECTED,0.00,0
1764574868.1719673,53.361,56,TEST2_OBSTACLE_BYPASS,False,0.0,0.0,0.0,0.00,0.000,0.0,971.0,-967.8,148.58,153.54,148.58,140.31,85.71,-0.0426,10.0,11.756,-0.6476,2.7702,2.8449,-13.16,-3.4641,7.2111,8.0000,-25.66,75,400.0,340.0,-3.0471,7.3970,8.0000,-22.39,0.00,-22.39,0.00,False,FORWARDS,1.000,0,0,STUCK,False,False,True,0,True,STUCK_DETECTED,0.00,0
1764574868.2134278,53.402,57,TEST2_OBSTACLE_BYPASS,False,0.0,0.0,0.0,0.00,0.000,0.0,960.1,-961.3,149.17,152.93,149.17,139.23,85.98,-0.0724,10.0,12.168,-0.6429,2.7774,2.8509,-13.03,-3.4235,7.2305,8.0000,-25.34,80,400.0,340.0,-3.0114,7.4116,8.0000,-22.11,0.00,-22.11,0.00,False,FORWARDS,1.000,0,0,STUCK,False,False,True,0,True,STUCK_DETECTED,0.00,0
1764574868.2500622,53.439,58,TEST2_OBSTACLE_BYPASS,False,0.0,0.0,0.0,0.00,0.000,0.0,950.3,-955.6,149.67,152.74,149.67,138.76,86.25,-0.0575,10.0,12.574,-0.6387,2.7839,2.8562,-12.92,-3.4235,7.2305,8.0000,-25.34,80,400.0,340.0,-3.0071,7.4133,8.0000,-22.08,0.00,-22.08,0.00,False,FORWARDS,1.000,0,0,STUCK,False,False,True,0,True,STUCK_DETECTED,0.00,0
1764574868.2948477,53.483,59,TEST2_OBSTACLE_BYPASS,False,0.0,0.0,0.0,0.00,0.000,0.0,939.2,-949.3,150.27,153.70,150.27,139.32,86.40,-0.0394,10.0,12.977,-0.6338,2.7910,2.8620,-12.79,-3.1398,7.3581,8.0000,-23.11,84,400.0,29.0,-2.7880,7.4985,8.0000,-20.40,0.00,-20.40,0.00,False,FORWARDS,1.000,0,0,STUCK,False,False,True,0,True,STUCK_DETECTED,0.00,0
1764574868.3353562,53.524,60,TEST2_OBSTACLE_BYPASS,False,0.0,0.0,0.0,0.00,0.000,0.0,928.5,-943.4,151.12,155.07,151.12,140.34,86.38,0.0138,10.0,13.380,-0.6289,2.7978,2.8676,-12.67,-3.1398,7.3581,8.0000,-23.11,84,400.0,29.0,-2.7832,7.5002,8.0000,-20.36,0.00,-20.36,0.00,False,FORWARDS,1.000,0,0,SEARCHING,True,False,False,0,False,,0.00,0
1764574868.3740869,53.563,61,TEST2_OBSTACLE_BYPASS,False,0.0,0.0,0.0,0.00,0.000,0.0,917.4,-937.5,152.26,155.72,152.26,140.55,86.20,0.0490,10.0,13.789,-0.6237,2.8046,2.8731,-12.54,-2.6772,7.5387,8.0000,-19.55,78,400.0,29.0,-2.4322,7.6213,8.0000,-17.70,0.00,-17.70,0.00,False,FORWARDS,1.000,0,0,SEARCHING,False,False,False,0,False,,0.00,0
1764574868.4231198,53.612,62,TEST2_OBSTACLE_BYPASS,False,0.0,0.0,0.0,0.00,0.000,0.0,906.0,-931.8,153.22,155.43,153.22,139.52,85.96,0.0330,10.0,14.200,-0.6182,2.8116,2.8787,-12.40,-2.6772,7.5387,8.0000,-19.55,78,400.0,29.0,-2.4271,7.6229,8.0000,-17.66,0.00,-17.66,0.00,False,FORWARDS,1.000,0,0,SEARCHING,False,False,False,0,False,,0.00,0
1764574868.4574,53.646,63,TEST2_OBSTACLE_BYPASS,False,0.0,0.0,0.0,0.00,0.000,0.0,895.8,-926.8,153.91,155.83,153.91,139.09,85.89,-0.0181,10.0,14.609,-0.6133,2.8177,2.8836,-12.28,-2.2806,7.6681,8.0000,-16.56,80,400.0,29.0,-2.1282,7.7117,8.0000,-15.43,0.00,-15.43,0.00,False,FORWARDS,1.000,0,0,SEARCHING,False,False,False,0,False,,0.00,0
1764574868.50507,53.694,64,TEST2_OBSTACLE_BYPASS,False,0.0,0.0,0.0,0.00,0.000,0.0,884.2,-921.2,154.40,156.20,154.40,138.90,86.03,-0.0288,10.0,15.013,-0.6075,2.8245,2.8891,-12.14,-2.2806,7.6681,8.0000,-16.56,80,400.0,29.0,-2.1230,7.7131,8.0000,-15.39,0.00,-15.39,0.00,False,FORWARDS,1.000,0,0,SEARCHING,False,False,False,0,False,,0.00,0
1764574868.5372758,53.726,65,TEST2_OBSTACLE_BYPASS,False,0.0,0.0,0.0,0.00,0.000,0.0,874.0,-916.3,154.48,153.66,154.48,136.11,86.07,0.1023,10.0,15.405,-0.6024,2.8305,2.8939,-12.02,-2.2000,7.6916,8.0000,-15.96,84,400.0,295.0,-2.0589,7.7305,8.0000,-14.91,0.00,-14.91,0.00,False,FORWARDS,1.000,0,0,SEARCHING,False,False,False,0,False,,0.00,0
1764574868.5842576,53.773,66,TEST2_OBSTACLE_BYPASS,False,0.0,0.0,0.0,0.00,0.000,0.0,862.0,-910.4,153.49,143.61,153.49,126.20,86.07,0.1672,10.0,15.770,0.0000,0.0000,0.0000,0.00,-2.0992,7.7197,8.0000,-15.21,90,400.0,295.0,-2.0992,7.7197,8.0000,-15.21,0.00,-15.21,0.00,False,FORWARDS,1.000,0,0,SEARCHING,False,False,False,0,False,,0.00,0
1764574868.6264973,53.815,67,TEST2_OBSTACLE_BYPASS,False,0.0,0.0,0.0,0.00,0.000,0.0,849.7,-903.8,152.15,139.52,152.15,121.83,85.87,0.0309,10.0,16.104,0.0000,0.0000,0.0000,0.00,-2.0992,7.7197,8.0000,-15.21,90,400.0,295.0,-2.0992,7.7197,8.0000,-15.21,0.00,-15.21,0.00,False,FORWARDS,1.000,0,0,SEARCHING,False,False,False,0,False,,0.00,0
1764574868.665841,53.854,68,TEST2_OBSTACLE_BYPASS,False,0.0,0.0,0.0,0.00,0.000,0.0,839.6,-898.3,151.03,141.59,151.03,123.74,85.83,-0.0501,10.0,16.411,0.0000,0.0000,0.0000,0.00,-1.9042,7.7701,8.0000,-13.77,99,400.0,295.0,-1.9042,7.7701,8.0000,-13.77,0.00,-13.77,0.00,False,FORWARDS,1.000,0,0,SEARCHING,False,False,False,0,False,,0.00,0
1764574868.7103782,53.899,69,TEST2_OBSTACLE_BYPASS,False,0.0,0.0,0.0,0.00,0.000,0.0,828.6,-892.0,150.13,144.71,150.13,126.80,85.86,-0.0288,10.0,16.696,0.0000,0.0000,0.0000,0.00,-1.9042,7.7701,8.0000,-13.77,99,400.0,295.0,-1.9042,7.7701,8.0000,-13.77,0.00,-13.77,0.00,False,FORWARDS,1.000,0,0,SEARCHING,False,False,False,0,False,,0.00,0
1764574868.7536907,53.942,70,TEST2_OBSTACLE_BYPASS,False,0.0,0.0,0.0,0.00,0.000,0.0,817.5,-885.3,149.18,145.54,149.18,127.61,85.79,0.0288,10.0,16.959,0.0000,0.0000,0.0000,0.00,-1.6358,7.8310,8.0000,-11.80,104,400.0,295.0,-1.6358,7.8310,8.0000,-11.80,0.00,-11.80,0.00,False,FORWARDS,1.000,0,0,SEARCHING,False,False,False,0,False,,0.00,0
1764574868.7937121,53.982,71,TEST2_OBSTACLE_BYPASS,False,0.0,0.0,0.0,0.00,0.000,0.0,806.9,-878.7,148.02,144.08,148.02,126.18,85.66,0.0852,10.0,17.197,0.0000,0.0000,0.0000,0.00,-1.6358,7.8310,8.0000,-11.80,104,400.0,295.0,-1.6358,7.8310,8.0000,-11.80,0.00,-11.80,0.00,False,FORWARDS,1.000,0,0,SEARCHING,False,False,False,0,False,,0.00,0
1764574868.8302753,54.019,72,TEST2_OBSTACLE_BYPASS,False,0.0,0.0,0.0,0.00,0.000,0.0,797.4,-872.4,146.63,141.58,146.63,123.66,85.60,0.0799,10.0,17.410,0.0000,0.0000,0.0000,0.00,-1.3361,7.8876,8.0000,-9.61,104,400.0,295.0,-1.3361,7.8876,8.0000,-9.61,0.00,-9.61,0.00,False,FORWARDS,1.000,0,0,SEARCHING,False,False,False,0,False,,0.00,0
1764574868.8828444,54.071,73,TEST2_OBSTACLE_BYPASS,False,0.0,0.0,0.0,0.00,0.000,0.0,785.6,-864.2,145.09,140.44,145.09,122.48,85.54,0.0149,10.0,17.595,0.0000,0.0000,0.0000,0.00,-1.3361,7.8876,8.0000,-9.61,104,400.0,295.0,-1.3361,7.8876,8.0000,-9.61,0.00,-9.61,0.00,False,FORWARDS,1.000,0,0,SEARCHING,False,False,False,0,False,,0.00,0
1764574868.9193904,54.108,74,TEST2_OBSTACLE_BYPASS,False,0.0,0.0,0.0,0.00,0.000,0.0,775.9,-857.0,143.57,140.95,143.57,122.87,85.61,-0.0426,10.0,17.754,0.0000,0.0000,0.0000,0.00,-1.1087,7.9228,8.0000,-7.97,107,400.0,295.0,-1.1087,7.9228,8.0000,-7.97,0.00,-7.97,0.00,False,FORWARDS,1.000,0,0,SEARCHING,False,False,False,0,False,,0.00,0
1764574868.9569972,54.146,75,TEST2_OBSTACLE_BYPASS,False,0.0,0.0,0.0,0.00,0.000,0.0,766.7,-850.0,142.51,143.08,142.51,124.91,85.62,-0.0394,10.0,17.894,0.0000,0.0000,0.0000,0.00,-1.1087,7.9228,8.0000,-7.97,107,400.0,295.0,-1.1087,7.9228,8.0000,-7.97,0.00,-7.97,0.00,False,FORWARDS,1.000,0,0,SEARCHING,False,False,False,0,False,,0.00,0
1764574868.9981253,54.187,76,TEST2_OBSTACLE_BYPASS,False,0.0,0.0,0.0,0.00,0.000,0.0,757.0,-842.6,142.60,144.46,142.60,126.18,85.66,-0.0288,10.0,18.032,0.0000,0.0000,0.0000,0.00,-0.9781,7.9400,8.0000,-7.02,110,400.0,295.0,-0.9781,7.9400,8.0000,-7.02,0.00,-7.02,0.00,False,FORWARDS,1.000,0,0,SEARCHING,False,False,False,0,False,,0.00,0
1764574869.2457206,54.434,77,TEST2_OBSTACLE_BYPASS,False,0.0,0.0,0.0,0.00,0.000,0.0,700.8,-800.0,142.84,142.00,142.84,123.45,85.73,-0.0202,10.0,18.170,0.0000,0.0000,0.0000,0.00,-0.4615,7.9867,8.0000,-3.31,136,400.0,295.0,-0.4615,7.9867,8.0000,-3.31,0.00,-3.31,0.00,False,FORWARDS,1.000,0,0,SEARCHING,False,False,False,0,False,,0.00,0
1764574869.274613,54.463,78,TEST2_OBSTACLE_BYPASS,False,0.0,0.0,0.0,0.00,0.000,0.0,691.5,-793.0,142.93,142.47,142.93,123.95,85.79,-0.0160,10.0,18.305,0.0000,0.0000,0.0000,0.00,-0.0410,7.9999,8.0000,-0.29,147,400.0,295.0,-0.0410,7.9999,8.0000,-0.29,0.00,-0.29,0.00,False,FORWARDS,1.000,0,0,SEARCHING,False,False,False,0,False,,0.00,0
1764574869.3179467,54.506,79,TEST2_OBSTACLE_BYPASS,False,0.0,0.0,0.0,0.00,0.000,0.0,680.5,-784.6,142.76,142.98,142.76,124.40,85.66,0.0021,10.0,18.434,0.0000,0.0000,0.0000,0.00,-0.0065,8.0000,8.0000,-0.05,151,450.0,44.0,-0.0065,8.0000,8.0000,-0.05,0.00,-0.05,0.00,False,FORWARDS,1.000,0,0,SEARCHING,False,False,False,0,False,,0.00,0
1764574869.357791,54.546,80,TEST2_OBSTACLE_BYPASS,False,0.0,0.0,0.0,0.00,0.000,0.0,670.9,-777.2,142.53,143.31,142.53,124.64,85.61,0.0383,10.0,18.558,0.0000,0.0000,0.0000,0.00,0.8466,7.9551,8.0000,6.07,165,450.0,44.0,0.8466,7.9551,8.0000,6.07,0.00,6.07,0.00,False,FORWARDS,1.000,0,0,SEARCHING,False,False,False,0,False,,0.00,0
1764574869.397384,54.586,81,TEST2_OBSTACLE_BYPASS,False,0.0,0.0,0.0,0.00,0.000,0.0,661.5,-770.1,142.44,143.15,142.44,124.41,85.53,0.0011,10.0,18.677,0.0000,0.0000,0.0000,0.00,0.8466,7.9551,8.0000,6.07,165,450.0,44.0,0.8466,7.9551,8.0000,6.07,0.00,6.07,0.00,False,FORWARDS,1.000,0,0,SEARCHING,False,False,False,0,False,,0.00,0
1764574869.4427319,54.631,82,TEST2_OBSTACLE_BYPASS,False,0.0,0.0,0.0,0.00,0.000,0.0,651.5,-762.4,142.57,142.84,142.57,123.99,85.62,-0.0309,10.0,18.795,0.0000,0.0000,0.0000,0.00,2.2209,7.6855,8.0000,16.12,166,450.0,44.0,2.2209,7.6855,8.0000,16.12,0.00,16.12,0.00,False,FORWARDS,1.000,0,0,SEARCHING,False,False,False,0,False,,0.00,0
1764574869.4776912,54.666,83,TEST2_OBSTACLE_BYPASS,False,0.0,0.0,0.0,0.00,0.000,0.0,642.4,-755.5,142.77,142.51,142.77,123.61,85.68,-0.0352,10.0,18.912,0.0000,0.0000,0.0000,0.00,2.2209,7.6855,8.0000,16.12,166,450.0,44.0,2.2209,7.6855,8.0000,16.12,0.00,16.12,0.00,False,FORWARDS,1.000,0,0,SEARCHING,False,False,False,0,False,,0.00,0
1764574869.5201964,54.709,84,TEST2_OBSTACLE_BYPASS,False,0.0,0.0,0.0,0.00,0.000,0.0,632.6,-748.1,142.95,142.67,142.95,123.80,85.82,-0.0234,10.0,19.029,0.0000,0.0000,0.0000,0.00,2.5885,7.5697,8.0000,18.88,161,450.0,56.0,2.5885,7.5697,8.0000,18.88,0.00,18.88,0.00,False,FORWARDS,1.000,0,0,SEARCHING,False,False,False,0,False,,0.00,0
1764574869.559167,54.748,85,TEST2_OBSTACLE_BYPASS,False,0.0,0.0,0.0,0.00,0.000,0.0,623.4,-741.1,142.91,142.77,142.91,123.91,85.80,0.0043,10.0,19.142,0.0000,0.0000,0.0000,0.00,2.5885,7.5697,8.0000,18.88,161,450.0,56.0,2.5885,7.5697,8.0000,18.88,0.00,18.88,0.00,False,FORWARDS,1.000,0,0,SEARCHING,False,False,False,0,False,,0.00,0
1764574869.6009283,54.789,86,TEST2_OBSTACLE_BYPASS,False,0.0,0.0,0.0,0.00,0.000,0.0,613.4,-733.5,142.80,143.34,142.80,124.51,85.79,0.0160,10.0,19.252,0.0000,0.0000,0.0000,0.00,2.8697,7.4676,8.0000,21.02,138,400.0,47.0,2.8697,7.4676,8.0000,21.02,0.00,21.02,0.00,False,FORWARDS,1.000,0,0,SEARCHING,False,False,False,0,False,,0.00,0
1764574869.6398656,54.828,87,TEST2_OBSTACLE_BYPASS,False,0.0,0.0,0.0,0.00,0.000,0.0,603.9,-726.4,142.89,142.92,142.89,124.05,85.68,-0.0309,10.0,19.360,0.0000,0.0000,0.0000,0.00,2.8697,7.4676,8.0000,21.02,138,400.0,47.0,2.8697,7.4676,8.0000,21.02,0.00,21.02,0.00,False,FORWARDS,1.000,0,0,SEARCHING,False,False,False,0,False,,0.00,0
1764574869.680657,54.869,88,TEST2_OBSTACLE_BYPASS,False,0.0,0.0,0.0,0.00,0.000,0.0,594.2,-719.0,142.80,141.54,142.80,122.64,85.83,-0.0085,10.0,19.464,0.0000,0.0000,0.0000,0.00,2.8129,7.4892,8.0000,20.59,121,400.0,47.0,2.8129,7.4892,8.0000,20.59,0.00,20.59,0.00,False,FORWARDS,1.000,0,0,SEARCHING,False,False,False,0,False,,0.00,0
1764574869.7190368,54.908,89,TEST2_OBSTACLE_BYPASS,False,0.0,0.0,0.0,0.00,0.000,0.0,584.9,-711.9,142.63,141.24,142.63,122.36,85.85,-0.2418,10.0,19.564,0.0000,0.0000,0.0000,0.00,2.8129,7.4892,8.0000,20.59,121,400.0,47.0,2.8129,7.4892,8.0000,20.59,0.00,20.59,0.00,False,FORWARDS,1.000,0,0,SEARCHING,False,False,False,0,False,,0.00,0
1764574869.7614958,54.950,90,TEST2_OBSTACLE_BYPASS,False,0.0,0.0,0.0,0.00,0.000,0.0,575.2,-704.1,141.51,132.11,141.51,113.48,86.77,-0.1150,10.0,19.649,0.0000,0.0000,0.0000,0.00,2.7453,7.5142,8.0000,20.07,113,450.0,47.0,2.7453,7.5142,8.0000,20.07,0.00,20.07,0.00,False,FORWARDS,1.000,0,0,SEARCHING,False,False,False,0,False,,0.00,0
1764574869.7995527,54.988,91,TEST2_OBSTACLE_BYPASS,False,0.0,0.0,0.0,0.00,0.000,0.0,566.4,-696.8,140.18,129.92,140.18,111.46,86.89,0.0362,10.0,19.718,0.0000,0.0000,0.0000,0.00,2.7453,7.5142,8.0000,20.07,113,450.0,47.0,2.7453,7.5142,8.0000,20.07,0.00,20.07,0.00,False,FORWARDS,1.000,0,0,SEARCHING,False,False,False,0,False,,0.00,0
1764574869.8394704,55.028,92,TEST2_OBSTACLE_BYPASS,False,0.0,0.0,0.0,0.00,0.000,0.0,556.8,-688.8,139.86,139.57,139.86,120.89,86.11,0.1491,10.0,19.782,0.0000,0.0000,0.0000,0.00,2.8490,7.4755,8.0000,20.86,122,400.0,48.0,2.8490,7.4755,8.0000,20.86,0.00,20.86,0.00,False,FORWARDS,1.000,0,0,SEARCHING,False,False,False,0,False,,0.00,0
1764574869.8823266,55.071,93,TEST2_OBSTACLE_BYPASS,False,0.0,0.0,0.0,0.00,0.000,0.0,547.2,-680.6,139.93,143.20,139.93,124.17,85.62,0.1332,10.0,19.844,0.0000,0.0000,0.0000,0.00,2.8490,7.4755,8.0000,20.86,122,400.0,48.0,2.8490,7.4755,8.0000,20.86,0.00,20.86,0.00,False,FORWARDS,1.000,0,0,SEARCHING,False,False,False,0,False,,0.00,0
1764574869.9190574,55.108,94,TEST2_OBSTACLE_BYPASS,False,0.0,0.0,0.0,0.00,0.000,0.0,538.4,-673.3,139.98,143.19,139.98,123.68,85.39,0.0128,10.0,19.907,0.0000,0.0000,0.0000,0.00,4.4741,6.6319,8.0000,34.00,126,450.0,48.0,4.4741,6.6319,8.0000,34.00,0.00,34.00,0.00,False,FORWARDS_RIGHT,1.000,0,0,SEARCHING,False,False,False,0,False,,0.00,0
1764574869.9626212,55.151,95,TEST2_OBSTACLE_BYPASS,False,0.0,0.0,0.0,0.00,0.000,0.0,531.7,-667.6,139.97,142.65,139.97,122.85,85.62,-0.1033,10.0,19.967,0.0000,0.0000,0.0000,0.00,4.4741,6.6319,8.0000,34.00,126,450.0,48.0,4.4741,6.6319,8.0000,34.00,0.00,34.00,0.00,False,FORWARDS_RIGHT,1.000,0,0,SEARCHING,False,False,False,0,False,,0.00,0
1764574869.9999738,55.189,96,TEST2_OBSTACLE_BYPASS,False,0.0,0.0,0.0,0.00,0.000,0.0,525.6,-662.5,139.93,142.94,139.93,123.10,85.82,-0.0937,10.0,20.026,0.0000,0.0000,0.0000,0.00,4.4155,6.6711,8.0000,33.50,129,400.0,48.0,4.4155,6.6711,8.0000,33.50,0.00,33.50,0.00,False,FORWARDS_RIGHT,1.000,0,0,SEARCHING,False,False,False,0,False,,0.00,0
1764574870.0404363,55.229,97,TEST2_OBSTACLE_BYPASS,False,0.0,0.0,0.0,0.00,0.000,0.0,519.2,-657.1,140.00,143.69,140.00,124.00,85.99,-0.0288,10.0,20.085,0.0000,0.0000,0.0000,0.00,4.4155,6.6711,8.0000,33.50,129,400.0,48.0,4.4155,6.6711,8.0000,33.50,0.00,33.50,0.00,False,FORWARDS_RIGHT,1.000,0,0,SEARCHING,False,False,False,0,False,,0.00,0
1764574870.0804715,55.269,98,TEST2_OBSTACLE_BYPASS,False,0.0,0.0,0.0,0.00,0.000,0.0,512.9,-651.8,140.05,142.02,140.05,122.58,86.30,0.0352,10.0,20.143,0.0000,0.0000,0.0000,0.00,4.3992,6.6819,8.0000,33.36,123,450.0,48.0,4.3992,6.6819,8.0000,33.36,0.00,33.36,0.00,False,FORWARDS_RIGHT,1.000,0,0,SEARCHING,False,False,False,0,False,,0.00,0
1764574870.1199949,55.309,99,TEST2_OBSTACLE_BYPASS,False,0.0,0.0,0.0,0.00,0.000,0.0,506.4,-646.4,139.96,140.33,139.96,121.05,86.21,0.0192,10.0,20.198,0.0000,0.0000,0.0000,0.00,4.3992,6.6819,8.0000,33.36,123,450.0,48.0,4.3992,6.6819,8.0000,33.36,0.00,33.36,0.00,False,FORWARDS_RIGHT,1.000,0,0,SEARCHING,False,False,True,0,True,STUCK_DETECTED,0.00,0
1764574870.160966,55.350,100,TEST2_OBSTACLE_BYPASS,False,0.0,0.0,0.0,0.00,0.000,0.0,499.7,-640.9,140.66,139.12,140.66,119.88,86.33,-0.0160,10.0,20.260,0.0000,0.0000,0.0000,0.00,4.9369,6.2950,8.0000,38.11,127,400.0,48.0,4.9369,6.2950,8.0000,38.11,0.00,38.11,0.00,False,FORWARDS_RIGHT,1.000,0,0,SEARCHING,False,False,True,0,True,STUCK_DETECTED,0.00,0
1764574870.2058983,55.394,101,TEST2_OBSTACLE_BYPASS,False,0.0,0.0,0.0,0.00,0.000,0.0,492.6,-635.3,141.62,139.53,141.62,120.28,86.40,-0.0266,10.0,20.330,0.0000,0.0000,0.0000,0.00,4.9369,6.2950,8.0000,38.11,127,400.0,48.0,4.9369,6.2950,8.0000,38.11,0.00,38.11,0.00,False,FORWARDS_RIGHT,1.000,0,0,SEARCHING,False,False,True,0,True,STUCK_DETECTED,0.00,0
1764574870.2411628,55.430,102,TEST2_OBSTACLE_BYPASS,False,0.0,0.0,0.0,0.00,0.000,0.0,486.5,-630.5,141.70,140.29,141.70,121.01,86.36,0.0138,10.0,20.604,0.0000,0.0000,0.0000,0.00,5.5036,5.8060,8.0000,43.47,128,400.0,48.0,5.5036,5.8060,8.0000,43.47,0.00,43.47,0.00,False,FORWARDS_RIGHT,1.000,0,0,SEARCHING,False,False,True,0,True,STUCK_DETECTED,0.00,0
1764574870.283383,55.472,103,TEST2_OBSTACLE_BYPASS,False,0.0,0.0,0.0,0.00,0.000,0.0,479.8,-625.1,141.42,140.48,141.42,121.23,86.38,0.0032,10.0,20.874,0.0000,0.0000,0.0000,0.00,5.5036,5.8060,8.0000,43.47,128,400.0,48.0,5.5036,5.8060,8.0000,43.47,0.00,43.47,0.00,False,FORWARDS_RIGHT,1.000,0,0,SEARCHING,False,False,True,0,True,STUCK_DETECTED,0.00,0
1764574870.324865,55.513,104,TEST2_OBSTACLE_BYPASS,False,0.0,0.0,0.0,0.00,0.000,0.0,473.1,-619.7,141.18,140.77,141.18,121.46,86.37,0.0181,10.0,21.142,0.0000,0.0000,0.0000,0.00,6.2873,4.9467,8.0000,51.80,135,400.0,48.0,6.2873,4.9467,8.0000,51.80,0.00,51.80,0.00,False,FORWARDS_RIGHT,1.000,0,0,SEARCHING,False,False,True,0,True,STUCK_DETECTED,0.00,0
1764574870.3674371,55.556,105,TEST2_OBSTACLE_BYPASS,False,0.0,0.0,0.0,0.00,0.000,0.0,465.9,-613.9,140.92,140.07,140.92,120.78,86.32,0.0043,10.0,21.408,0.0000,0.0000,0.0000,0.00,6.2873,4.9467,8.0000,51.80,135,400.0,48.0,6.2873,4.9467,8.0000,51.80,0.00,51.80,0.00,False,FORWARDS_RIGHT,1.000,0,0,SEARCHING,False,False,True,0,True,STUCK_DETECTED,0.00,0
1764574870.408227,55.597,106,TEST2_OBSTACLE_BYPASS,False,0.0,0.0,0.0,0.00,0.000,0.0,459.2,-608.3,140.61,139.77,140.61,120.47,86.31,-0.0352,10.0,21.670,0.0000,0.0000,0.0000,0.00,7.9024,1.2459,8.0000,81.04,149,400.0,48.0,7.9024,1.2459,8.0000,81.04,0.00,81.04,0.00,False,RIGHT,0.700,0,0,SEARCHING,False,False,True,0,True,STUCK_DETECTED,0.00,0
1764574870.447691,55.636,107,TEST2_OBSTACLE_BYPASS,False,0.0,0.0,0.0,0.00,0.000,0.0,459.2,-608.3,140.24,139.99,140.24,120.73,86.46,-0.0309,10.0,21.929,0.0000,0.0000,0.0000,0.00,7.6711,2.2704,8.0000,73.51,150,400.0,48.0,7.6711,2.2704,8.0000,73.51,0.00,73.51,0.00,False,RIGHT,0.700,0,0,SEARCHING,False,False,True,0,True,STUCK_DETECTED,0.00,0
1764574870.4888015,55.677,108,TEST2_OBSTACLE_BYPASS,False,0.0,0.0,0.0,0.00,0.000,0.0,459.2,-608.3,140.06,140.27,140.06,121.04,86.49,-0.0032,10.0,22.186,0.0000,0.0000,0.0000,0.00,7.6711,2.2704,8.0000,73.51,150,400.0,48.0,7.6711,2.2704,8.0000,73.51,0.00,73.51,0.00,False,RIGHT,0.700,0,0,SEARCHING,False,False,True,0,True,STUCK_DETECTED,0.00,0
1764574870.5283835,55.717,109,TEST2_OBSTACLE_BYPASS,False,0.0,0.0,0.0,0.00,0.000,0.0,459.2,-608.3,140.03,140.03,140.03,120.80,86.46,0.0586,10.0,22.443,0.0000,0.0000,0.0000,0.00,6.3594,4.8537,8.0000,52.65,144,400.0,48.0,6.3594,4.8537,8.0000,52.65,0.00,52.65,0.00,False,FORWARDS_RIGHT,1.000,0,0,SEARCHING,False,False,True,0,True,STUCK_DETECTED,0.00,0
1764574870.5694578,55.758,110,TEST2_OBSTACLE_BYPASS,False,0.0,0.0,0.0,0.00,0.000,0.0,452.4,-602.7,140.04,139.22,140.04,119.97,86.40,0.0373,10.0,22.700,0.0000,0.0000,0.0000,0.00,6.3594,4.8537,8.0000,52.65,144,400.0,48.0,6.3594,4.8537,8.0000,52.65,0.00,52.65,0.00,False,FORWARDS_RIGHT,1.000,0,0,SEARCHING,False,False,True,0,True,STUCK_DETECTED,0.00,0
1764574870.6059122,55.794,111,TEST2_OBSTACLE_BYPASS,False,0.0,0.0,0.0,0.00,0.000,0.0,446.4,-597.6,139.99,139.03,139.99,119.76,86.34,0.0043,10.0,22.956,0.0000,0.0000,0.0000,0.00,2.2879,7.6659,8.0000,16.62,131,400.0,48.0,2.2879,7.6659,8.0000,16.62,0.00,16.62,0.00,False,FORWARDS,1.000,0,0,SEARCHING,False,False,True,0,True,STUCK_DETECTED,0.00,0
1764574870.6491914,55.838,112,TEST2_OBSTACLE_BYPASS,False,0.0,0.0,0.0,0.00,0.000,0.0,436.7,-589.5,139.88,139.13,139.88,119.83,86.34,-0.0309,10.0,23.211,0.0000,0.0000,0.0000,0.00,2.2879,7.6659,8.0000,16.62,131,400.0,48.0,2.2879,7.6659,8.0000,16.62,0.00,16.62,0.00,False,FORWARDS,1.000,0,0,SEARCHING,False,False,True,0,True,STUCK_DETECTED,0.00,0
1764574870.6880865,55.877,113,TEST2_OBSTACLE_BYPASS,False,0.0,0.0,0.0,0.00,0.000,0.0,428.0,-582.1,139.77,139.39,139.77,120.10,86.43,-0.0277,10.0,23.461,0.0000,0.0000,0.0000,0.00,1.2859,7.8960,8.0000,9.25,120,400.0,48.0,1.2859,7.8960,8.0000,9.25,0.00,9.25,0.00,False,FORWARDS,1.000,0,0,SEARCHING,False,False,True,0,True,STUCK_DETECTED,0.00,0
1764574870.7300408,55.919,114,TEST2_OBSTACLE_BYPASS,False,0.0,0.0,0.0,0.00,0.000,0.0,418.0,-573.6,139.41,137.20,139.41,117.92,86.73,0.0064,10.0,23.703,0.0000,0.0000,0.0000,0.00,1.2859,7.8960,8.0000,9.25,120,400.0,48.0,1.2859,7.8960,8.0000,9.25,0.00,9.25,0.00,False,FORWARDS,1.000,0,0,SEARCHING,False,False,True,0,True,STUCK_DETECTED,0.00,0
1764574870.7694323,55.958,115,TEST2_OBSTACLE_BYPASS,False,0.0,0.0,0.0,0.00,0.000,0.0,409.3,-566.0,139.09,136.89,139.09,117.61,86.71,0.0064,10.0,23.933,0.0000,0.0000,0.0000,0.00,0.1112,7.9992,8.0000,0.80,124,400.0,48.0,0.1112,7.9992,8.0000,0.80,0.00,0.80,0.00,False,FORWARDS,1.000,0,0,SEARCHING,False,False,True,0,True,STUCK_DETECTED,0.00,0
1764574870.8088071,55.997,116,TEST2_OBSTACLE_BYPASS,False,0.0,0.0,0.0,0.00,0.000,0.0,400.6,-558.3,138.81,136.96,138.81,117.69,86.70,0.0117,10.0,24.154,0.0000,0.0000,0.0000,0.00,0.1112,7.9992,8.0000,0.80,124,400.0,48.0,0.1112,7.9992,8.0000,0.80,0.00,0.80,0.00,False,FORWARDS,1.000,0,0,SEARCHING,False,False,True,0,True,STUCK_DETECTED,0.00,0
1764574870.8491702,56.038,117,TEST2_OBSTACLE_BYPASS,False,0.0,0.0,0.0,0.00,0.000,0.0,391.4,-550.3,138.50,136.85,138.50,117.57,86.74,0.0043,10.0,24.367,0.0000,0.0000,0.0000,0.00,-0.0962,7.9994,8.0000,-0.69,126,400.0,48.0,-0.0962,7.9994,8.0000,-0.69,0.00,-0.69,0.00,False,FORWARDS,1.000,0,0,SEARCHING,False,False,False,0,False,,0.00,0
1764574870.8898373,56.078,118,TEST2_OBSTACLE_BYPASS,False,0.0,0.0,0.0,0.00,0.000,0.0,382.6,-542.3,138.17,136.98,138.17,117.69,86.76,-0.0160,10.0,24.573,0.0000,0.0000,0.0000,0.00,-0.0962,7.9994,8.0000,-0.69,126,400.0,48.0,-0.0962,7.9994,8.0000,-0.69,0.00,-0.69,0.00,False,FORWARDS,1.000,0,0,SEARCHING,False,False,False,0,False,,0.00,0
1764574870.9313183,56.120,119,TEST2_OBSTACLE_BYPASS,False,0.0,0.0,0.0,0.00,0.000,0.0,373.1,-533.8,137.88,137.13,137.88,117.86,86.87,-0.0138,10.0,24.775,0.0000,0.0000,0.0000,0.00,0.0876,7.9995,8.0000,0.63,110,400.0,48.0,0.0876,7.9995,8.0000,0.63,0.00,0.63,0.00,False,FORWARDS,1.000,0,0,SEARCHING,False,False,False,0,False,,0.00,0
1764574870.9695346,56.158,120,TEST2_OBSTACLE_BYPASS,False,0.0,0.0,0.0,0.00,0.000,0.0,364.9,-526.3,137.64,136.89,137.64,117.62,86.86,0.0053,10.0,24.971,0.0000,0.0000,0.0000,0.00,0.0876,7.9995,8.0000,0.63,110,400.0,48.0,0.0876,7.9995,8.0000,0.63,0.00,0.63,0.00,False,FORWARDS,1.000,0,0,SEARCHING,False,False,False,0,False,,0.00,0
1764574871.0118704,56.200,121,TEST2_OBSTACLE_BYPASS,False,0.0,0.0,0.0,0.00,0.000,0.0,355.3,-517.4,137.40,136.59,137.40,117.30,86.75,0.0000,10.0,25.160,0.0000,0.0000,0.0000,0.00,0.3185,7.9937,8.0000,2.28,94,400.0,48.0,0.3185,7.9937,8.0000,2.28,0.00,2.28,0.00,False,FORWARDS,1.000,0,0,SEARCHING,False,False,False,0,False,,0.00,0
1764574871.0499012,56.238,122,TEST2_OBSTACLE_BYPASS,False,0.0,0.0,0.0,0.00,0.000,0.0,347.0,-509.8,137.15,136.59,137.15,117.30,86.75,0.0032,10.0,25.340,0.0000,0.0000,0.0000,0.00,0.3185,7.9937,8.0000,2.28,94,400.0,48.0,0.3185,7.9937,8.0000,2.28,0.00,2.28,0.00,False,FORWARDS,1.000,0,0,SEARCHING,False,False,False,0,False,,0.00,0
1764574871.0917127,56.280,123,TEST2_OBSTACLE_BYPASS,False,0.0,0.0,0.0,0.00,0.000,0.0,337.6,-501.0,136.86,136.57,136.86,117.28,86.79,-0.0117,10.0,25.511,0.0000,0.0000,0.0000,0.00,0.5523,7.9809,8.0000,3.96,86,400.0,48.0,0.5523,7.9809,8.0000,3.96,0.00,3.96,0.00,False,FORWARDS,1.000,0,0,SEARCHING,False,False,False,0,False,,0.00,0
1764574871.1325135,56.321,124,TEST2_OBSTACLE_BYPASS,False,0.0,0.0,0.0,0.00,0.000,0.0,329.4,-493.2,136.81,136.64,136.81,117.35,86.81,0.0053,10.0,25.678,0.0000,0.0000,0.0000,0.00,0.5523,7.9809,8.0000,3.96,86,400.0,48.0,0.5523,7.9809,8.0000,3.96,0.00,3.96,0.00,False,FORWARDS,1.000,0,0,SEARCHING,False,False,False,0,False,,0.00,0
1764574871.17197,56.361,125,TEST2_OBSTACLE_BYPASS,False,0.0,0.0,0.0,0.00,0.000,0.0,320.2,-484.6,136.76,136.43,136.76,117.14,86.79,0.0011,10.0,25.844,0.0000,0.0000,0.0000,0.00,0.5806,7.9789,8.0000,4.16,86,400.0,48.0,0.5806,7.9789,8.0000,4.16,0.00,4.16,0.00,False,FORWARDS,1.000,0,0,SEARCHING,False,False,False,0,False,,0.00,0
1764574871.218995,56.408,126,TEST2_OBSTACLE_BYPASS,False,0.0,0.0,0.0,0.00,0.000,0.0,310.5,-475.4,136.68,136.16,136.68,116.89,86.87,0.0043,10.0,26.006,0.0000,0.0000,0.0000,0.00,0.6280,7.9753,8.0000,4.50,84,400.0,48.0,0.6280,7.9753,8.0000,4.50,0.00,4.50,0.00,False,FORWARDS,1.000,0,0,SEARCHING,False,False,False,0,False,,0.00,0
1764574871.2561753,56.445,127,TEST2_OBSTACLE_BYPASS,False,0.0,0.0,0.0,0.00,0.000,0.0,302.1,-467.5,136.62,136.23,136.62,116.95,86.89,0.0000,10.0,26.161,0.0000,0.0000,0.0000,0.00,0.6280,7.9753,8.0000,4.50,84,400.0,48.0,0.6280,7.9753,8.0000,4.50,0.00,4.50,0.00,False,FORWARDS,1.000,0,0,SEARCHING,False,False,False,0,False,,0.00,0
1764574871.2995298,56.488,128,TEST2_OBSTACLE_BYPASS,False,0.0,0.0,0.0,0.00,0.000,0.0,292.8,-458.8,136.54,136.16,136.54,116.86,86.82,0.0011,10.0,26.306,0.0000,0.0000,0.0000,0.00,0.4832,7.9854,8.0000,3.46,83,400.0,48.0,0.4832,7.9854,8.0000,3.46,0.00,3.46,0.00,False,FORWARDS,1.000,0,0,SEARCHING,False,False,False,0,False,,0.00,0
1764574871.3347442,56.523,129,TEST2_OBSTACLE_BYPASS,False,0.0,0.0,0.0,0.00,0.000,0.0,284.5,-450.8,136.44,136.09,136.44,116.80,86.80,0.0043,10.0,26.439,0.0000,0.0000,0.0000,0.00,0.4832,7.9854,8.0000,3.46,83,400.0,48.0,0.4832,7.9854,8.0000,3.46,0.00,3.46,0.00,False,FORWARDS,1.000,0,0,SEARCHING,False,False,False,0,False,,0.00,0
1764574871.3802977,56.569,130,TEST2_OBSTACLE_BYPASS,False,0.0,0.0,0.0,0.00,0.000,0.0,275.1,-441.8,136.34,135.93,136.34,116.66,86.89,0.0021,10.0,26.560,0.0000,0.0000,0.0000,0.00,0.7684,7.9630,8.0000,5.51,77,400.0,48.0,0.7684,7.9630,8.0000,5.51,0.00,5.51,0.00,False,FORWARDS,1.000,0,0,SEARCHING,False,False,False,0,False,,0.00,0
1764574871.4166005,56.605,131,TEST2_OBSTACLE_BYPASS,False,0.0,0.0,0.0,0.00,0.000,0.0,266.9,-434.0,136.27,135.93,136.27,116.66,86.89,0.0000,10.0,26.671,0.0000,0.0000,0.0000,0.00,0.7684,7.9630,8.0000,5.51,77,400.0,48.0,0.7684,7.9630,8.0000,5.51,0.00,5.51,0.00,False,FORWARDS,1.000,0,0,SEARCHING,False,False,False,0,False,,0.00,0
1764574871.4611495,56.650,132,TEST2_OBSTACLE_BYPASS,False,0.0,0.0,0.0,0.00,0.000,0.0,257.7,-425.2,136.20,135.86,136.20,116.59,86.87,-0.0032,10.0,26.773,0.0000,0.0000,0.0000,0.00,0.8115,7.9587,8.0000,5.82,75,400.0,48.0,0.8115,7.9587,8.0000,5.82,0.00,5.82,0.00,False,FORWARDS,1.000,0,0,SEARCHING,False,False,False,0,False,,0.00,0
1764574871.496309,56.685,133,TEST2_OBSTACLE_BYPASS,False,0.0,0.0,0.0,0.00,0.000,0.0,249.5,-417.3,136.14,135.93,136.14,116.65,86.89,-0.0011,10.0,26.868,0.0000,0.0000,0.0000,0.00,0.8115,7.9587,8.0000,5.82,75,400.0,48.0,0.8115,7.9587,8.0000,5.82,0.00,5.82,0.00,False,FORWARDS,1.000,0,0,SEARCHING,False,False,False,0,False,,0.00,0
1764574871.540197,56.729,134,TEST2_OBSTACLE_BYPASS,False,0.0,0.0,0.0,0.00,0.000,0.0,240.5,-408.6,136.05,135.78,136.05,116.50,86.89,-0.0043,10.0,26.953,0.0000,0.0000,0.0000,0.00,0.9716,7.9408,8.0000,6.98,70,400.0,48.0,0.9716,7.9408,8.0000,6.98,0.00,6.98,0.00,False,FORWARDS,1.000,0,0,SEARCHING,False,False,False,0,False,,0.00,0
1764574871.577239,56.766,135,TEST2_OBSTACLE_BYPASS,False,0.0,0.0,0.0,0.00,0.000,0.0,232.4,-400.8,135.98,135.74,135.98,116.46,86.90,0.0021,10.0,27.030,0.0000,0.0000,0.0000,0.00,0.9716,7.9408,8.0000,6.98,70,400.0,48.0,0.9716,7.9408,8.0000,6.98,0.00,6.98,0.00,False,FORWARDS,1.000,0,0,SEARCHING,False,False,False,0,False,,0.00,0
1764574871.6222296,56.811,136,TEST2_OBSTACLE_BYPASS,False,0.0,0.0,0.0,0.00,0.000,0.0,223.0,-391.7,135.94,135.74,135.94,116.46,86.90,-0.0011,10.0,27.097,0.0000,0.0000,0.0000,0.00,0.8949,7.9498,8.0000,6.42,65,400.0,48.0,0.8949,7.9498,8.0000,6.42,0.00,6.42,0.00,False,FORWARDS,1.000,0,0,SEARCHING,False,False,False,0,False,,0.00,0
1764574871.6606565,56.849,137,TEST2_OBSTACLE_BYPASS,False,0.0,0.0,0.0,0.00,0.000,0.0,214.5,-383.5,135.89,135.74,135.89,116.46,86.90,-0.0064,10.0,27.157,0.0000,0.0000,0.0000,0.00,0.8949,7.9498,8.0000,6.42,65,400.0,48.0,0.8949,7.9498,8.0000,6.42,0.00,6.42,0.00,False,FORWARDS,1.000,0,0,SEARCHING,False,False,False,0,False,,0.00,0
1764574871.6969738,56.886,138,TEST2_OBSTACLE_BYPASS,False,0.0,0.0,0.0,0.00,0.000,0.0,206.5,-375.7,135.84,135.61,135.84,116.32,86.92,-0.0032,10.0,27.208,0.0000,0.0000,0.0000,0.00,0.8534,7.9544,8.0000,6.12,68,400.0,48.0,0.8534,7.9544,8.0000,6.12,0.00,6.12,0.00,False,FORWARDS,1.000,0,0,SEARCHING,False,False,False,0,False,,0.00,0
1764574871.7407043,56.929,139,TEST2_OBSTACLE_BYPASS,False,0.0,0.0,0.0,0.00,0.000,0.0,197.3,-366.7,135.80,135.69,135.80,116.41,86.90,-0.0032,10.0,27.251,0.0000,0.0000,0.0000,0.00,0.8534,7.9544,8.0000,6.12,68,400.0,48.0,0.8534,7.9544,8.0000,6.12,0.00,6.12,0.00,False,FORWARDS,1.000,0,0,SEARCHING,False,False,False,0,False,,0.00,0
1764574871.7778854,56.966,140,TEST2_OBSTACLE_BYPASS,False,0.0,0.0,0.0,0.00,0.000,0.0,189.3,-358.9,135.77,135.72,135.77,116.43,86.93,-0.0075,10.0,27.288,0.0000,0.0000,0.0000,0.00,1.0144,7.9354,8.0000,7.28,67,400.0,48.0,1.0144,7.9354,8.0000,7.28,0.00,7.28,0.00,False,FORWARDS,1.000,0,0,SEARCHING,False,False,False,0,False,,0.00,0
1764574871.8212018,57.010,141,TEST2_OBSTACLE_BYPASS,False,0.0,0.0,0.0,0.00,0.000,0.0,180.2,-350.1,135.76,135.76,135.76,116.48,86.92,-0.0021,10.0,27.318,0.0000,0.0000,0.0000,0.00,1.0144,7.9354,8.0000,7.28,67,400.0,48.0,1.0144,7.9354,8.0000,7.28,0.00,7.28,0.00,False,FORWARDS,1.000,0,0,SEARCHING,False,False,False,0,False,,0.00,0
1764574871.857296,57.046,142,TEST2_OBSTACLE_BYPASS,False,0.0,0.0,0.0,0.00,0.000,0.0,171.8,-341.9,135.74,135.71,135.74,116.43,86.93,0.0043,10.0,27.340,0.0000,0.0000,0.0000,0.00,1.1287,7.9200,8.0000,8.11,65,400.0,48.0,1.1287,7.9200,8.0000,8.11,0.00,8.11,0.00,False,FORWARDS,1.000,0,0,SEARCHING,False,False,False,0,False,,0.00,0
1764574871.903166,57.092,143,TEST2_OBSTACLE_BYPASS,False,0.0,0.0,0.0,0.00,0.000,0.0,162.8,-333.2,135.72,135.67,135.72,116.38,86.94,-0.0064,10.0,27.354,0.0000,0.0000,0.0000,0.00,1.1287,7.9200,8.0000,8.11,65,400.0,48.0,1.1287,7.9200,8.0000,8.11,0.00,8.11,0.00,False,FORWARDS,1.000,0,0,SEARCHING,False,False,False,0,False,,0.00,0
1764574871.9385524,57.127,144,TEST2_OBSTACLE_BYPASS,False,0.0,0.0,0.0,0.00,0.000,0.0,154.6,-325.1,135.71,135.69,135.71,116.41,86.97,-0.0032,10.0,27.359,0.0000,0.0000,0.0000,0.00,0.9458,7.9439,8.0000,6.79,65,400.0,48.0,0.9458,7.9439,8.0000,6.79,0.00,6.79,0.00,False,FORWARDS,1.000,0,0,SEARCHING,False,False,False,0,False,,0.00,0
1764574871.986606,57.175,145,TEST2_OBSTACLE_BYPASS,False,0.0,0.0,0.0,0.00,0.000,0.0,145.3,-316.1,135.69,135.62,135.69,116.31,86.89,0.0000,10.0,27.354,0.0000,0.0000,0.0000,0.00,0.9458,7.9439,8.0000,6.79,65,400.0,48.0,0.9458,7.9439,8.0000,6.79,0.00,6.79,0.00,False,FORWARDS,1.000,0,0,SEARCHING,False,False,False,0,False,,0.00,0
1764574872.0195608,57.208,146,TEST2_OBSTACLE_BYPASS,False,0.0,0.0,0.0,0.00,0.000,0.0,137.3,-308.2,135.69,135.71,135.69,116.42,86.99,0.0075,10.0,27.336,0.0000,0.0000,0.0000,0.00,0.9325,7.9455,8.0000,6.69,66,400.0,48.0,0.9325,7.9455,8.0000,6.69,0.00,6.69,0.00,False,FORWARDS,1.000,0,0,SEARCHING,False,False,False,0,False,,0.00,0
1764574872.0626473,57.251,147,TEST2_OBSTACLE_BYPASS,False,0.0,0.0,0.0,0.00,0.000,0.0,128.4,-299.5,135.68,135.64,135.68,116.33,86.92,0.0107,10.0,27.304,0.0000,0.0000,0.0000,0.00,0.9325,7.9455,8.0000,6.69,66,400.0,48.0,0.9325,7.9455,8.0000,6.69,0.00,6.69,0.00,False,FORWARDS,1.000,0,0,SEARCHING,False,False,False,0,False,,0.00,0
1764574872.0985212,57.287,148,TEST2_OBSTACLE_BYPASS,False,0.0,0.0,0.0,0.00,0.000,0.0,120.3,-291.7,135.68,135.63,135.68,116.33,87.01,-0.0043,10.0,27.259,0.0000,0.0000,0.0000,0.00,1.0494,7.9309,8.0000,7.54,64,400.0,48.0,1.0494,7.9309,8.0000,7.54,0.00,7.54,0.00,False,FORWARDS,1.000,0,0,SEARCHING,False,False,False,0,False,,0.00,0
1764574872.1436787,57.332,149,TEST2_OBSTACLE_BYPASS,False,0.0,0.0,0.0,0.00,0.000,0.0,110.7,-282.3,135.68,135.63,135.68,116.33,87.01,0.0021,10.0,27.201,0.0000,0.0000,0.0000,0.00,0.8004,7.9599,8.0000,5.74,66,400.0,48.0,0.8004,7.9599,8.0000,5.74,0.00,5.74,0.00,False,FORWARDS,1.000,0,0,SEARCHING,False,False,False,0,False,,0.00,0
1764574872.1818018,57.370,150,TEST2_OBSTACLE_BYPASS,False,0.0,0.0,0.0,0.00,0.000,0.0,102.5,-274.3,135.66,135.51,135.66,116.22,87.00,-0.0032,10.0,27.131,0.0000,0.0000,0.0000,0.00,0.8004,7.9599,8.0000,5.74,66,400.0,48.0,0.8004,7.9599,8.0000,5.74,0.00,5.74,0.00,False,FORWARDS,1.000,0,0,SEARCHING,False,False,False,0,False,,0.00,0
1764574872.2255905,57.414,151,TEST2_OBSTACLE_BYPASS,False,0.0,0.0,0.0,0.00,0.000,0.0,93.3,-265.3,135.64,135.58,135.64,116.29,87.02,0.0000,10.0,27.052,0.0000,0.0000,0.0000,0.00,1.0949,7.9247,8.0000,7.87,65,400.0,48.0,1.0949,7.9247,8.0000,7.87,0.00,7.87,0.00,False,FORWARDS,1.000,0,0,SEARCHING,False,False,False,0,False,,0.00,0
1764574872.2612946,57.450,152,TEST2_OBSTACLE_BYPASS,False,0.0,0.0,0.0,0.00,0.000,0.0,85.4,-257.6,135.63,135.62,135.63,116.33,87.01,-0.0075,10.0,26.964,0.0000,0.0000,0.0000,0.00,1.0949,7.9247,8.0000,7.87,65,400.0,48.0,1.0949,7.9247,8.0000,7.87,0.00,7.87,0.00,False,FORWARDS,1.000,0,0,SEARCHING,False,False,False,0,False,,0.00,0
1764574872.3017385,57.490,153,TEST2_OBSTACLE_BYPASS,False,0.0,0.0,0.0,0.00,0.000,0.0,76.4,-248.7,135.62,135.57,135.62,116.28,87.01,0.0064,10.0,26.865,0.0000,0.0000,0.0000,0.00,1.0403,7.9321,8.0000,7.47,65,400.0,48.0,1.0403,7.9321,8.0000,7.47,0.00,7.47,0.00,False,FORWARDS,1.000,0,0,SEARCHING,False,False,False,0,False,,0.00,0
1764574872.3458905,57.534,154,TEST2_OBSTACLE_BYPASS,False,0.0,0.0,0.0,0.00,0.000,0.0,67.5,-240.0,135.62,135.64,135.62,116.34,87.03,-0.0032,10.0,26.755,0.0000,0.0000,0.0000,0.00,1.0403,7.9321,8.0000,7.47,65,400.0,48.0,1.0403,7.9321,8.0000,7.47,0.00,7.47,0.00,False,FORWARDS,1.000,0,0,SEARCHING,False,False,False,0,False,,0.00,0
1764574872.3812888,57.570,155,TEST2_OBSTACLE_BYPASS,False,0.0,0.0,0.0,0.00,0.000,0.0,59.4,-232.1,135.60,135.50,135.60,116.18,86.94,-0.0021,10.0,26.634,0.0000,0.0000,0.0000,0.00,1.1680,7.9143,8.0000,8.40,64,400.0,48.0,1.1680,7.9143,8.0000,8.40,0.00,8.40,0.00,False,FORWARDS,1.000,0,0,SEARCHING,False,False,False,0,False,,0.00,0
1764574872.4260921,57.615,156,TEST2_OBSTACLE_BYPASS,False,0.0,0.0,0.0,0.00,0.000,0.0,50.4,-223.2,135.60,135.64,135.60,116.34,87.03,0.0032,10.0,26.504,0.0000,0.0000,0.0000,0.00,1.1680,7.9143,8.0000,8.40,64,400.0,48.0,1.1680,7.9143,8.0000,8.40,0.00,8.40,0.00,False,FORWARDS,1.000,0,0,SEARCHING,False,False,False,0,False,,0.00,0
1764574872.4646547,57.653,157,TEST2_OBSTACLE_BYPASS,False,0.0,0.0,0.0,0.00,0.000,0.0,41.9,-214.9,135.60,135.68,135.60,116.39,87.02,0.0064,10.0,26.368,0.0000,0.0000,0.0000,0.00,1.0860,7.9260,8.0000,7.80,67,400.0,48.0,1.0860,7.9260,8.0000,7.80,0.00,7.80,0.00,False,FORWARDS,1.000,0,0,SEARCHING,False,False,False,0,False,,0.00,0
1764574872.5075574,57.696,158,TEST2_OBSTACLE_BYPASS,False,0.0,0.0,0.0,0.00,0.000,0.0,32.6,-205.9,135.60,135.64,135.60,116.34,87.02,0.0000,10.0,26.228,0.0000,0.0000,0.0000,0.00,1.0860,7.9260,8.0000,7.80,67,400.0,48.0,1.0860,7.9260,8.0000,7.80,0.00,7.80,0.00,False,FORWARDS,1.000,0,0,SEARCHING,False,False,False,0,False,,0.00,0
1764574872.5443878,57.733,159,TEST2_OBSTACLE_BYPASS,False,0.0,0.0,0.0,0.00,0.000,0.0,24.5,-197.9,135.60,135.63,135.60,116.33,87.02,-0.0107,10.0,26.081,0.0000,0.0000,0.0000,0.00,1.0579,7.9297,8.0000,7.60,65,400.0,48.0,1.0579,7.9297,8.0000,7.60,0.00,7.60,0.00,False,FORWARDS,1.000,0,0,SEARCHING,False,False,False,0,False,,0.00,0
1764574872.58792,57.776,160,TEST2_OBSTACLE_BYPASS,False,0.0,0.0,0.0,0.00,0.000,0.0,15.3,-188.9,135.61,135.54,135.61,116.24,87.04,0.0032,10.0,25.926,0.0000,0.0000,0.0000,0.00,1.0579,7.9297,8.0000,7.60,65,400.0,48.0,1.0579,7.9297,8.0000,7.60,0.00,7.60,0.00,False,FORWARDS,1.000,0,0,SEARCHING,False,False,False,0,False,,0.00,0
1764574872.6248949,57.813,161,TEST2_OBSTACLE_BYPASS,False,0.0,0.0,0.0,0.00,0.000,0.0,7.3,-181.1,135.60,135.54,135.60,116.24,87.04,-0.0011,10.0,25.759,0.0000,0.0000,0.0000,0.00,1.0536,7.9303,8.0000,7.57,65,400.0,48.0,1.0536,7.9303,8.0000,7.57,0.00,7.57,0.00,False,FORWARDS,1.000,0,0,SEARCHING,False,False,False,0,False,,0.00,0
1764574872.6730728,57.862,162,TEST2_OBSTACLE_BYPASS,False,0.0,0.0,0.0,0.00,0.000,0.0,-1.7,-172.2,135.59,135.54,135.59,116.24,87.04,0.0096,10.0,25.583,0.0000,0.0000,0.0000,0.00,1.0536,7.9303,8.0000,7.57,65,400.0,48.0,1.0536,7.9303,8.0000,7.57,0.00,7.57,0.00,False,FORWARDS,1.000,0,0,SEARCHING,False,False,False,0,False,,0.00,0
1764574872.706274,57.895,163,TEST2_OBSTACLE_BYPASS,False,0.0,0.0,0.0,0.00,0.000,0.0,-9.9,-164.3,135.58,135.49,135.58,116.19,87.04,-0.0107,10.0,25.400,0.0000,0.0000,0.0000,0.00,1.0683,7.9284,8.0000,7.67,66,400.0,48.0,1.0683,7.9284,8.0000,7.67,0.00,7.67,0.00,False,FORWARDS,1.000,0,0,SEARCHING,False,False,False,0,False,,0.00,0
1764574872.7509146,57.939,164,TEST2_OBSTACLE_BYPASS,False,0.0,0.0,0.0,0.00,0.000,0.0,-19.7,-154.6,135.57,135.49,135.57,116.19,87.04,0.0096,10.0,25.211,0.0000,0.0000,0.0000,0.00,1.1965,7.9100,8.0000,8.60,64,400.0,48.0,1.1965,7.9100,8.0000,8.60,0.00,8.60,0.00,False,FORWARDS,1.000,0,0,SEARCHING,False,False,False,0,False,,0.00,0
1764574872.7876139,57.976,165,TEST2_OBSTACLE_BYPASS,False,0.0,0.0,0.0,0.00,0.000,0.0,-27.8,-146.7,135.58,135.60,135.58,116.30,87.05,-0.0085,10.0,25.022,0.0000,0.0000,0.0000,0.00,1.1965,7.9100,8.0000,8.60,64,400.0,48.0,1.1965,7.9100,8.0000,8.60,0.00,8.60,0.00,False,FORWARDS,1.000,0,0,SEARCHING,False,False,False,0,False,,0.00,0
1764574872.8340654,58.023,166,TEST2_OBSTACLE_BYPASS,False,0.0,0.0,0.0,0.00,0.000,0.0,-37.1,-137.6,135.57,135.51,135.57,116.21,87.07,-0.0096,10.0,24.843,0.0000,0.0000,0.0000,0.00,1.0590,7.9296,8.0000,7.61,65,400.0,48.0,1.0590,7.9296,8.0000,7.61,0.00,7.61,0.00,False,FORWARDS,1.000,0,0,SEARCHING,False,False,False,0,False,,0.00,0
1764574872.867934,58.056,167,TEST2_OBSTACLE_BYPASS,False,0.0,0.0,0.0,0.00,0.000,0.0,-44.9,-129.9,135.55,135.51,135.55,116.21,87.07,-0.0096,10.0,24.677,0.0000,0.0000,0.0000,0.00,1.0590,7.9296,8.0000,7.61,65,400.0,48.0,1.0590,7.9296,8.0000,7.61,0.00,7.61,0.00,False,FORWARDS,1.000,0,0,SEARCHING,False,False,False,0,False,,0.00,0
1764574872.9125226,58.101,168,TEST2_OBSTACLE_BYPASS,False,0.0,0.0,0.0,0.00,0.000,0.0,-54.2,-120.8,135.55,135.59,135.55,116.31,87.15,0.0011,10.0,24.522,0.0000,0.0000,0.0000,0.00,1.2366,7.9038,8.0000,8.89,65,400.0,333.0,1.2366,7.9038,8.0000,8.89,0.00,8.89,0.00,False,FORWARDS,1.000,0,0,SEARCHING,False,False,False,0,False,,0.00,0
1764574872.9513428,58.140,169,TEST2_OBSTACLE_BYPASS,False,0.0,0.0,0.0,0.00,0.000,0.0,-62.7,-112.5,135.55,135.65,135.55,116.34,87.03,-0.0149,10.0,24.376,0.0000,0.0000,0.0000,0.00,1.2366,7.9038,8.0000,8.89,65,400.0,333.0,1.2366,7.9038,8.0000,8.89,0.00,8.89,0.00,False,FORWARDS,1.000,0,0,SEARCHING,False,False,False,0,False,,0.00,0
1764574872.9906828,58.179,170,TEST2_OBSTACLE_BYPASS,False,0.0,0.0,0.0,0.00,0.000,0.0,-70.9,-104.4,135.57,135.76,135.57,116.46,87.04,0.0138,10.0,24.240,0.0000,0.0000,0.0000,0.00,0.9802,7.9397,8.0000,7.04,66,400.0,333.0,0.9802,7.9397,8.0000,7.04,0.00,7.04,0.00,False,FORWARDS,1.000,0,0,SEARCHING,False,False,False,0,False,,0.00,0
1764574873.0310128,58.220,171,TEST2_OBSTACLE_BYPASS,False,0.0,0.0,0.0,0.00,0.000,0.0,-79.7,-95.8,135.61,135.90,135.61,116.62,87.12,-0.0043,10.0,24.116,0.0000,0.0000,0.0000,0.00,0.9802,7.9397,8.0000,7.04,66,400.0,333.0,0.9802,7.9397,8.0000,7.04,0.00,7.04,0.00,False,FORWARDS,1.000,0,0,SEARCHING,False,False,False,0,False,,0.00,0
1764574873.0710726,58.260,172,TEST2_OBSTACLE_BYPASS,False,0.0,0.0,0.0,0.00,0.000,0.0,-88.0,-87.6,135.65,136.01,135.65,116.73,87.13,-0.0011,10.0,24.006,0.0000,0.0000,0.0000,0.00,1.2018,7.9092,8.0000,8.64,64,400.0,333.0,1.2018,7.9092,8.0000,8.64,0.00,8.64,0.00,False,FORWARDS,1.000,0,0,SEARCHING,False,False,False,0,False,,0.00,0
1764574873.1120563,58.301,173,TEST2_OBSTACLE_BYPASS,False,0.0,0.0,0.0,0.00,0.000,0.0,-97.2,-78.7,135.72,136.22,135.72,116.93,87.11,-0.0075,10.0,23.913,0.0000,0.0000,0.0000,0.00,1.2018,7.9092,8.0000,8.64,64,400.0,333.0,1.2018,7.9092,8.0000,8.64,0.00,8.64,0.00,False,FORWARDS,1.000,0,0,SEARCHING,False,False,False,0,False,,0.00,0
1764574873.1515827,58.340,174,TEST2_OBSTACLE_BYPASS,False,0.0,0.0,0.0,0.00,0.000,0.0,-105.5,-70.7,135.80,136.26,135.80,116.98,87.10,-0.0107,10.0,23.835,0.0000,0.0000,0.0000,0.00,1.2911,7.8951,8.0000,9.29,64,400.0,333.0,1.2911,7.8951,8.0000,9.29,0.00,9.29,0.00,False,FORWARDS,1.000,0,0,SEARCHING,False,False,False,0,False,,0.00,0
