timestamp,elapsed_time,log_number,test_mode,person_detected,person_x_mm,person_y_mm,person_distance_mm,person_angle_deg,person_confidence,time_since_person_update_ms,robot_x_mm,robot_y_mm,robot_orientation_deg,imu_yaw_raw,imu_yaw_smoothed,imu_roll,imu_pitch,imu_angular_vel_z,imu_update_rate,imu_drift_estimate,attr_force_x,attr_force_y,attr_force_magnitude,attr_force_direction_deg,repul_force_x,repul_force_y,repul_force_magnitude,repul_force_direction_deg,num_obstacles_in_range,closest_obstacle_dist_mm,closest_obstacle_angle_deg,total_force_x,total_force_y,total_force_magnitude,total_force_direction_deg,expected_direction_to_person_deg,force_direction_deg,direction_error_deg,direction_mismatch_flag,commanded_direction,commanded_speed,motor_1_speed,motor_2_speed,nav_state,nav_state_changed,goal_reached,stuck_detected,time_in_current_state_s,anomaly_detected,anomaly_type,calculation_time_ms,obstacles_filtered_for_person
1764572255.9130802,62.213,1,TEST2_OBSTACLE_BYPASS,True,-486.0,2577.5,2622.9,349.32,0.907,0.0,-1653.8,-764.2,-138.59,-138.56,-138.59,155.31,88.00,0.0021,10.0,0.000,1.1183,3.2001,3.3899,19.26,-3.3007,7.2873,8.0000,-24.37,0,850.0,66.0,-1.6299,7.8322,8.0000,-11.76,-10.68,-11.76,-1.08,False,FORWARDS,1.000,0,0,NAVIGATING,True,False,False,0,False,,0.00,0
1764572255.9556806,62.256,2,TEST2_OBSTACLE_BYPASS,True,-494.4,2568.2,2615.3,349.10,0.972,0.0,-1663.4,-772.7,-138.58,-138.56,-138.58,155.31,88.00,-0.0053,10.0,0.000,1.1198,3.2001,3.3903,19.29,-3.4436,7.2209,8.0000,-25.50,0,850.0,66.0,-1.7412,7.8082,8.0000,-12.57,-10.90,-12.57,-1.68,False,FORWARDS,1.000,0,0,NAVIGATING,False,False,False,0,False,,0.00,0
1764572255.9949934,62.295,3,TEST2_OBSTACLE_BYPASS,True,-494.4,2568.2,2615.3,349.10,0.972,0.0,-1671.9,-780.2,-138.56,-138.56,-138.56,155.31,88.00,0.0053,10.0,0.000,1.1216,3.1894,3.3809,19.38,-3.4436,7.2209,8.0000,-25.50,0,850.0,66.0,-1.7416,7.8081,8.0000,-12.57,-10.90,-12.57,-1.68,False,FORWARDS,1.000,0,0,NAVIGATING,False,False,False,0,False,,0.00,0
1764572256.0371678,62.337,4,TEST2_OBSTACLE_BYPASS,True,-494.4,2568.2,2615.3,349.10,0.972,0.0,-1681.4,-788.6,-138.55,-138.46,-138.55,155.28,87.88,0.0075,10.0,0.000,1.1237,3.1775,3.3703,19.47,-3.6487,7.1195,8.0000,-27.13,0,850.0,66.0,-1.9053,7.7698,8.0000,-13.78,-10.90,-13.78,-2.88,False,FORWARDS,1.000,0,0,NAVIGATING,False,False,False,0,False,,0.00,0
1764572256.074234,62.374,5,TEST2_OBSTACLE_BYPASS,True,-494.4,2568.2,2615.3,349.10,0.972,0.0,-1690.0,-796.2,-138.54,-138.46,-138.54,155.28,87.88,0.0011,10.0,0.000,1.1254,3.1668,3.3609,19.56,-3.6487,7.1195,8.0000,-27.13,0,850.0,66.0,-1.9059,7.7697,8.0000,-13.78,-10.90,-13.78,-2.89,False,FORWARDS,1.000,0,0,NAVIGATING,False,False,False,0,False,,0.00,0
1764572256.1162426,62.416,6,TEST2_OBSTACLE_BYPASS,True,-494.4,2568.2,2615.3,349.10,0.972,0.0,-1699.7,-804.8,-138.53,-138.46,-138.53,155.28,87.88,0.0021,10.0,0.000,1.1274,3.1548,3.3502,19.66,-3.3719,7.2547,8.0000,-24.93,0,850.0,66.0,-1.6862,7.8203,8.0000,-12.17,-10.90,-12.17,-1.27,False,FORWARDS,1.000,0,0,NAVIGATING,False,False,False,0,False,,0.00,0
1764572256.1574593,62.458,7,TEST2_OBSTACLE_BYPASS,True,-494.4,2568.2,2615.3,349.10,0.972,0.0,-1708.7,-812.7,-138.52,-138.46,-138.52,155.28,87.88,0.0149,10.0,0.000,1.1292,3.1438,3.3404,19.76,-3.3719,7.2547,8.0000,-24.93,0,850.0,66.0,-1.6866,7.8202,8.0000,-12.17,-10.90,-12.17,-1.28,False,FORWARDS,1.000,0,0,NAVIGATING,False,False,False,0,False,,0.00,0
1764572256.1963456,62.497,8,TEST2_OBSTACLE_BYPASS,True,-494.4,2568.2,2615.3,349.10,0.972,0.0,-1717.4,-820.4,-138.51,-138.46,-138.51,155.28,87.88,0.0107,10.0,0.000,1.1308,3.1332,3.3310,19.85,-3.7618,7.0604,8.0000,-28.05,0,850.0,66.0,-1.9993,7.7462,8.0000,-14.47,-10.90,-14.47,-3.58,False,FORWARDS,1.000,0,0,NAVIGATING,False,False,False,0,False,,0.00,0
1764572256.2389288,62.539,9,TEST2_OBSTACLE_BYPASS,True,-494.4,2568.2,2615.3,349.10,0.972,0.0,-1727.2,-829.0,-138.50,-138.46,-138.50,155.28,87.88,0.0032,10.0,0.000,1.1327,3.1213,3.3204,19.95,-3.7618,7.0604,8.0000,-28.05,0,850.0,66.0,-2.0002,7.7459,8.0000,-14.48,-10.90,-14.48,-3.58,False,FORWARDS,1.000,0,0,NAVIGATING,False,False,False,0,False,,0.00,0
1764572256.2767375,62.577,10,TEST2_OBSTACLE_BYPASS,False,0.0,0.0,0.0,0.00,0.000,0.0,-1735.6,-836.5,-138.49,-138.46,-138.49,155.37,87.95,0.0138,10.0,0.000,1.1342,3.1110,3.3113,20.03,-2.9831,7.4230,8.0000,-21.89,0,850.0,66.0,-1.3830,7.8795,8.0000,-9.96,0.00,-9.96,0.00,False,FORWARDS,1.000,0,0,SEARCHING,True,False,False,0,False,,0.00,0
1764572256.3170915,62.617,11,TEST2_OBSTACLE_BYPASS,False,0.0,0.0,0.0,0.00,0.000,0.0,-1745.0,-844.8,-138.52,-138.84,-138.52,154.80,87.71,0.0288,10.0,0.000,1.1359,3.0998,3.3013,20.12,-2.9831,7.4230,8.0000,-21.89,0,850.0,66.0,-1.3833,7.8795,8.0000,-9.96,0.00,-9.96,0.00,False,FORWARDS,1.000,0,0,SEARCHING,False,False,False,0,False,,0.00,0
1764572256.3590236,62.659,12,TEST2_OBSTACLE_BYPASS,False,0.0,0.0,0.0,0.00,0.000,0.0,-1753.6,-852.4,-138.65,-139.79,-138.65,153.90,87.68,0.0458,10.0,0.046,1.1374,3.0895,3.2922,20.21,-5.6733,5.6404,8.0000,-45.17,0,850.0,66.0,-3.6885,7.0989,8.0000,-27.46,0.00,-27.46,0.00,False,FORWARDS_LEFT,1.000,0,0,SEARCHING,False,False,False,0,False,,0.00,0
1764572256.3985097,62.699,13,TEST2_OBSTACLE_BYPASS,False,0.0,0.0,0.0,0.00,0.000,0.0,-1760.3,-858.2,-138.83,-140.42,-138.83,153.29,87.66,0.0128,10.0,0.022,1.1385,3.0816,3.2852,20.28,-5.6733,5.6404,8.0000,-45.17,0,850.0,66.0,-3.6904,7.0980,8.0000,-27.47,0.00,-27.47,0.00,False,FORWARDS_LEFT,1.000,0,0,SEARCHING,False,False,False,0,False,,0.00,0
1764572256.4358683,62.736,14,TEST2_OBSTACLE_BYPASS,False,0.0,0.0,0.0,0.00,0.000,0.0,-1766.3,-863.4,-139.09,-141.05,-139.09,152.48,87.51,0.0682,10.0,-0.018,1.1396,3.0745,3.2789,20.34,-6.7355,4.3166,8.0000,-57.35,0,850.0,66.0,-4.8290,6.3782,8.0000,-37.13,0.00,-37.13,0.00,False,FORWARDS_LEFT,1.000,0,0,SEARCHING,False,False,False,0,False,,0.00,0
1764572256.4831154,62.783,15,TEST2_OBSTACLE_BYPASS,False,0.0,0.0,0.0,0.00,0.000,0.0,-1773.0,-869.2,-139.43,-141.83,-139.43,151.68,87.54,0.0075,10.0,-0.077,1.1408,3.0667,3.2720,20.40,-6.7355,4.3166,8.0000,-57.35,0,850.0,66.0,-4.8316,6.3762,8.0000,-37.15,0.00,-37.15,0.00,False,FORWARDS_LEFT,1.000,0,0,SEARCHING,False,False,False,0,False,,0.00,0
1764572256.5162044,62.816,16,TEST2_OBSTACLE_BYPASS,False,0.0,0.0,0.0,0.00,0.000,0.0,-1779.2,-874.4,-139.74,-141.57,-139.74,151.76,87.31,0.0107,10.0,-0.148,1.1419,3.0595,3.2657,20.47,-7.5020,2.7785,8.0000,-69.68,0,800.0,66.0,-5.8935,5.4098,8.0000,-47.45,0.00,-47.45,0.00,False,FORWARDS_LEFT,1.000,0,0,SEARCHING,False,False,False,0,False,,0.00,0
1764572256.5613477,62.862,17,TEST2_OBSTACLE_BYPASS,True,-498.5,2566.8,2614.8,349.01,0.975,0.0,-1786.1,-880.2,-140.11,-142.15,-140.11,151.26,87.40,-0.0117,10.0,-0.234,1.1412,3.0550,3.2611,20.48,-7.5020,2.7785,8.0000,-69.68,0,800.0,66.0,-5.8960,5.4072,8.0000,-47.48,-10.99,-47.48,-36.49,False,FORWARDS_LEFT,1.000,0,0,NAVIGATING,True,False,True,0,True,STUCK_DETECTED,0.00,0
1764572256.5982006,62.898,18,TEST2_OBSTACLE_BYPASS,True,-498.5,2566.8,2614.8,349.01,0.975,0.0,-1792.2,-885.2,-140.51,-142.50,-140.51,150.84,87.51,-0.0650,10.0,-0.333,1.1423,3.0481,3.2552,20.54,-7.8717,1.4270,8.0000,-79.72,5,750.0,66.0,-6.6615,4.4300,8.0000,-56.38,-10.99,-56.38,-45.39,False,FORWARDS_LEFT,1.000,0,0,STUCK,True,False,True,0,True,STUCK_DETECTED,0.00,0
1764572256.6422732,62.942,19,TEST2_OBSTACLE_BYPASS,True,-498.5,2566.8,2614.8,349.01,0.975,0.0,-1799.0,-890.8,-140.87,-142.10,-140.87,151.28,87.88,-0.0874,10.0,-0.441,1.1436,3.0404,3.2484,20.61,-7.8717,1.4270,8.0000,-79.72,5,750.0,66.0,-6.6646,4.4253,8.0000,-56.42,-10.99,-56.42,-45.43,False,FORWARDS_LEFT,1.000,0,0,STUCK,False,False,True,0,True,STUCK_DETECTED,0.00,0
1764572256.6776943,62.978,20,TEST2_OBSTACLE_BYPASS,True,-490.2,2569.5,2615.9,349.20,0.962,0.0,-1805.2,-895.8,-141.02,-139.90,-141.02,153.62,88.16,-0.0501,10.0,-0.546,1.1487,3.0270,3.2376,20.78,-7.9230,1.1071,8.0000,-82.05,8,750.0,66.0,-6.7744,4.1341,7.9362,-58.61,-10.80,-58.61,-47.80,False,FORWARDS_LEFT,1.000,0,0,STUCK,False,False,True,0,True,STUCK_DETECTED,0.00,0
1764572256.731414,63.032,21,TEST2_OBSTACLE_BYPASS,True,-490.2,2569.5,2615.9,349.20,0.962,0.0,-1812.7,-901.9,-140.87,-137.36,-140.87,156.22,88.10,0.0117,10.0,-0.633,1.1500,3.0187,3.2303,20.86,-7.9230,1.1071,8.0000,-82.05,8,750.0,66.0,-6.7730,4.1258,7.9307,-58.65,-10.80,-58.65,-47.85,False,FORWARDS_LEFT,1.000,0,0,STUCK,False,False,True,0,True,STUCK_DETECTED,0.00,0
1764572256.7583673,63.059,22,TEST2_OBSTACLE_BYPASS,True,-490.2,2569.5,2615.9,349.20,0.962,0.0,-1818.5,-906.6,-140.55,-136.58,-140.55,157.00,87.92,0.0352,10.0,-0.696,1.1510,3.0123,3.2247,20.91,-7.9852,0.4870,8.0000,-86.51,20,700.0,66.0,-6.8342,3.4993,7.6779,-62.89,-10.80,-62.89,-52.08,False,FORWARDS_LEFT,1.000,0,0,STUCK,False,False,True,0,True,STUCK_DETECTED,0.00,0
1764572256.8046556,63.105,23,TEST2_OBSTACLE_BYPASS,True,-490.2,2569.5,2615.9,349.20,0.962,0.0,-1825.3,-912.3,-140.11,-136.03,-140.11,157.39,87.63,0.0234,10.0,-0.733,1.1521,3.0047,3.2180,20.98,-7.9852,0.4870,8.0000,-86.51,20,700.0,66.0,-6.8331,3.4917,7.6735,-62.93,-10.80,-62.93,-52.13,False,FORWARDS_LEFT,1.000,0,0,STUCK,False,False,True,0,True,STUCK_DETECTED,0.00,0
1764572256.8428912,63.143,24,TEST2_OBSTACLE_BYPASS,True,-490.2,2569.5,2615.9,349.20,0.962,0.0,-1831.5,-917.6,-139.52,-135.22,-139.52,157.93,87.46,-0.0043,10.0,-0.742,1.1530,2.9978,3.2118,21.04,-7.9870,0.4565,8.0000,-86.73,27,700.0,66.0,-6.8339,3.4543,7.6573,-63.19,-10.80,-63.19,-52.38,False,FORWARDS_LEFT,1.000,0,0,STUCK,False,False,True,0,True,STUCK_DETECTED,0.00,0
1764572256.886645,63.187,25,TEST2_OBSTACLE_BYPASS,True,-490.2,2569.5,2615.9,349.20,0.962,0.0,-1838.1,-923.3,-138.88,-135.37,-138.88,157.44,87.56,-0.0224,10.0,-0.723,1.1539,2.9903,3.2052,21.10,-7.9870,0.4565,8.0000,-86.73,27,700.0,66.0,-6.8331,3.4468,7.6532,-63.23,-10.80,-63.23,-52.43,False,FORWARDS_LEFT,1.000,0,0,STUCK,False,False,True,0,True,STUCK_DETECTED,0.00,0
1764572256.9234228,63.224,26,TEST2_OBSTACLE_BYPASS,True,-490.2,2569.5,2615.9,349.20,0.962,0.0,-1844.1,-928.7,-138.50,-137.74,-138.50,154.72,87.89,0.0021,10.0,-0.690,1.1546,2.9835,3.1991,21.16,-7.9994,0.0963,8.0000,-89.31,47,650.0,66.0,-6.8448,3.0798,7.5057,-65.77,-10.80,-65.77,-54.97,False,FORWARDS_LEFT,1.000,0,0,STUCK,False,False,True,0,True,STUCK_DETECTED,0.00,0
1764572256.9713523,63.272,27,TEST2_OBSTACLE_BYPASS,True,-490.2,2569.5,2615.9,349.20,0.962,0.0,-1851.5,-935.2,-138.54,-142.64,-138.54,149.37,88.08,0.0682,10.0,-0.662,1.1555,2.9751,3.1917,21.23,-7.9997,-0.0694,8.0000,-90.50,62,600.0,66.0,-6.8442,2.9058,7.4354,-67.00,-10.80,-67.00,-56.19,False,FORWARDS_LEFT,1.000,0,0,STUCK,False,False,True,0,True,STUCK_DETECTED,0.00,0
1764572257.0068843,63.307,28,TEST2_OBSTACLE_BYPASS,False,0.0,0.0,0.0,0.00,0.000,0.0,-1857.5,-940.6,-137.83,-135.37,-137.83,156.28,86.48,0.1928,10.0,-0.610,1.1562,2.9683,3.1855,21.28,-7.9997,-0.0694,8.0000,-90.50,62,600.0,66.0,-6.8435,2.8989,7.4322,-67.04,0.00,-67.04,0.00,False,FORWARDS_LEFT,1.000,0,0,STUCK,False,False,True,0,True,STUCK_DETECTED,0.00,0
1764572257.0453365,63.346,29,TEST2_OBSTACLE_BYPASS,False,0.0,0.0,0.0,0.00,0.000,0.0,-1863.4,-946.2,-137.12,-134.98,-137.12,156.36,84.98,0.2546,10.0,-0.535,1.1567,2.9615,3.1794,21.34,-7.9843,-0.5017,8.0000,-93.60,76,600.0,66.0,-6.8275,2.4598,7.2571,-70.19,0.00,-70.19,0.00,False,LEFT,0.700,0,0,STUCK,False,False,True,0,True,STUCK_DETECTED,0.00,0
1764572257.0877378,63.388,30,TEST2_OBSTACLE_BYPASS,False,0.0,0.0,0.0,0.00,0.000,0.0,-1863.4,-946.2,-136.84,-137.12,-136.84,153.16,84.17,0.0778,10.0,-0.457,1.1567,2.9615,3.1794,21.34,-7.9843,-0.5017,8.0000,-93.60,76,600.0,66.0,-6.8275,2.4598,7.2571,-70.19,0.00,-70.19,0.00,False,LEFT,0.700,0,0,STUCK,False,False,True,0,True,STUCK_DETECTED,0.00,0
1764572257.1264484,63.427,31,TEST2_OBSTACLE_BYPASS,False,0.0,0.0,0.0,0.00,0.000,0.0,-1863.4,-946.2,-137.05,-139.43,-137.05,149.40,84.72,-0.1332,10.0,-0.390,1.1567,2.9615,3.1794,21.34,-7.9803,-0.5604,8.0000,-94.02,82,550.0,66.0,-6.8236,2.4011,7.2337,-70.61,0.00,-70.61,0.00,False,LEFT,0.700,0,0,STUCK,False,False,True,0,True,STUCK_DETECTED,0.00,0
1764572257.1724384,63.473,32,TEST2_OBSTACLE_BYPASS,True,-497.5,2488.2,2537.4,348.69,0.984,0.0,-1863.4,-946.2,-137.28,-138.88,-137.28,149.26,85.39,-0.1928,10.0,-0.335,1.1999,3.0169,3.2468,21.69,-7.9803,-0.5604,8.0000,-94.02,82,550.0,66.0,-6.7804,2.4565,7.2117,-70.09,-11.31,-70.09,-58.78,False,LEFT,0.700,0,0,STUCK,False,False,True,0,True,STUCK_DETECTED,0.00,0
1764572257.2365766,63.537,33,TEST2_OBSTACLE_BYPASS,True,-463.2,2415.6,2459.6,349.14,0.977,0.0,-1863.4,-946.2,-137.13,-134.50,-137.13,152.78,86.27,-0.1417,10.0,-0.279,1.2670,3.0419,3.2952,22.61,-7.9534,-0.8619,8.0000,-96.18,90,500.0,66.0,-6.6865,2.1800,7.0329,-71.94,-10.86,-71.94,-61.09,False,LEFT,0.700,0,0,STUCK,False,False,True,0,True,STUCK_DETECTED,0.00,0
1764572257.274417,63.575,34,TEST2_OBSTACLE_BYPASS,True,-463.2,2415.6,2459.6,349.14,0.977,0.0,-1863.4,-946.2,-136.83,-132.29,-136.83,154.74,86.33,0.0011,10.0,-0.217,1.2670,3.0419,3.2952,22.61,-7.9534,-0.8619,8.0000,-96.18,90,500.0,66.0,-6.6865,2.1800,7.0329,-71.94,-10.86,-71.94,-61.09,False,LEFT,0.700,0,0,STUCK,False,False,True,0,True,STUCK_DETECTED,0.00,0
1764572257.3110595,63.611,35,TEST2_OBSTACLE_BYPASS,True,-463.2,2415.6,2459.6,349.14,0.977,0.0,-1863.4,-946.2,-136.58,-132.81,-136.58,154.19,86.26,0.0799,10.0,-0.152,1.2670,3.0419,3.2952,22.61,-7.9102,-1.1953,8.0000,-98.59,89,500.0,72.0,-6.6432,1.8465,6.8951,-74.47,-10.86,-74.47,-63.61,False,LEFT,0.700,0,0,STUCK,False,False,True,0,True,STUCK_DETECTED,0.00,0
1764572257.3563118,63.657,36,TEST2_OBSTACLE_BYPASS,True,-425.2,2375.0,2412.7,349.85,0.825,0.0,-1863.4,-946.2,-136.32,-135.17,-136.32,151.58,85.94,0.1012,10.0,-0.083,1.3177,3.0426,3.3157,23.42,-7.8781,-1.3914,8.0000,-100.02,91,450.0,98.0,-6.5604,1.6512,6.7650,-75.87,-10.15,-75.87,-65.72,False,LEFT,0.700,0,0,STUCK,False,False,True,0,True,STUCK_DETECTED,0.00,0
1764572257.3968418,63.697,37,TEST2_OBSTACLE_BYPASS,True,-425.2,2375.0,2412.7,349.85,0.825,0.0,-1863.4,-946.2,-135.69,-136.32,-135.69,149.92,85.70,0.0543,10.0,0.000,1.3177,3.0426,3.3157,23.42,-7.8781,-1.3914,8.0000,-100.02,91,450.0,98.0,-6.5604,1.6512,6.7650,-75.87,-10.15,-75.87,-65.72,False,LEFT,0.700,0,0,STUCK,False,False,True,0,True,STUCK_DETECTED,0.00,0
1764572257.4323206,63.733,38,TEST2_OBSTACLE_BYPASS,True,-425.2,2375.0,2412.7,349.85,0.825,0.0,-1863.4,-946.2,-135.84,-136.90,-135.84,148.40,85.84,-0.0852,10.0,0.075,1.3177,3.0426,3.3157,23.42,-7.8304,-1.6384,8.0000,-101.82,95,450.0,98.0,-6.5128,1.4042,6.6624,-77.83,-10.15,-77.83,-67.68,False,LEFT,0.700,0,0,STUCK,False,False,True,0,True,STUCK_DETECTED,0.00,0
1764572257.4751024,63.775,39,TEST2_OBSTACLE_BYPASS,True,-425.2,2375.0,2412.7,349.85,0.825,0.0,-1863.4,-946.2,-135.95,-136.01,-135.95,148.56,86.13,-0.1534,10.0,0.142,1.3177,3.0426,3.3157,23.42,-7.8304,-1.6384,8.0000,-101.82,95,450.0,98.0,-6.5128,1.4042,6.6624,-77.83,-10.15,-77.83,-67.68,False,LEFT,0.700,0,0,STUCK,False,False,True,0,True,STUCK_DETECTED,0.00,0
1764572257.513345,63.814,40,TEST2_OBSTACLE_BYPASS,True,-425.2,2375.0,2412.7,349.85,0.825,0.0,-1863.4,-946.2,-135.56,-133.27,-135.56,150.80,86.46,-0.1268,10.0,0.216,1.3177,3.0426,3.3157,23.42,-7.7584,-1.9512,8.0000,-104.12,99,450.0,98.0,-6.4408,1.0914,6.5326,-80.38,-10.15,-80.38,-70.23,False,LEFT,0.700,0,0,STUCK,False,False,True,0,True,STUCK_DETECTED,0.00,0
1764572257.5567777,63.857,41,TEST2_OBSTACLE_BYPASS,True,-425.2,2375.0,2412.7,349.85,0.825,0.0,-1863.4,-946.2,-134.69,-130.69,-134.69,153.17,86.59,-0.0277,10.0,0.308,1.3177,3.0426,3.3157,23.42,-7.7584,-1.9512,8.0000,-104.12,99,450.0,98.0,-6.4408,1.0914,6.5326,-80.38,-10.15,-80.38,-70.23,False,LEFT,0.700,0,0,STUCK,False,False,True,0,True,STUCK_DETECTED,0.00,0
1764572257.5956752,63.896,42,TEST2_OBSTACLE_BYPASS,True,-425.2,2375.0,2412.7,349.85,0.825,0.0,-1863.4,-946.2,-133.77,-129.73,-133.77,153.96,86.46,-0.0138,10.0,0.418,1.3177,3.0426,3.3157,23.42,-7.6874,-2.2143,8.0000,-106.07,86,450.0,101.0,-6.3698,0.8283,6.4234,-82.59,-10.15,-82.59,-72.44,False,LEFT,0.700,0,0,STUCK,False,False,True,0,True,STUCK_DETECTED,0.00,0
1764572257.638472,63.939,43,TEST2_OBSTACLE_BYPASS,True,-425.2,2375.0,2412.7,349.85,0.825,0.0,-1863.4,-946.2,-133.38,-130.56,-133.38,152.98,86.54,-0.0096,10.0,0.532,1.3177,3.0426,3.3157,23.42,-7.6874,-2.2143,8.0000,-106.07,86,450.0,101.0,-6.3698,0.8283,6.4234,-82.59,-10.15,-82.59,-72.44,False,LEFT,0.700,0,0,STUCK,False,False,True,0,True,STUCK_DETECTED,0.00,0
1764572257.6734858,63.974,44,TEST2_OBSTACLE_BYPASS,False,0.0,0.0,0.0,0.00,0.000,0.0,-1863.4,-946.2,-133.29,-131.42,-133.29,151.60,86.64,-0.0490,10.0,0.643,1.3177,3.0426,3.3157,23.42,-7.6098,-2.4679,8.0000,-107.97,82,450.0,110.0,-6.2922,0.5747,6.3184,-84.78,0.00,-84.78,0.00,False,LEFT,0.700,0,0,STUCK,False,False,True,0,True,STUCK_DETECTED,0.00,0
1764572257.7160242,64.016,45,TEST2_OBSTACLE_BYPASS,False,0.0,0.0,0.0,0.00,0.000,0.0,-1863.4,-946.2,-133.13,-131.23,-133.13,150.92,86.67,0.0288,10.0,0.753,1.3177,3.0426,3.3157,23.42,-7.6098,-2.4679,8.0000,-107.97,82,450.0,110.0,-6.2922,0.5747,6.3184,-84.78,0.00,-84.78,0.00,False,LEFT,0.700,0,0,STUCK,False,False,True,0,True,STUCK_DETECTED,0.00,0
1764572257.752608,64.053,46,TEST2_OBSTACLE_BYPASS,False,0.0,0.0,0.0,0.00,0.000,0.0,-1863.4,-946.2,-132.69,-130.71,-132.69,150.78,86.44,0.0554,10.0,0.867,1.3177,3.0426,3.3157,23.42,-7.5240,-2.7183,8.0000,-109.86,69,450.0,110.0,-6.2064,0.3243,6.2148,-87.01,0.00,-87.01,0.00,False,LEFT,0.700,0,0,STUCK,False,False,True,0,True,STUCK_DETECTED,0.00,0
1764572257.793039,64.093,47,TEST2_OBSTACLE_BYPASS,False,0.0,0.0,0.0,0.00,0.000,0.0,-1863.4,-946.2,-132.11,-130.61,-132.11,150.09,86.14,0.0554,10.0,0.989,1.3177,3.0426,3.3157,23.42,-7.5240,-2.7183,8.0000,-109.86,69,450.0,110.0,-6.2064,0.3243,6.2148,-87.01,0.00,-87.01,0.00,False,LEFT,0.700,0,0,STUCK,False,False,True,0,True,STUCK_DETECTED,0.00,0
1764572257.8360014,64.136,48,TEST2_OBSTACLE_BYPASS,False,0.0,0.0,0.0,0.00,0.000,0.0,-1863.4,-946.2,-131.39,-129.66,-131.39,150.05,85.82,0.0043,10.0,1.121,1.3177,3.0426,3.3157,23.42,-7.3650,-3.1237,8.0000,-112.98,70,450.0,110.0,-6.0473,-0.0811,6.0479,-90.77,0.00,-90.77,0.00,False,LEFT,0.700,0,0,STUCK,False,False,True,0,True,STUCK_DETECTED,0.00,0
1764572257.8735294,64.174,49,TEST2_OBSTACLE_BYPASS,False,0.0,0.0,0.0,0.00,0.000,0.0,-1863.4,-946.2,-130.65,-128.65,-130.65,149.91,85.69,-0.0383,10.0,1.263,1.3177,3.0426,3.3157,23.42,-7.3650,-3.1237,8.0000,-112.98,70,450.0,110.0,-6.0473,-0.0811,6.0479,-90.77,0.00,-90.77,0.00,False,LEFT,0.700,0,0,STUCK,False,False,True,0,True,STUCK_DETECTED,0.00,0
1764572257.9166625,64.217,50,TEST2_OBSTACLE_BYPASS,True,-361.4,2303.2,2331.4,351.08,0.700,0.0,-1863.4,-946.2,-130.15,-128.23,-130.15,149.37,85.95,-0.0778,10.0,1.410,1.4065,3.0429,3.3522,24.81,-7.2550,-3.3712,8.0000,-114.92,76,450.0,228.0,-5.8485,-0.3283,5.8577,-93.21,-8.92,-93.21,-84.29,False,LEFT,0.700,0,0,STUCK,False,False,True,0,True,STUCK_DETECTED,0.00,0
1764572257.9536455,64.254,51,TEST2_OBSTACLE_BYPASS,True,-361.4,2303.2,2331.4,351.08,0.700,0.0,-1863.4,-946.2,-129.96,-128.76,-129.96,147.96,86.23,-0.0320,10.0,1.554,1.4065,3.0429,3.3522,24.81,-7.2550,-3.3712,8.0000,-114.92,76,450.0,228.0,-5.8485,-0.3283,5.8577,-93.21,-8.92,-93.21,-84.29,False,LEFT,0.700,0,0,STUCK,False,False,True,0,True,STUCK_DETECTED,0.00,0
1764572257.995232,64.295,52,TEST2_OBSTACLE_BYPASS,True,-361.4,2303.2,2331.4,351.08,0.700,0.0,-1863.4,-946.2,-129.92,-129.35,-129.92,146.74,86.28,0.0362,10.0,1.694,1.4065,3.0429,3.3522,24.81,-7.0824,-3.7202,8.0000,-117.71,74,450.0,148.0,-5.6758,-0.6774,5.7161,-96.81,-8.92,-96.81,-87.89,False,LEFT,0.700,0,0,STUCK,False,False,True,0,True,STUCK_DETECTED,0.00,0
1764572258.0323434,64.333,53,TEST2_OBSTACLE_BYPASS,True,-361.4,2303.2,2331.4,351.08,0.700,0.0,-1863.4,-946.2,-129.89,-130.31,-129.89,144.94,86.20,0.0650,10.0,1.828,1.4065,3.0429,3.3522,24.81,-7.0824,-3.7202,8.0000,-117.71,74,450.0,148.0,-5.6758,-0.6774,5.7161,-96.81,-8.92,-96.81,-87.89,False,LEFT,0.700,0,0,STUCK,False,False,True,0,True,STUCK_DETECTED,0.00,0
1764572258.0745025,64.375,54,TEST2_OBSTACLE_BYPASS,True,-135.8,2214.7,2218.9,356.49,0.995,0.0,-1863.4,-946.2,-129.84,-130.83,-129.84,143.78,86.11,0.0618,10.0,1.959,1.5977,2.9232,3.3313,28.66,-6.8966,-4.0543,8.0000,-120.45,71,450.0,148.0,-5.2989,-1.1311,5.4183,-102.05,-3.51,-102.05,-98.54,True,LEFT,0.700,0,0,STUCK,False,False,True,0,True,FORCE_AWAY_FROM_PERSON|STUCK_DETECTED,0.00,0
1764572258.1130738,64.413,55,TEST2_OBSTACLE_BYPASS,True,-135.8,2214.7,2218.9,356.49,0.995,0.0,-1863.4,-946.2,-129.80,-130.86,-129.80,142.69,85.94,0.0309,10.0,2.086,1.5977,2.9232,3.3313,28.66,-6.8966,-4.0543,8.0000,-120.45,71,450.0,148.0,-5.2989,-1.1311,5.4183,-102.05,-3.51,-102.05,-98.54,True,LEFT,0.700,0,0,STUCK,False,False,True,0,True,FORCE_AWAY_FROM_PERSON|STUCK_DETECTED,0.00,0
1764572258.1545696,64.455,56,TEST2_OBSTACLE_BYPASS,True,-92.3,2216.9,2218.9,357.61,0.995,0.0,-1863.4,-946.2,-129.82,-130.95,-129.82,141.69,85.91,0.0085,10.0,2.207,1.6172,2.8882,3.3102,29.25,-6.6754,-4.4090,8.0000,-123.44,66,450.0,148.0,-5.0582,-1.5208,5.2818,-106.73,-2.39,-106.73,-104.35,True,LEFT,0.700,0,0,STUCK,False,False,True,0,True,FORCE_AWAY_FROM_PERSON|STUCK_DETECTED,0.00,0
1764572258.1960654,64.496,57,TEST2_OBSTACLE_BYPASS,True,-92.3,2216.9,2218.9,357.61,0.995,0.0,-1863.4,-946.2,-129.86,-131.01,-129.86,140.56,85.94,-0.0096,10.0,2.323,1.6172,2.8882,3.3102,29.25,-6.6754,-4.4090,8.0000,-123.44,66,450.0,148.0,-5.0582,-1.5208,5.2818,-106.73,-2.39,-106.73,-104.35,True,LEFT,0.700,0,0,STUCK,False,False,True,0,True,FORCE_AWAY_FROM_PERSON|STUCK_DETECTED,0.00,0
1764572258.238055,64.538,58,TEST2_OBSTACLE_BYPASS,True,-92.3,2216.9,2218.9,357.61,0.995,0.0,-1863.4,-946.2,-130.00,-131.06,-130.00,139.51,86.04,-0.0107,10.0,2.433,1.6172,2.8882,3.3102,29.25,-6.4048,-4.7936,8.0000,-126.81,73,450.0,148.0,-4.7876,-1.9053,5.1528,-111.70,-2.39,-111.70,-109.32,True,LEFT,0.700,0,0,STUCK,False,False,True,0,True,FORCE_AWAY_FROM_PERSON|STUCK_DETECTED,0.00,0
1764572258.273994,64.574,59,TEST2_OBSTACLE_BYPASS,True,-92.3,2216.9,2218.9,357.61,0.995,0.0,-1863.4,-946.2,-130.26,-131.19,-130.26,138.56,86.09,0.0138,10.0,2.535,1.6172,2.8882,3.3102,29.25,-6.4048,-4.7936,8.0000,-126.81,73,450.0,148.0,-4.7876,-1.9053,5.1528,-111.70,-2.39,-111.70,-109.32,True,LEFT,0.700,0,0,STUCK,False,False,True,0,True,FORCE_AWAY_FROM_PERSON|STUCK_DETECTED,0.00,0
1764572258.3151014,64.615,60,TEST2_OBSTACLE_BYPASS,True,-92.3,2216.9,2218.9,357.61,0.995,0.0,-1863.4,-946.2,-130.61,-131.79,-130.61,136.70,86.08,0.0320,10.0,2.627,1.6172,2.8882,3.3102,29.25,-6.1468,-5.1203,8.0000,-129.79,77,450.0,122.0,-4.5296,-2.2320,5.0497,-116.23,-2.39,-116.23,-113.85,True,BACKWARDS_LEFT,0.500,0,0,STUCK,False,False,True,0,True,FORCE_AWAY_FROM_PERSON|STUCK_DETECTED,0.00,0
1764572258.3583572,64.659,61,TEST2_OBSTACLE_BYPASS,True,-48.8,2218.3,2218.9,358.74,0.995,0.0,-1860.8,-943.1,-130.99,-132.53,-130.99,134.23,86.01,-0.0043,10.0,2.710,1.6376,2.8572,3.2932,29.82,-6.1468,-5.1203,8.0000,-129.79,77,450.0,122.0,-4.5092,-2.2631,5.0452,-116.65,-1.26,-116.65,-115.39,True,BACKWARDS_LEFT,0.500,0,0,STUCK,False,False,True,0,True,FORCE_AWAY_FROM_PERSON|STUCK_DETECTED,0.00,0
1764572258.3958507,64.696,62,TEST2_OBSTACLE_BYPASS,False,0.0,0.0,0.0,0.00,0.000,0.0,-1857.8,-939.7,-131.32,-132.62,-131.32,132.76,85.94,0.0000,10.0,2.785,1.6389,2.8610,3.2972,29.81,-5.8285,-5.4798,8.0000,-133.23,72,450.0,122.0,-4.1896,-2.6188,4.9408,-122.01,0.00,-122.01,0.00,False,BACKWARDS_LEFT,0.500,0,0,STUCK,False,False,True,0,True,STUCK_DETECTED,0.00,0
1764572258.4411395,64.741,63,TEST2_OBSTACLE_BYPASS,False,0.0,0.0,0.0,0.00,0.000,0.0,-1855.2,-936.8,-131.54,-132.51,-131.54,132.37,86.00,-0.0021,10.0,2.854,1.6400,2.8644,3.3007,29.79,-5.8285,-5.4798,8.0000,-133.23,72,450.0,122.0,-4.1885,-2.6154,4.9380,-121.98,0.00,-121.98,0.00,False,BACKWARDS_LEFT,0.500,0,0,STUCK,False,False,True,0,True,STUCK_DETECTED,0.00,0
1764572258.4752448,64.775,64,TEST2_OBSTACLE_BYPASS,False,0.0,0.0,0.0,0.00,0.000,0.0,-1852.3,-933.5,-131.67,-132.17,-131.67,131.32,85.93,-0.0021,10.0,2.918,1.6412,2.8682,3.3046,29.78,-5.3752,-5.9251,8.0000,-137.79,69,450.0,127.0,-3.7340,-3.0569,4.8257,-129.31,0.00,-129.31,0.00,False,BACKWARDS_LEFT,0.500,0,0,STUCK,False,False,True,0,True,STUCK_DETECTED,0.00,0
1764572258.514925,64.815,65,TEST2_OBSTACLE_BYPASS,False,0.0,0.0,0.0,0.00,0.000,0.0,-1849.6,-930.5,-131.78,-131.93,-131.78,130.39,85.98,0.0075,10.0,2.979,1.6423,2.8717,3.3081,29.77,-5.3752,-5.9251,8.0000,-137.79,69,450.0,127.0,-3.7329,-3.0534,4.8227,-129.28,0.00,-129.28,0.00,False,BACKWARDS_LEFT,0.500,0,0,STUCK,False,False,True,0,True,STUCK_DETECTED,0.00,0
1764572258.5596883,64.860,66,TEST2_OBSTACLE_BYPASS,True,381.0,2186.6,2219.6,9.89,0.938,0.0,-1846.5,-927.1,-131.82,-131.44,-131.82,129.49,85.89,-0.0021,10.0,3.037,1.8237,2.5492,3.1344,35.58,-5.0047,-6.2412,8.0000,-141.27,70,500.0,127.0,-3.1810,-3.6920,4.8733,-139.25,9.89,-139.25,-149.14,True,BACKWARDS_LEFT,0.500,0,0,STUCK,False,False,True,0,True,FORCE_AWAY_FROM_PERSON|STUCK_DETECTED,0.00,0
1764572258.601259,64.901,67,TEST2_OBSTACLE_BYPASS,True,496.0,2123.8,2181.0,13.14,0.991,0.0,-1843.7,-923.9,-131.82,-130.92,-131.82,128.57,85.90,-0.0138,10.0,3.094,1.9018,2.4774,3.1232,37.51,-4.7713,-6.4214,8.0000,-143.39,63,500.0,127.0,-2.8695,-3.9440,4.8774,-143.96,13.14,-143.96,-157.11,True,BACKWARDS_LEFT,0.500,0,0,STUCK,False,False,True,0,True,FORCE_AWAY_FROM_PERSON|STUCK_DETECTED,0.00,1
1764572258.6362548,64.936,68,TEST2_OBSTACLE_BYPASS,True,496.0,2123.8,2181.0,13.14,0.991,0.0,-1841.1,-921.0,-131.75,-130.39,-131.75,127.89,85.88,-0.0160,10.0,3.150,1.9036,2.4801,3.1264,37.51,-4.7713,-6.4214,8.0000,-143.39,63,500.0,127.0,-2.8678,-3.9413,4.8742,-143.96,13.14,-143.96,-157.10,True,BACKWARDS_LEFT,0.500,0,0,STUCK,False,False,True,0,True,FORCE_AWAY_FROM_PERSON|STUCK_DETECTED,0.00,1
1764572258.6779416,64.978,69,TEST2_OBSTACLE_BYPASS,True,552.5,2114.0,2185.0,14.65,0.998,0.0,-1838.1,-917.6,-131.61,-129.84,-131.61,126.93,85.88,0.0192,10.0,3.206,1.9246,2.4406,3.1082,38.26,-4.6293,-6.5245,8.0000,-144.64,54,500.0,133.0,-2.7048,-4.0839,4.8984,-146.48,14.65,-146.48,-161.13,True,BACKWARDS_LEFT,0.500,0,0,STUCK,False,False,True,0,True,FORCE_AWAY_FROM_PERSON|STUCK_DETECTED,0.00,1
1764572258.7197685,65.020,70,TEST2_OBSTACLE_BYPASS,True,552.5,2114.0,2185.0,14.65,0.998,0.0,-1835.4,-914.5,-131.41,-129.75,-131.41,125.84,85.80,0.0234,10.0,3.264,1.9265,2.4433,3.1115,38.25,-4.6293,-6.5245,8.0000,-144.64,54,500.0,133.0,-2.7029,-4.0812,4.8950,-146.48,14.65,-146.48,-161.13,True,BACKWARDS_LEFT,0.500,0,0,STUCK,False,False,True,0,True,FORCE_AWAY_FROM_PERSON|STUCK_DETECTED,0.00,1
1764572258.7594523,65.060,71,TEST2_OBSTACLE_BYPASS,True,552.5,2114.0,2185.0,14.65,0.998,0.0,-1832.5,-911.2,-131.13,-129.71,-131.13,125.15,85.76,-0.0032,10.0,3.324,1.9285,2.4462,3.1150,38.25,-4.4460,-6.6508,8.0000,-146.24,44,500.0,133.0,-2.5175,-4.2045,4.9006,-149.09,14.65,-149.09,-163.74,True,BACKWARDS_LEFT,0.500,0,0,STUCK,False,False,True,0,True,FORCE_AWAY_FROM_PERSON|STUCK_DETECTED,0.00,0
1764572258.8029468,65.103,72,TEST2_OBSTACLE_BYPASS,True,567.3,2119.4,2194.0,14.98,0.998,0.0,-1829.6,-907.8,-130.79,-129.23,-130.79,125.05,85.78,-0.0277,10.0,3.387,1.9291,2.4366,3.1078,38.37,-4.4460,-6.6508,8.0000,-146.24,44,500.0,133.0,-2.5169,-4.2142,4.9086,-149.15,14.98,-149.15,-164.14,True,BACKWARDS_LEFT,0.500,0,0,STUCK,False,False,True,0,True,FORCE_AWAY_FROM_PERSON|STUCK_DETECTED,0.00,1
1764572258.8432105,65.143,73,TEST2_OBSTACLE_BYPASS,True,608.8,2107.9,2194.0,16.11,0.998,0.0,-1826.9,-904.7,-130.34,-128.01,-130.34,125.68,85.82,-0.0181,10.0,3.454,1.9475,2.4088,3.0975,38.96,-4.1454,-6.8422,8.0000,-148.79,42,500.0,133.0,-2.1980,-4.4334,4.9484,-153.63,16.11,-153.63,-169.74,True,BACKWARDS_LEFT,0.500,0,0,STUCK,False,False,True,0,True,FORCE_AWAY_FROM_PERSON|STUCK_DETECTED,0.00,2
1764572258.8798423,65.180,74,TEST2_OBSTACLE_BYPASS,True,608.8,2107.9,2194.0,16.11,0.998,0.0,-1824.3,-901.6,-129.89,-127.65,-129.89,125.86,85.86,-0.0032,10.0,3.526,1.9494,2.4113,3.1007,38.95,-4.1454,-6.8422,8.0000,-148.79,42,500.0,133.0,-2.1960,-4.4309,4.9452,-153.64,16.11,-153.64,-169.75,True,BACKWARDS_LEFT,0.500,0,0,STUCK,False,False,True,0,True,FORCE_AWAY_FROM_PERSON|STUCK_DETECTED,0.00,2
1764572258.921428,65.222,75,TEST2_OBSTACLE_BYPASS,True,608.8,2107.9,2194.0,16.11,0.998,0.0,-1821.6,-898.4,-129.42,-127.28,-129.42,126.03,85.86,-0.0021,10.0,3.603,1.9516,2.4139,3.1041,38.95,-4.0289,-6.9114,8.0000,-149.76,43,500.0,133.0,-2.0773,-4.4975,4.9541,-155.21,16.11,-155.21,-171.32,True,BACKWARDS_LEFT,0.500,0,0,STUCK,False,False,True,0,True,FORCE_AWAY_FROM_PERSON|STUCK_DETECTED,0.00,2
1764572258.9580436,65.258,76,TEST2_OBSTACLE_BYPASS,True,608.8,2107.9,2194.0,16.11,0.998,0.0,-1819.1,-895.3,-128.98,-127.04,-128.98,126.49,85.87,0.0202,10.0,3.683,1.9536,2.4164,3.1073,38.95,-4.0289,-6.9114,8.0000,-149.76,43,500.0,133.0,-2.0753,-4.4950,4.9510,-155.22,16.11,-155.22,-171.33,True,BACKWARDS_LEFT,0.500,0,0,STUCK,False,False,True,0,True,FORCE_AWAY_FROM_PERSON|STUCK_DETECTED,0.00,2
1764572259.0002713,65.300,77,TEST2_OBSTACLE_BYPASS,True,608.8,2107.9,2194.0,16.11,0.998,0.0,-1816.3,-891.7,-128.56,-126.71,-128.56,127.26,85.78,-0.0032,10.0,3.766,1.9559,2.4192,3.1110,38.95,-4.1502,-6.8393,8.0000,-148.75,51,550.0,133.0,-2.1943,-4.4200,4.9348,-153.60,16.11,-153.60,-169.71,True,BACKWARDS_LEFT,0.500,0,0,STUCK,False,False,True,0,True,FORCE_AWAY_FROM_PERSON|STUCK_DETECTED,0.00,3
1764572259.0389593,65.339,78,TEST2_OBSTACLE_BYPASS,True,608.8,2107.9,2194.0,16.11,0.998,0.0,-1813.8,-888.6,-128.22,-126.99,-128.22,127.54,85.88,-0.0053,10.0,3.852,1.9579,2.4217,3.1142,38.96,-4.1502,-6.8393,8.0000,-148.75,51,550.0,133.0,-2.1923,-4.4176,4.9316,-153.61,16.11,-153.61,-169.72,True,BACKWARDS_LEFT,0.500,0,0,STUCK,False,False,True,0,True,FORCE_AWAY_FROM_PERSON|STUCK_DETECTED,0.00,3
1764572259.0835927,65.384,79,TEST2_OBSTACLE_BYPASS,True,650.0,2095.5,2194.0,17.23,0.998,0.0,-1811.1,-885.1,-128.08,-128.42,-128.08,126.84,86.04,-0.0043,10.0,3.937,1.9766,2.3938,3.1044,39.55,-4.3473,-6.7157,8.0000,-147.08,60,550.0,133.0,-2.3707,-4.3219,4.9294,-151.25,17.23,-151.25,-168.49,True,BACKWARDS_LEFT,0.500,0,0,STUCK,False,False,True,0,True,FORCE_AWAY_FROM_PERSON|STUCK_DETECTED,0.00,3
1764572259.117622,65.418,80,TEST2_OBSTACLE_BYPASS,False,0.0,0.0,0.0,0.00,0.000,0.0,-1808.7,-882.0,-128.09,-129.83,-128.09,125.84,86.09,-0.0288,10.0,4.020,1.9787,2.3962,3.1076,39.55,-4.3473,-6.7157,8.0000,-147.08,60,550.0,133.0,-2.3686,-4.3195,4.9263,-151.26,0.00,-151.26,0.00,False,BACKWARDS_LEFT,0.500,0,0,STUCK,False,False,True,0,True,STUCK_DETECTED,0.00,0
1764572259.162982,65.463,81,TEST2_OBSTACLE_BYPASS,False,0.0,0.0,0.0,0.00,0.000,0.0,-1805.9,-878.5,-128.13,-130.11,-128.13,126.23,86.19,0.0032,10.0,4.101,1.9811,2.3990,3.1112,39.55,-4.5420,-6.5856,8.0000,-145.41,68,550.0,133.0,-2.5609,-4.1867,4.9078,-148.55,0.00,-148.55,0.00,False,BACKWARDS_LEFT,0.500,0,0,STUCK,False,False,True,0,True,STUCK_DETECTED,0.00,0
1764572259.1988423,65.499,82,TEST2_OBSTACLE_BYPASS,False,0.0,0.0,0.0,0.00,0.000,0.0,-1803.4,-875.3,-128.05,-128.42,-128.05,128.57,86.06,-0.0085,10.0,4.180,1.9832,2.4014,3.1145,39.55,-4.5420,-6.5856,8.0000,-145.41,68,550.0,133.0,-2.5588,-4.1842,4.9046,-148.55,0.00,-148.55,0.00,False,BACKWARDS_LEFT,0.500,0,0,STUCK,False,False,True,0,True,STUCK_DETECTED,0.00,0
1764572259.244791,65.545,83,TEST2_OBSTACLE_BYPASS,False,0.0,0.0,0.0,0.00,0.000,0.0,-1800.7,-871.7,-127.88,-126.39,-127.88,132.38,86.02,-0.0383,10.0,4.260,1.9856,2.4042,3.1181,39.55,-4.7767,-6.4174,8.0000,-143.34,70,550.0,133.0,-2.7910,-4.0133,4.8884,-145.18,0.00,-145.18,0.00,False,BACKWARDS_LEFT,0.500,0,0,STUCK,False,False,True,0,True,STUCK_DETECTED,0.00,0
1764572259.3071673,65.607,84,TEST2_OBSTACLE_BYPASS,False,0.0,0.0,0.0,0.00,0.000,0.0,-1797.0,-867.0,-127.77,-126.51,-127.77,134.41,86.20,-0.0362,10.0,4.339,1.9888,2.4078,3.1229,39.56,-4.7767,-6.4174,8.0000,-143.34,70,550.0,133.0,-2.7879,-4.0097,4.8836,-145.19,0.00,-145.19,0.00,False,BACKWARDS_LEFT,0.500,0,0,STUCK,False,False,True,0,True,STUCK_DETECTED,0.00,0
1764572259.3342147,65.634,85,TEST2_OBSTACLE_BYPASS,False,0.0,0.0,0.0,0.00,0.000,0.0,-1794.7,-864.1,-127.70,-126.57,-127.70,135.84,86.37,-0.0490,10.0,4.417,1.9908,2.4101,3.1260,39.56,-5.1932,-6.0853,8.0000,-139.52,76,550.0,137.0,-3.2024,-3.6752,4.8747,-138.93,0.00,-138.93,0.00,False,BACKWARDS_LEFT,0.500,0,0,STUCK,False,False,True,0,True,STUCK_DETECTED,0.00,0
1764572259.3817823,65.682,86,TEST2_OBSTACLE_BYPASS,False,0.0,0.0,0.0,0.00,0.000,0.0,-1791.7,-860.1,-127.25,-122.58,-127.25,140.66,86.27,-0.0490,10.0,4.498,1.9935,2.4131,3.1300,39.56,-5.3336,-5.9627,8.0000,-138.19,75,550.0,137.0,-3.3400,-3.5496,4.8740,-136.74,0.00,-136.74,0.00,False,BACKWARDS_LEFT,0.500,0,0,STUCK,False,False,True,0,True,STUCK_DETECTED,0.00,0
1764572259.418418,65.719,87,TEST2_OBSTACLE_BYPASS,False,0.0,0.0,0.0,0.00,0.000,0.0,-1789.4,-856.9,-126.56,-119.76,-126.56,143.71,86.16,-0.0575,10.0,4.586,1.9957,2.4155,3.1333,39.56,-5.3336,-5.9627,8.0000,-138.19,75,550.0,137.0,-3.3378,-3.5472,4.8707,-136.74,0.00,-136.74,0.00,False,BACKWARDS_LEFT,0.500,0,0,STUCK,False,False,True,0,True,STUCK_DETECTED,0.00,0
1764572259.4626777,65.763,88,TEST2_OBSTACLE_BYPASS,False,0.0,0.0,0.0,0.00,0.000,0.0,-1786.8,-853.3,-125.50,-116.37,-125.50,147.52,86.13,-0.0724,10.0,4.684,1.9982,2.4181,3.1369,39.57,-5.4547,-5.8521,8.0000,-137.01,66,550.0,108.0,-3.4564,-3.4340,4.8723,-134.81,0.00,-134.81,0.00,False,BACKWARDS_LEFT,0.500,0,0,STUCK,False,False,True,0,True,STUCK_DETECTED,0.00,0
1764572259.4982746,65.798,89,TEST2_OBSTACLE_BYPASS,False,0.0,0.0,0.0,0.00,0.000,0.0,-1784.5,-850.0,-124.10,-114.51,-124.10,149.87,86.19,-0.0533,10.0,4.795,2.0006,2.4205,3.1402,39.57,-5.4547,-5.8521,8.0000,-137.01,66,550.0,108.0,-3.4541,-3.4316,4.8689,-134.81,0.00,-134.81,0.00,False,BACKWARDS_LEFT,0.500,0,0,STUCK,False,False,True,0,True,STUCK_DETECTED,0.00,0
1764572259.5436828,65.844,90,TEST2_OBSTACLE_BYPASS,False,0.0,0.0,0.0,0.00,0.000,0.0,-1782.1,-846.2,-122.43,-113.07,-122.43,152.14,86.17,0.0138,10.0,4.923,2.0033,2.4230,3.1439,39.58,-5.6607,-5.6530,8.0000,-134.96,63,550.0,108.0,-3.6574,-3.2300,4.8795,-131.45,0.00,-131.45,0.00,False,BACKWARDS_LEFT,0.500,0,0,STUCK,False,False,True,0,True,STUCK_DETECTED,0.00,0
1764572259.5795786,65.880,91,TEST2_OBSTACLE_BYPASS,False,0.0,0.0,0.0,0.00,0.000,0.0,-1780.1,-842.8,-120.84,-114.19,-120.84,151.61,86.21,0.0618,10.0,5.065,2.0057,2.4251,3.1471,39.59,-5.6607,-5.6530,8.0000,-134.96,63,550.0,108.0,-3.6550,-3.2278,4.8763,-131.45,0.00,-131.45,0.00,False,BACKWARDS_LEFT,0.500,0,0,STUCK,False,False,True,0,True,STUCK_DETECTED,0.00,0
1764572259.6231284,65.923,92,TEST2_OBSTACLE_BYPASS,False,0.0,0.0,0.0,0.00,0.000,0.0,-1777.9,-838.9,-119.78,-117.89,-119.78,148.63,86.21,0.0383,10.0,5.216,2.0085,2.4276,3.1507,39.60,-5.8687,-5.4368,8.0000,-132.81,65,600.0,249.0,-3.8602,-3.0092,4.8945,-127.94,0.00,-127.94,0.00,False,BACKWARDS_LEFT,0.500,0,0,STUCK,False,False,True,0,True,STUCK_DETECTED,0.00,0
1764572259.662315,65.963,93,TEST2_OBSTACLE_BYPASS,False,0.0,0.0,0.0,0.00,0.000,0.0,-1775.8,-835.3,-119.01,-118.68,-119.01,148.08,86.21,-0.0128,10.0,5.372,2.0112,2.4298,3.1541,39.62,-5.8687,-5.4368,8.0000,-132.81,65,600.0,249.0,-3.8575,-3.0070,4.8911,-127.94,0.00,-127.94,0.00,False,BACKWARDS_LEFT,0.500,0,0,STUCK,False,False,True,0,True,STUCK_DETECTED,0.00,0
1764572259.7027054,66.003,94,TEST2_OBSTACLE_BYPASS,False,0.0,0.0,0.0,0.00,0.000,0.0,-1773.9,-831.5,-118.10,-117.39,-118.10,149.81,86.28,-0.0415,10.0,5.535,2.0139,2.4320,3.1576,39.63,-6.0666,-5.2150,8.0000,-130.68,65,600.0,249.0,-4.0527,-2.7830,4.9163,-124.48,0.00,-124.48,0.00,False,BACKWARDS_LEFT,0.500,0,0,STUCK,False,False,True,0,True,STUCK_DETECTED,0.00,0
1764572259.7464223,66.047,95,TEST2_OBSTACLE_BYPASS,False,0.0,0.0,0.0,0.00,0.000,0.0,-1771.8,-827.5,-117.07,-116.24,-117.07,151.36,86.32,-0.0320,10.0,5.705,2.0169,2.4343,3.1612,39.64,-6.0666,-5.2150,8.0000,-130.68,65,600.0,249.0,-4.0498,-2.7807,4.9125,-124.48,0.00,-124.48,0.00,False,BACKWARDS_LEFT,0.500,0,0,STUCK,False,False,True,0,True,STUCK_DETECTED,0.00,0
1764572259.7865875,66.087,96,TEST2_OBSTACLE_BYPASS,False,0.0,0.0,0.0,0.00,0.000,0.0,-1769.9,-823.6,-116.46,-116.49,-116.46,151.53,86.39,0.0192,10.0,5.878,2.0198,2.4365,3.1648,39.66,-6.1933,-5.0639,8.0000,-129.27,67,600.0,249.0,-4.1735,-2.6274,4.9317,-122.19,0.00,-122.19,0.00,False,BACKWARDS_LEFT,0.500,0,0,STUCK,False,False,True,0,True,STUCK_DETECTED,0.00,0
1764572259.8302846,66.130,97,TEST2_OBSTACLE_BYPASS,False,0.0,0.0,0.0,0.00,0.000,0.0,-1767.9,-819.6,-116.19,-117.02,-116.19,151.07,86.28,0.0021,10.0,6.050,2.0228,2.4387,3.1684,39.67,-6.1933,-5.0639,8.0000,-129.27,67,600.0,249.0,-4.1705,-2.6252,4.9280,-122.19,0.00,-122.19,0.00,False,BACKWARDS_LEFT,0.500,0,0,STUCK,False,False,True,0,True,STUCK_DETECTED,0.00,0
1764572259.8678522,66.168,98,TEST2_OBSTACLE_BYPASS,False,0.0,0.0,0.0,0.00,0.000,0.0,-1766.1,-816.0,-116.31,-117.64,-116.31,150.90,86.38,0.0170,10.0,6.217,2.0254,2.4407,3.1716,39.69,-6.2636,-4.9767,8.0000,-128.47,62,600.0,250.0,-4.2382,-2.5360,4.9390,-120.90,0.00,-120.90,0.00,False,BACKWARDS_LEFT,0.500,0,0,STUCK,False,False,True,0,True,STUCK_DETECTED,0.00,0
1764572259.9129102,66.213,99,TEST2_OBSTACLE_BYPASS,False,0.0,0.0,0.0,0.00,0.000,0.0,-1764.1,-812.0,-116.66,-118.01,-116.66,151.29,86.36,0.0160,10.0,6.378,2.0284,2.4430,3.1753,39.70,-6.2636,-4.9767,8.0000,-128.47,62,600.0,250.0,-4.2352,-2.5337,4.9352,-120.89,0.00,-120.89,0.00,False,BACKWARDS_LEFT,0.500,0,0,STUCK,False,False,True,0,True,STUCK_DETECTED,0.00,0
1764572259.9483457,66.249,100,TEST2_OBSTACLE_BYPASS,False,0.0,0.0,0.0,0.00,0.000,0.0,-1762.3,-808.6,-117.16,-118.04,-117.16,152.13,86.32,0.0075,10.0,6.530,2.0310,2.4450,3.1785,39.72,-6.4188,-4.7748,8.0000,-126.64,57,600.0,250.0,-4.3878,-2.3299,4.9680,-117.97,0.00,-117.97,0.00,False,BACKWARDS_LEFT,0.500,0,0,STUCK,False,False,True,0,True,STUCK_DETECTED,0.00,0
1764572259.9896863,66.290,101,TEST2_OBSTACLE_BYPASS,False,0.0,0.0,0.0,0.00,0.000,0.0,-1760.3,-804.7,-117.58,-118.38,-117.58,153.12,86.38,0.0000,10.0,6.675,2.0339,2.4473,3.1821,39.73,-6.4188,-4.7748,8.0000,-126.64,57,600.0,250.0,-4.3849,-2.3276,4.9644,-117.96,0.00,-117.96,0.00,False,BACKWARDS_LEFT,0.500,0,0,STUCK,False,False,True,0,True,STUCK_DETECTED,0.00,0
1764572260.0301273,66.330,102,TEST2_OBSTACLE_BYPASS,False,0.0,0.0,0.0,0.00,0.000,0.0,-1758.2,-800.7,-117.65,-118.59,-117.65,154.06,86.53,-0.0053,10.0,6.884,2.0369,2.4496,3.1858,39.74,-6.6234,-4.4867,8.0000,-124.11,51,650.0,250.0,-4.5866,-2.0371,5.0186,-113.95,0.00,-113.95,0.00,False,BACKWARDS_LEFT,0.500,0,0,STUCK,False,False,True,0,True,STUCK_DETECTED,0.00,0
1764572260.071237,66.371,103,TEST2_OBSTACLE_BYPASS,False,0.0,0.0,0.0,0.00,0.000,0.0,-1756.3,-797.1,-117.66,-118.77,-117.66,154.62,86.51,0.0085,10.0,7.093,2.0396,2.4518,3.1892,39.76,-6.6234,-4.4867,8.0000,-124.11,51,650.0,250.0,-4.5838,-2.0349,5.0152,-113.94,0.00,-113.94,0.00,False,BACKWARDS_LEFT,0.500,0,0,STUCK,False,False,True,0,True,STUCK_DETECTED,0.00,0
1764572260.1132557,66.413,104,TEST2_OBSTACLE_BYPASS,True,873.6,2123.0,2295.7,22.37,0.989,0.0,-1754.4,-793.4,-117.84,-119.23,-117.84,154.53,86.56,0.0160,10.0,7.300,2.0463,2.2708,3.0568,42.02,-6.7439,-4.3034,8.0000,-122.54,52,650.0,251.0,-4.6977,-2.0325,5.1185,-113.40,22.37,-113.40,-135.76,True,BACKWARDS_LEFT,0.500,0,0,STUCK,False,False,True,0,True,FORCE_AWAY_FROM_PERSON|STUCK_DETECTED,0.00,0
1764572260.1620417,66.462,105,TEST2_OBSTACLE_BYPASS,True,873.6,2123.0,2295.7,22.37,0.989,0.0,-1752.3,-789.5,-118.20,-119.80,-118.20,154.54,86.55,0.0021,10.0,7.504,2.0491,2.2728,3.0601,42.04,-6.7439,-4.3034,8.0000,-122.54,52,650.0,251.0,-4.6948,-2.0306,5.1151,-113.39,22.37,-113.39,-135.76,True,BACKWARDS_LEFT,0.500,0,0,STUCK,False,False,True,0,True,FORCE_AWAY_FROM_PERSON|STUCK_DETECTED,0.00,0
1764572260.1955998,66.496,106,TEST2_OBSTACLE_BYPASS,True,915.1,2105.4,2295.7,23.49,0.989,0.0,-1750.2,-785.7,-118.55,-119.99,-118.55,154.76,86.57,0.0000,10.0,7.703,2.0685,2.2437,3.0517,42.67,-6.8594,-4.1169,8.0000,-120.97,47,650.0,251.0,-4.7909,-1.8732,5.1441,-111.35,23.49,-111.35,-134.85,True,LEFT,0.700,0,0,STUCK,False,False,True,0,True,FORCE_AWAY_FROM_PERSON|STUCK_DETECTED,0.00,0
1764572260.2380085,66.538,107,TEST2_OBSTACLE_BYPASS,True,915.1,2105.4,2295.7,23.49,0.989,0.0,-1750.2,-785.7,-118.88,-120.36,-118.88,154.73,86.59,0.0149,10.0,7.900,2.0685,2.2437,3.0517,42.67,-6.8594,-4.1169,8.0000,-120.97,47,650.0,251.0,-4.7909,-1.8732,5.1441,-111.35,23.49,-111.35,-134.85,True,LEFT,0.700,0,0,STUCK,False,False,True,0,True,FORCE_AWAY_FROM_PERSON|STUCK_DETECTED,0.00,0
1764572260.2746458,66.575,108,TEST2_OBSTACLE_BYPASS,True,915.1,2105.4,2295.7,23.49,0.989,0.0,-1750.2,-785.7,-119.22,-121.00,-119.22,154.55,86.73,0.0160,10.0,8.093,2.0685,2.2437,3.0517,42.67,-6.9700,-3.9267,8.0000,-119.40,42,650.0,251.0,-4.9015,-1.6830,5.1824,-108.95,23.49,-108.95,-132.44,True,LEFT,0.700,0,0,STUCK,False,False,True,0,True,FORCE_AWAY_FROM_PERSON|STUCK_DETECTED,0.00,0
1764572260.3161144,66.616,109,TEST2_OBSTACLE_BYPASS,True,915.1,2105.4,2295.7,23.49,0.989,0.0,-1750.2,-785.7,-119.62,-122.03,-119.62,153.92,86.68,0.0266,10.0,8.282,2.0685,2.2437,3.0517,42.67,-7.0651,-3.7529,8.0000,-117.98,36,700.0,251.0,-4.9966,-1.5092,5.2196,-106.81,23.49,-106.81,-130.30,True,LEFT,0.700,0,0,STUCK,False,False,True,0,True,FORCE_AWAY_FROM_PERSON|STUCK_DETECTED,0.00,0
1764572260.3599627,66.660,110,TEST2_OBSTACLE_BYPASS,True,915.1,2105.4,2295.7,23.49,0.989,0.0,-1750.2,-785.7,-120.11,-122.94,-120.11,153.80,86.68,0.0149,10.0,8.466,2.0685,2.2437,3.0517,42.67,-7.0651,-3.7529,8.0000,-117.98,36,700.0,251.0,-4.9966,-1.5092,5.2196,-106.81,23.49,-106.81,-130.30,True,LEFT,0.700,0,0,STUCK,False,False,True,0,True,FORCE_AWAY_FROM_PERSON|STUCK_DETECTED,0.00,0
1764572260.4007215,66.701,111,TEST2_OBSTACLE_BYPASS,True,915.1,2105.4,2295.7,23.49,0.989,0.0,-1750.2,-785.7,-120.56,-122.87,-120.56,154.57,86.71,-0.0160,10.0,8.645,2.0685,2.2437,3.0517,42.67,-7.2219,-3.4416,8.0000,-115.48,34,700.0,265.0,-5.1534,-1.1979,5.2908,-103.09,23.49,-103.09,-126.58,True,LEFT,0.700,0,0,STUCK,False,False,True,0,True,FORCE_AWAY_FROM_PERSON|STUCK_DETECTED,0.00,0
1764572260.4454725,66.746,112,TEST2_OBSTACLE_BYPASS,False,0.0,0.0,0.0,0.00,0.000,0.0,-1750.2,-785.7,-120.95,-122.48,-120.95,155.74,86.86,-0.0181,10.0,8.822,2.0685,2.2437,3.0517,42.67,-7.2219,-3.4416,8.0000,-115.48,34,700.0,265.0,-5.1534,-1.1979,5.2908,-103.09,0.00,-103.09,0.00,False,LEFT,0.700,0,0,STUCK,False,False,True,0,True,STUCK_DETECTED,0.00,0
1764572260.4863656,66.787,113,TEST2_OBSTACLE_BYPASS,False,0.0,0.0,0.0,0.00,0.000,0.0,-1750.2,-785.7,-121.34,-122.70,-121.34,155.92,86.96,0.0043,10.0,8.997,2.0685,2.2437,3.0517,42.67,-7.3305,-3.2037,8.0000,-113.61,25,700.0,265.0,-5.2620,-0.9600,5.3489,-100.34,0.00,-100.34,0.00,False,LEFT,0.700,0,0,STUCK,False,False,True,0,True,STUCK_DETECTED,0.00,0
1764572260.520716,66.821,114,TEST2_OBSTACLE_BYPASS,False,0.0,0.0,0.0,0.00,0.000,0.0,-1750.2,-785.7,-121.77,-123.47,-121.77,155.49,87.10,0.0096,10.0,9.170,2.0685,2.2437,3.0517,42.67,-7.3305,-3.2037,8.0000,-113.61,25,700.0,265.0,-5.2620,-0.9600,5.3489,-100.34,0.00,-100.34,0.00,False,LEFT,0.700,0,0,STUCK,False,False,True,0,True,STUCK_DETECTED,0.00,0
1764572260.5667737,66.867,115,TEST2_OBSTACLE_BYPASS,True,599.7,2252.2,2330.7,14.91,0.994,0.0,-1750.2,-785.7,-122.24,-124.57,-122.24,154.68,87.07,0.0277,10.0,9.342,1.9117,2.4713,3.1244,37.72,-7.4616,-2.8853,8.0000,-111.14,20,700.0,267.0,-5.5499,-0.4140,5.5653,-94.27,14.91,-94.27,-109.18,True,LEFT,0.700,0,0,STUCK,False,False,True,0,True,FORCE_AWAY_FROM_PERSON|STUCK_DETECTED,0.00,0
1764572260.60162,66.902,116,TEST2_OBSTACLE_BYPASS,True,599.7,2252.2,2330.7,14.91,0.994,0.0,-1750.2,-785.7,-122.77,-125.31,-122.77,154.91,87.14,0.0213,10.0,9.512,1.9117,2.4713,3.1244,37.72,-7.4616,-2.8853,8.0000,-111.14,20,700.0,267.0,-5.5499,-0.4140,5.5653,-94.27,14.91,-94.27,-109.18,True,LEFT,0.700,0,0,STUCK,False,False,True,0,True,FORCE_AWAY_FROM_PERSON|STUCK_DETECTED,0.00,0
1764572260.6469972,66.947,117,TEST2_OBSTACLE_BYPASS,True,543.0,2378.9,2440.1,12.86,0.989,0.0,-1750.2,-785.7,-123.26,-125.22,-123.26,155.70,87.06,-0.0170,10.0,9.680,1.8017,2.4863,3.0705,35.93,-7.6605,-2.3058,8.0000,-106.75,10,750.0,268.0,-5.8588,0.1805,5.8616,-88.24,12.86,-88.24,-101.09,True,LEFT,0.700,0,0,STUCK,False,False,True,0,True,FORCE_AWAY_FROM_PERSON|STUCK_DETECTED,0.00,0
1764572260.683092,66.983,118,TEST2_OBSTACLE_BYPASS,True,589.6,2367.8,2440.1,13.98,0.989,0.0,-1750.2,-785.7,-123.71,-125.45,-123.71,156.75,87.19,-0.0138,10.0,9.848,1.8210,2.4542,3.0560,36.57,-7.6605,-2.3058,8.0000,-106.75,10,750.0,268.0,-5.8395,0.1483,5.8414,-88.54,13.98,-88.54,-102.53,True,LEFT,0.700,0,0,STUCK,False,False,True,0,True,FORCE_AWAY_FROM_PERSON|STUCK_DETECTED,0.00,0
1764572260.727674,67.028,119,TEST2_OBSTACLE_BYPASS,True,551.9,2419.5,2481.6,12.85,0.993,0.0,-1750.2,-785.7,-124.08,-125.83,-124.08,157.13,87.37,-0.0213,10.0,10.016,1.7739,2.4698,3.0408,35.69,-7.8152,-1.7096,8.0000,-102.34,9,750.0,268.0,-6.0413,0.7602,6.0889,-82.83,12.85,-82.83,-95.68,True,LEFT,0.700,0,0,STUCK,False,False,True,0,True,FORCE_AWAY_FROM_PERSON|STUCK_DETECTED,0.00,0
1764572260.7643504,67.065,120,TEST2_OBSTACLE_BYPASS,True,551.9,2419.5,2481.6,12.85,0.993,0.0,-1750.2,-785.7,-124.14,-123.50,-124.14,159.67,87.41,-0.0320,10.0,10.185,1.7739,2.4698,3.0408,35.69,-7.8152,-1.7096,8.0000,-102.34,9,750.0,268.0,-6.0413,0.7602,6.0889,-82.83,12.85,-82.83,-95.68,True,LEFT,0.700,0,0,STUCK,False,False,True,0,True,FORCE_AWAY_FROM_PERSON|STUCK_DETECTED,0.00,0
1764572260.8095074,67.110,121,TEST2_OBSTACLE_BYPASS,True,512.5,2456.7,2509.6,11.78,0.999,0.0,-1750.2,-785.7,-123.81,-119.54,-123.81,163.10,87.18,-0.0170,10.0,10.356,1.7369,2.4889,3.0350,34.91,-7.9064,-1.2204,8.0000,-98.77,10,750.0,257.0,-6.1695,1.2685,6.2985,-78.38,11.78,-78.38,-90.17,True,LEFT,0.700,0,0,STUCK,False,False,True,0,True,FORCE_AWAY_FROM_PERSON|STUCK_DETECTED,0.00,1
1764572260.8442996,67.145,122,TEST2_OBSTACLE_BYPASS,True,512.5,2456.7,2509.6,11.78,0.999,0.0,-1750.2,-785.7,-123.47,-119.13,-123.47,163.28,87.18,0.0234,10.0,10.526,1.7369,2.4889,3.0350,34.91,-7.9064,-1.2204,8.0000,-98.77,10,750.0,257.0,-6.1695,1.2685,6.2985,-78.38,11.78,-78.38,-90.17,True,LEFT,0.700,0,0,STUCK,False,False,True,0,True,FORCE_AWAY_FROM_PERSON|STUCK_DETECTED,0.00,1
1764572260.891159,67.191,123,TEST2_OBSTACLE_BYPASS,True,560.6,2446.1,2509.6,12.91,0.999,0.0,-1750.2,-785.7,-123.27,-120.64,-123.27,161.55,87.26,0.0202,10.0,10.695,1.7568,2.4569,3.0204,35.57,-7.9171,-1.1486,8.0000,-98.25,9,750.0,257.0,-6.1603,1.3083,6.2977,-78.01,12.91,-78.01,-90.92,True,LEFT,0.700,0,0,STUCK,False,False,True,0,True,FORCE_AWAY_FROM_PERSON|STUCK_DETECTED,0.00,4
1764572260.9291224,67.229,124,TEST2_OBSTACLE_BYPASS,True,560.6,2446.1,2509.6,12.91,0.999,0.0,-1750.2,-785.7,-123.18,-122.64,-123.18,159.05,87.37,0.0043,10.0,10.858,1.7568,2.4569,3.0204,35.57,-7.9171,-1.1486,8.0000,-98.25,9,750.0,257.0,-6.1603,1.3083,6.2977,-78.01,12.91,-78.01,-90.92,True,LEFT,0.700,0,0,STUCK,False,False,True,0,True,FORCE_AWAY_FROM_PERSON|STUCK_DETECTED,0.00,4
1764572260.9709582,67.271,125,TEST2_OBSTACLE_BYPASS,True,560.6,2446.1,2509.6,12.91,0.999,0.0,-1750.2,-785.7,-122.93,-122.05,-122.93,158.97,87.54,-0.0554,10.0,11.018,1.7568,2.4569,3.0204,35.57,-7.9971,0.2147,8.0000,-88.46,6,750.0,258.0,-6.2403,2.6716,6.7882,-66.82,12.91,-66.82,-79.73,False,FORWARDS_LEFT,1.000,0,0,STUCK,False,False,True,0,True,STUCK_DETECTED,0.00,5
1764572261.012349,67.313,126,TEST2_OBSTACLE_BYPASS,True,560.6,2446.1,2509.6,12.91,0.999,0.0,-1754.7,-792.9,-122.16,-117.65,-122.16,162.13,87.48,-0.0863,10.0,11.181,1.7527,2.4519,3.0139,35.56,-7.9867,0.4612,8.0000,-86.70,3,750.0,262.0,-6.2340,2.9131,6.8810,-64.95,12.91,-64.95,-77.86,False,FORWARDS_LEFT,1.000,0,0,STUCK,False,False,True,0,True,STUCK_DETECTED,0.00,8
1764572261.0534124,67.354,127,TEST2_OBSTACLE_BYPASS,True,560.6,2446.1,2509.6,12.91,0.999,0.0,-1759.4,-800.7,-121.03,-113.86,-121.03,164.65,87.40,-0.0011,10.0,11.356,1.7483,2.4466,3.0071,35.55,-7.9867,0.4612,8.0000,-86.70,3,750.0,262.0,-6.2384,2.9078,6.8828,-65.01,12.91,-65.01,-77.92,False,FORWARDS_LEFT,1.000,0,0,STUCK,False,False,True,0,True,STUCK_DETECTED,0.00,8
1764572261.0922358,67.392,128,TEST2_OBSTACLE_BYPASS,True,608.6,2434.6,2509.6,14.03,0.999,0.0,-1763.3,-807.5,-119.97,-114.91,-119.97,162.88,87.42,0.0362,10.0,11.535,1.7638,2.4109,2.9872,36.19,-7.8332,1.6249,8.0000,-78.28,1,750.0,125.0,-6.0694,4.0359,7.2888,-56.38,14.03,-56.38,-70.41,False,FORWARDS_LEFT,1.000,0,0,STUCK,False,False,True,0,True,STUCK_DETECTED,0.00,3
1764572261.1370847,67.437,129,TEST2_OBSTACLE_BYPASS,True,382.1,2516.5,2545.3,8.63,0.996,0.0,-1767.9,-815.6,-119.15,-117.54,-119.15,159.49,87.44,0.0256,10.0,11.714,1.6407,2.5427,3.0261,32.83,-7.8332,1.6249,8.0000,-78.28,1,750.0,125.0,-6.1925,4.1677,7.4644,-56.06,8.63,-56.06,-64.69,False,FORWARDS_LEFT,1.000,0,0,STUCK,False,False,True,0,True,STUCK_DETECTED,0.00,0
1764572261.1701772,67.470,130,TEST2_OBSTACLE_BYPASS,True,382.1,2516.5,2545.3,8.63,0.996,0.0,-1771.6,-822.4,-118.62,-118.23,-118.62,157.75,87.48,-0.0213,10.0,11.897,1.6371,2.5380,3.0202,32.82,-7.4421,2.9352,8.0000,-68.48,7,750.0,125.0,-5.8049,5.4732,7.9783,-46.68,8.63,-46.68,-55.32,False,FORWARDS_LEFT,1.000,0,0,STUCK,False,False,True,0,True,STUCK_DETECTED,0.00,0
1764572261.214797,67.515,131,TEST2_OBSTACLE_BYPASS,True,432.5,2566.2,2602.3,9.57,0.996,0.0,-1775.9,-830.3,-118.25,-115.86,-118.25,158.95,87.54,-0.0394,10.0,12.085,1.6146,2.4833,2.9620,33.03,-7.4421,2.9352,8.0000,-68.48,7,750.0,125.0,-5.8275,5.4185,7.9574,-47.08,9.57,-47.08,-56.65,False,FORWARDS_LEFT,1.000,0,0,STUCK,False,False,True,0,True,STUCK_DETECTED,0.00,0
1764572261.2548687,67.555,132,TEST2_OBSTACLE_BYPASS,True,432.5,2566.2,2602.3,9.57,0.996,0.0,-1779.6,-837.5,-117.71,-113.71,-117.71,160.16,87.51,-0.0213,10.0,12.280,1.6109,2.4787,2.9561,33.02,-6.6665,4.4223,8.0000,-56.44,15,700.0,125.0,-4.7278,6.4535,8.0000,-36.23,9.57,-36.23,-45.79,False,FORWARDS_LEFT,1.000,0,0,STUCK,False,False,True,0,True,STUCK_DETECTED,0.00,0
1764572261.299422,67.600,133,TEST2_OBSTACLE_BYPASS,True,432.5,2566.2,2602.3,9.57,0.996,0.0,-1783.8,-845.8,-116.84,-111.93,-116.84,160.75,87.42,0.0117,10.0,12.483,1.6066,2.4734,2.9494,33.01,-6.6665,4.4223,8.0000,-56.44,15,700.0,125.0,-4.7328,6.4499,8.0000,-36.27,9.57,-36.27,-45.84,False,FORWARDS_LEFT,1.000,0,0,STUCK,False,False,True,0,True,STUCK_DETECTED,0.00,0
1764572261.3363197,67.637,134,TEST2_OBSTACLE_BYPASS,True,502.8,2576.6,2625.2,11.04,0.998,0.0,-1787.4,-853.3,-115.78,-112.04,-115.78,159.93,87.40,0.0043,10.0,12.694,1.6157,2.4198,2.9096,33.73,-5.9890,5.3039,8.0000,-48.47,22,700.0,125.0,-3.9417,6.9615,8.0000,-29.52,11.04,-29.52,-40.56,False,FORWARDS_LEFT,1.000,0,0,STUCK,False,False,True,0,True,STUCK_DETECTED,0.00,0
1764572261.3801503,67.680,135,TEST2_OBSTACLE_BYPASS,True,502.8,2576.6,2625.2,11.04,0.998,0.0,-1790.8,-860.6,-114.70,-111.29,-114.70,159.92,87.29,-0.0043,10.0,12.912,1.6119,2.4156,2.9040,33.71,-5.9890,5.3039,8.0000,-48.47,22,700.0,125.0,-3.9459,6.9591,8.0000,-29.55,11.04,-29.55,-40.60,False,FORWARDS_LEFT,1.000,0,0,STUCK,False,False,True,0,True,STUCK_DETECTED,0.00,0
1764572261.420855,67.721,136,TEST2_OBSTACLE_BYPASS,True,608.9,2567.3,2638.5,13.34,0.991,0.0,-1794.4,-868.7,-113.85,-109.12,-113.85,160.78,87.24,-0.0277,10.0,13.137,1.6403,2.3452,2.8619,34.97,-5.4316,5.8735,8.0000,-42.76,32,650.0,137.0,-3.3510,7.2643,8.0000,-24.76,13.34,-24.76,-38.11,False,FORWARDS_LEFT,1.000,0,0,STUCK,False,False,True,0,True,STUCK_DETECTED,0.00,0
1764572261.4584665,67.759,137,TEST2_OBSTACLE_BYPASS,True,608.9,2567.3,2638.5,13.34,0.991,0.0,-1797.5,-876.0,-113.04,-105.72,-113.04,162.42,87.07,-0.0469,10.0,13.364,1.6363,2.3415,2.8566,34.95,-5.4316,5.8735,8.0000,-42.76,32,650.0,137.0,-3.3552,7.2624,8.0000,-24.80,13.34,-24.80,-38.14,False,FORWARDS_LEFT,1.000,0,0,STUCK,False,False,True,0,True,STUCK_DETECTED,0.00,0
1764572261.5164728,67.817,138,TEST2_OBSTACLE_BYPASS,True,608.9,2567.3,2638.5,13.34,0.991,0.0,-1801.7,-886.5,-111.86,-103.19,-111.86,163.09,86.88,-0.0160,10.0,13.603,1.6306,2.3363,2.8491,34.91,-4.6114,6.5372,8.0000,-35.20,42,600.0,160.0,-2.5475,7.5836,8.0000,-18.57,13.34,-18.57,-31.91,False,FORWARDS,1.000,0,0,STUCK,False,False,True,0,True,STUCK_DETECTED,0.00,0
1764572261.5509186,67.851,139,TEST2_OBSTACLE_BYPASS,True,608.9,2567.3,2638.5,13.34,0.991,0.0,-1805.8,-897.6,-110.33,-102.24,-110.33,162.68,86.88,-0.0053,10.0,13.860,1.6246,2.3311,2.8414,34.87,-4.0616,6.8923,8.0000,-30.51,47,600.0,165.0,-2.0437,7.7346,8.0000,-14.80,13.34,-14.80,-28.14,False,FORWARDS,1.000,0,0,STUCK,False,False,True,0,True,STUCK_DETECTED,0.00,0
1764572261.5900576,67.890,140,TEST2_OBSTACLE_BYPASS,True,608.9,2567.3,2638.5,13.34,0.991,0.0,-1809.8,-909.3,-108.72,-102.09,-108.72,161.31,86.99,-0.0117,10.0,14.128,1.6182,2.3259,2.8334,34.83,-4.0616,6.8923,8.0000,-30.51,47,600.0,165.0,-2.0498,7.7329,8.0000,-14.85,13.34,-14.85,-28.19,False,FORWARDS,1.000,0,0,STUCK,False,False,True,0,True,STUCK_DETECTED,0.00,0
1764572261.6314213,67.932,141,TEST2_OBSTACLE_BYPASS,True,659.2,2554.8,2638.5,14.47,0.991,0.0,-1813.3,-920.4,-107.43,-102.93,-107.43,158.56,87.24,-0.0138,10.0,14.401,1.6310,2.2926,2.8136,35.43,-3.7520,7.0656,8.0000,-27.97,45,550.0,165.0,-1.7683,7.8021,8.0000,-12.77,14.47,-12.77,-27.24,False,FORWARDS,1.000,0,0,RECOVERING,True,False,True,0,True,STUCK_DETECTED,0.00,0
1764572261.6757205,67.976,142,TEST2_OBSTACLE_BYPASS,True,659.2,2554.8,2638.5,14.47,0.991,0.0,-1816.9,-932.6,-106.51,-104.56,-106.51,154.76,87.34,0.0298,10.0,14.673,1.6243,2.2877,2.8057,35.37,-3.7520,7.0656,8.0000,-27.97,45,550.0,165.0,-1.7745,7.8007,8.0000,-12.82,14.47,-12.82,-27.28,False,FORWARDS,1.000,0,0,RECOVERING,False,False,True,0,True,STUCK_DETECTED,0.00,0
1764572261.7127497,68.013,143,TEST2_OBSTACLE_BYPASS,True,659.2,2554.8,2638.5,14.47,0.991,0.0,-1820.3,-944.9,-105.70,-103.79,-105.70,153.29,87.01,0.0330,10.0,14.950,1.6174,2.2829,2.7978,35.32,-3.3809,7.2505,8.0000,-25.00,45,550.0,263.0,-1.4552,7.8665,8.0000,-10.48,14.47,-10.48,-24.95,False,FORWARDS,1.000,0,0,NAVIGATING,True,False,False,0,False,,0.00,0
1764572261.754008,68.054,144,TEST2_OBSTACLE_BYPASS,False,0.0,0.0,0.0,0.00,0.000,0.0,-1823.3,-956.2,-104.66,-101.67,-104.66,153.33,86.55,0.0426,10.0,15.236,1.6111,2.2787,2.7907,35.26,-3.3809,7.2505,8.0000,-25.00,45,550.0,263.0,-1.4608,7.8655,8.0000,-10.52,0.00,-10.52,0.00,False,FORWARDS,1.000,0,0,SEARCHING,True,False,False,0,False,,0.00,0
1764572261.7949557,68.095,145,TEST2_OBSTACLE_BYPASS,False,0.0,0.0,0.0,0.00,0.000,0.0,-1826.3,-968.7,-103.65,-101.15,-103.65,152.15,86.31,0.0234,10.0,15.531,1.6042,2.2741,2.7830,35.20,-3.2398,7.3146,8.0000,-23.89,44,550.0,160.0,-1.3452,7.8861,8.0000,-9.68,0.00,-9.68,0.00,False,FORWARDS,1.000,0,0,SEARCHING,False,False,False,0,False,,0.00,0
1764572261.8317285,68.132,146,TEST2_OBSTACLE_BYPASS,False,0.0,0.0,0.0,0.00,0.000,0.0,-1828.8,-979.7,-102.83,-100.98,-102.83,151.39,86.26,-0.0479,10.0,15.830,1.5980,2.2702,2.7762,35.14,-3.2398,7.3146,8.0000,-23.89,44,550.0,160.0,-1.3507,7.8852,8.0000,-9.72,0.00,-9.72,0.00,False,FORWARDS,1.000,0,0,SEARCHING,False,False,False,0,False,,0.00,0
1764572261.876442,68.177,147,TEST2_OBSTACLE_BYPASS,False,0.0,0.0,0.0,0.00,0.000,0.0,-1831.6,-992.5,-102.34,-100.86,-102.34,151.12,86.57,-0.0714,10.0,16.127,1.5909,2.2657,2.7685,35.07,-3.0872,7.3803,8.0000,-22.70,46,550.0,267.0,-1.2263,7.9055,8.0000,-8.82,0.00,-8.82,0.00,False,FORWARDS,1.000,0,0,SEARCHING,False,False,False,0,False,,0.00,0
1764572261.9122794,68.212,148,TEST2_OBSTACLE_BYPASS,False,0.0,0.0,0.0,0.00,0.000,0.0,-1833.9,-1003.5,-101.62,-95.91,-101.62,155.85,86.44,-0.0096,10.0,16.425,1.5848,2.2620,2.7619,35.02,-3.0872,7.3803,8.0000,-22.70,46,550.0,267.0,-1.2316,7.9046,8.0000,-8.86,0.00,-8.86,0.00,False,FORWARDS,1.000,0,0,SEARCHING,False,False,False,0,False,,0.00,0
1764572261.9573781,68.258,149,TEST2_OBSTACLE_BYPASS,False,0.0,0.0,0.0,0.00,0.000,0.0,-1836.3,-1016.1,-100.96,-95.68,-100.96,156.03,86.55,0.0128,10.0,16.722,1.5779,2.2578,2.7545,34.95,-2.9346,7.4423,8.0000,-21.52,56,500.0,267.0,-1.1082,7.9229,8.0000,-7.96,0.00,-7.96,0.00,False,FORWARDS,1.000,0,0,SEARCHING,False,False,False,0,False,,0.00,0
1764572261.9942653,68.294,150,TEST2_OBSTACLE_BYPASS,False,0.0,0.0,0.0,0.00,0.000,0.0,-1838.3,-1027.1,-100.28,-95.29,-100.28,156.46,86.35,0.0128,10.0,17.021,1.5718,2.2542,2.7481,34.89,-2.9346,7.4423,8.0000,-21.52,56,500.0,267.0,-1.1135,7.9221,8.0000,-8.00,0.00,-8.00,0.00,False,FORWARDS,1.000,0,0,SEARCHING,False,False,False,0,False,,0.00,0
1764572262.037336,68.338,151,TEST2_OBSTACLE_BYPASS,False,0.0,0.0,0.0,0.00,0.000,0.0,-1840.4,-1039.6,-99.40,-94.08,-99.40,158.30,86.16,0.0128,10.0,17.326,1.5648,2.2503,2.7409,34.81,-2.7033,7.5294,8.0000,-19.75,64,500.0,267.0,-0.9251,7.9463,8.0000,-6.64,0.00,-6.64,0.00,False,FORWARDS,1.000,0,0,SEARCHING,False,False,False,0,False,,0.00,0
1764572262.0750139,68.375,152,TEST2_OBSTACLE_BYPASS,True,1511.4,3582.3,3888.1,22.88,0.985,0.0,-1842.1,-1051.0,-98.28,-93.41,-98.28,159.35,86.01,0.0021,10.0,17.643,0.0000,0.0000,0.0000,0.00,-2.7033,7.5294,8.0000,-19.75,64,500.0,267.0,-2.7033,7.5294,8.0000,-19.75,22.88,-19.75,-42.63,False,FORWARDS,1.000,0,0,NAVIGATING,True,False,False,0,False,,0.00,0
1764572262.1175754,68.418,153,TEST2_OBSTACLE_BYPASS,True,1511.4,3582.3,3888.1,22.88,0.985,0.0,-1843.6,-1063.2,-97.22,-93.12,-97.22,160.01,86.06,-0.0043,10.0,17.969,0.0000,0.0000,0.0000,0.00,-2.4505,7.6154,8.0000,-17.84,74,500.0,267.0,-2.4505,7.6154,8.0000,-17.84,22.88,-17.84,-40.71,False,FORWARDS,1.000,0,0,NAVIGATING,False,False,False,0,False,,0.00,0
1764572262.158014,68.458,154,TEST2_OBSTACLE_BYPASS,True,1511.4,3582.3,3888.1,22.88,0.985,0.0,-1844.9,-1075.1,-96.44,-93.97,-96.44,159.25,86.24,0.0075,10.0,18.303,0.0000,0.0000,0.0000,0.00,-2.4505,7.6154,8.0000,-17.84,74,500.0,267.0,-2.4505,7.6154,8.0000,-17.84,22.88,-17.84,-40.71,False,FORWARDS,1.000,0,0,NAVIGATING,False,False,False,0,False,,0.00,0
1764572262.2013984,68.502,155,TEST2_OBSTACLE_BYPASS,True,1511.4,3582.3,3888.1,22.88,0.985,0.0,-1846.3,-1088.0,-95.95,-96.20,-95.95,157.13,86.40,0.0660,10.0,18.642,0.0000,0.0000,0.0000,0.00,-2.1095,7.7169,8.0000,-15.29,76,500.0,248.0,-2.1095,7.7169,8.0000,-15.29,22.88,-15.29,-38.16,False,FORWARDS,1.000,0,0,NAVIGATING,False,False,False,0,False,,0.00,0
1764572262.2401652,68.540,156,TEST2_OBSTACLE_BYPASS,True,1511.4,3582.3,3888.1,22.88,0.985,0.0,-1847.4,-1099.2,-95.73,-98.78,-95.73,154.98,86.51,0.0682,10.0,18.983,0.0000,0.0000,0.0000,0.00,-2.1095,7.7169,8.0000,-15.29,76,500.0,248.0,-2.1095,7.7169,8.0000,-15.29,22.88,-15.29,-38.16,False,FORWARDS,1.000,0,0,NAVIGATING,False,False,False,0,False,,0.00,0
1764572262.278859,68.579,157,TEST2_OBSTACLE_BYPASS,True,1581.5,3551.9,3888.1,24.00,0.985,0.0,-1848.6,-1111.4,-95.71,-100.67,-95.71,153.39,86.32,0.0948,10.0,19.324,0.0000,0.0000,0.0000,0.00,-1.8965,7.7719,8.0000,-13.71,75,500.0,252.0,-1.8965,7.7719,8.0000,-13.71,24.00,-13.71,-37.71,False,FORWARDS,1.000,0,0,NAVIGATING,False,False,False,0,False,,0.00,0
1764572262.320134,68.620,158,TEST2_OBSTACLE_BYPASS,True,1581.5,3551.9,3888.1,24.00,0.985,0.0,-1850.0,-1123.7,-96.42,-103.03,-96.42,151.03,86.12,0.0937,10.0,19.660,0.0000,0.0000,0.0000,0.00,-1.8965,7.7719,8.0000,-13.71,75,500.0,252.0,-1.8965,7.7719,8.0000,-13.71,24.00,-13.71,-37.71,False,FORWARDS,1.000,0,0,NAVIGATING,False,False,False,0,False,,0.00,0
1764572262.3651261,68.665,159,TEST2_OBSTACLE_BYPASS,True,1581.5,3551.9,3888.1,24.00,0.985,0.0,-1851.7,-1136.2,-97.50,-106.46,-97.50,147.54,86.08,0.0618,10.0,19.988,0.0000,0.0000,0.0000,0.00,-1.7070,7.8158,8.0000,-12.32,78,500.0,252.0,-1.7070,7.8158,8.0000,-12.32,24.00,-12.32,-36.32,False,FORWARDS,1.000,0,0,NAVIGATING,False,False,False,0,False,,0.00,0
1764572262.4058967,68.706,160,TEST2_OBSTACLE_BYPASS,False,0.0,0.0,0.0,0.00,0.000,0.0,-1853.5,-1148.2,-98.78,-108.13,-98.78,145.74,86.11,0.0170,10.0,20.306,0.0000,0.0000,0.0000,0.00,-1.7070,7.8158,8.0000,-12.32,78,500.0,252.0,-1.7070,7.8158,8.0000,-12.32,0.00,-12.32,0.00,False,FORWARDS,1.000,0,0,SEARCHING,True,False,False,0,False,,0.00,0
1764572262.4386635,68.739,161,TEST2_OBSTACLE_BYPASS,False,0.0,0.0,0.0,0.00,0.000,0.0,-1855.5,-1159.2,-100.18,-108.04,-100.18,146.15,86.19,-0.0117,10.0,20.614,0.0000,0.0000,0.0000,0.00,-1.5214,7.8540,8.0000,-10.96,82,500.0,252.0,-1.5214,7.8540,8.0000,-10.96,0.00,-10.96,0.00,False,FORWARDS,1.000,0,0,SEARCHING,False,False,False,0,False,,0.00,0
1764572262.4849043,68.785,162,TEST2_OBSTACLE_BYPASS,False,0.0,0.0,0.0,0.00,0.000,0.0,-1858.1,-1171.8,-101.60,-107.65,-101.60,147.03,86.12,0.0138,10.0,20.911,0.0000,0.0000,0.0000,0.00,-1.5214,7.8540,8.0000,-10.96,82,500.0,252.0,-1.5214,7.8540,8.0000,-10.96,0.00,-10.96,0.00,False,FORWARDS,1.000,0,0,SEARCHING,False,False,False,0,False,,0.00,0
