timestamp,elapsed_time,log_number,test_mode,person_detected,person_x_mm,person_y_mm,person_distance_mm,person_angle_deg,person_confidence,time_since_person_update_ms,robot_x_mm,robot_y_mm,robot_orientation_deg,imu_yaw_raw,imu_yaw_smoothed,imu_roll,imu_pitch,imu_angular_vel_z,imu_update_rate,imu_drift_estimate,attr_force_x,attr_force_y,attr_force_magnitude,attr_force_direction_deg,repul_force_x,repul_force_y,repul_force_magnitude,repul_force_direction_deg,num_obstacles_in_range,closest_obstacle_dist_mm,closest_obstacle_angle_deg,total_force_x,total_force_y,total_force_magnitude,total_force_direction_deg,expected_direction_to_person_deg,force_direction_deg,direction_error_deg,direction_mismatch_flag,commanded_direction,commanded_speed,motor_1_speed,motor_2_speed,nav_state,nav_state_changed,goal_reached,stuck_detected,time_in_current_state_s,anomaly_detected,anomaly_type,calculation_time_ms,obstacles_filtered_for_person
1764559549.4210248,38.547,1,TEST1_DIRECT_FORWARD,False,0.0,0.0,0.0,0.00,0.000,0.0,0.0,0.0,161.22,161.27,161.22,166.08,87.80,-0.0053,10.0,0.000,0.0387,2.2869,2.2872,0.97,0.9898,0.4616,1.0922,65.00,4,300.0,264.0,1.0286,2.7485,2.9346,20.52,0.00,20.52,0.00,False,FORWARDS,0.880,0,0,SEARCHING,True,False,False,0,False,,0.00,0
1764559549.4592984,38.585,2,TEST1_DIRECT_FORWARD,False,0.0,0.0,0.0,0.00,0.000,0.0,-9.6,3.3,161.23,161.27,161.23,166.08,87.80,-0.0032,10.0,0.000,0.0509,2.2943,2.2948,1.27,0.0000,0.0000,0.0000,0.00,3,750.0,264.0,0.0509,2.2943,2.2948,1.27,0.00,1.27,0.00,False,FORWARDS,0.688,0,0,SEARCHING,False,False,False,0,False,,0.00,0
1764559549.5119045,38.638,3,TEST1_DIRECT_FORWARD,True,28.4,1855.0,1855.3,0.88,0.980,0.0,-18.1,6.1,161.23,161.27,161.23,166.08,87.80,0.0075,10.0,0.000,0.0579,2.3015,2.3022,1.44,0.0000,0.0000,0.0000,0.00,3,750.0,264.0,0.0579,2.3015,2.3022,1.44,0.88,1.44,0.56,False,FORWARDS,0.691,0,0,NAVIGATING,True,False,False,0,False,,0.00,0
1764559549.549179,38.675,4,TEST1_DIRECT_FORWARD,True,28.4,1855.0,1855.3,0.88,0.980,0.0,-26.8,9.1,161.24,161.27,161.24,166.08,87.80,-0.0138,10.0,0.000,0.0691,2.3080,2.3090,1.71,0.0000,0.0000,0.0000,0.00,3,750.0,264.0,0.0691,2.3080,2.3090,1.71,0.88,1.71,0.84,False,FORWARDS,0.693,0,0,NAVIGATING,False,False,False,0,False,,0.00,0
1764559549.5914273,38.717,5,TEST1_DIRECT_FORWARD,True,28.4,1855.0,1855.3,0.88,0.982,0.0,-35.0,11.9,161.25,161.27,161.25,166.08,87.80,0.0043,10.0,0.000,0.0797,2.3140,2.3154,1.97,0.0000,0.0000,0.0000,0.00,3,750.0,264.0,0.0797,2.3140,2.3154,1.97,0.88,1.97,1.09,False,FORWARDS,0.695,0,0,NAVIGATING,False,False,False,0,False,,0.00,0
1764559549.629205,38.755,6,TEST1_DIRECT_FORWARD,True,28.4,1855.0,1855.3,0.88,0.981,0.0,-42.6,14.5,161.26,161.27,161.26,166.08,87.80,0.0000,10.0,0.000,0.0895,2.3194,2.3211,2.21,0.0000,0.0000,0.0000,0.00,3,750.0,264.0,0.0895,2.3194,2.3211,2.21,0.88,2.21,1.33,False,FORWARDS,0.696,0,0,NAVIGATING,False,False,False,0,False,,0.00,0
1764559549.6708114,38.797,7,TEST1_DIRECT_FORWARD,True,28.4,1855.0,1855.3,0.88,0.981,0.0,-50.2,17.1,161.27,161.27,161.27,166.08,87.80,0.0117,10.0,0.000,0.0995,2.3247,2.3269,2.45,0.0000,0.0000,0.0000,0.00,3,750.0,264.0,0.0995,2.3247,2.3269,2.45,0.88,2.45,1.57,False,FORWARDS,0.698,0,0,NAVIGATING,False,False,False,0,False,,0.00,0
1764559549.7081115,38.834,8,TEST1_DIRECT_FORWARD,True,31.4,1855.3,1855.5,0.97,0.977,0.0,-58.4,19.8,161.27,161.27,161.27,166.08,87.80,0.0085,10.0,0.000,0.1140,2.3292,2.3320,2.80,0.0000,0.0000,0.0000,0.00,3,750.0,264.0,0.1140,2.3292,2.3320,2.80,0.97,2.80,1.83,False,FORWARDS,0.700,0,0,NAVIGATING,False,False,False,0,False,,0.00,0
1764559549.7543976,38.880,9,TEST1_DIRECT_FORWARD,True,31.4,1855.3,1855.5,0.97,0.977,0.0,-67.4,22.9,161.27,161.27,161.27,166.08,87.80,0.0064,10.0,0.000,0.1259,2.3352,2.3385,3.09,0.0000,0.0000,0.0000,0.00,3,750.0,264.0,0.1259,2.3352,2.3385,3.09,0.97,3.09,2.12,False,FORWARDS,0.702,0,0,NAVIGATING,False,False,False,0,False,,0.00,0
1764559549.7966766,38.923,10,TEST1_DIRECT_FORWARD,True,31.4,1855.3,1855.5,0.97,0.977,0.0,-75.5,25.6,161.28,161.34,161.28,166.15,87.65,0.0107,10.0,0.000,0.1368,2.3404,2.3444,3.35,0.0000,0.0000,0.0000,0.00,3,750.0,264.0,0.1368,2.3404,2.3444,3.35,0.97,3.35,2.37,False,FORWARDS,0.703,0,0,STUCK,True,False,True,0,True,STUCK_DETECTED,0.00,0
1764559549.8342946,38.960,11,TEST1_DIRECT_FORWARD,True,31.4,1855.3,1855.5,0.97,0.977,0.0,-83.0,28.2,161.27,161.18,161.27,166.00,87.64,0.0021,10.0,0.000,0.1468,2.3451,2.3497,3.58,0.0000,0.0000,0.0000,0.00,5,750.0,264.0,0.1468,2.3451,2.3497,3.58,0.97,3.58,2.61,False,FORWARDS,0.705,0,0,STUCK,False,False,True,0,True,STUCK_DETECTED,0.00,0
1764559549.8781586,39.004,12,TEST1_DIRECT_FORWARD,True,31.4,1855.3,1855.5,0.97,0.977,0.0,-91.8,31.1,161.23,160.91,161.23,165.80,87.69,0.0096,10.0,0.036,0.1587,2.3506,2.3559,3.86,0.0000,0.0000,0.0000,0.00,5,750.0,264.0,0.1587,2.3506,2.3559,3.86,0.97,3.86,2.89,False,FORWARDS,0.707,0,0,STUCK,False,False,True,0,True,STUCK_DETECTED,0.00,0
1764559549.9221158,39.048,13,TEST1_DIRECT_FORWARD,True,31.4,1855.3,1855.5,0.97,0.977,0.0,-100.8,34.2,161.38,162.78,161.38,167.70,87.38,-0.0085,10.0,0.046,0.1711,2.3559,2.3621,4.15,0.0000,0.0000,0.0000,0.00,6,750.0,264.0,0.1711,2.3559,2.3621,4.15,0.97,4.15,3.18,False,FORWARDS,0.709,0,0,STUCK,False,False,True,0,True,STUCK_DETECTED,0.00,0
1764559549.966322,39.092,14,TEST1_DIRECT_FORWARD,True,31.4,1855.3,1855.5,0.97,0.977,0.0,-109.4,37.0,161.73,164.69,161.73,169.49,87.14,0.0266,10.0,0.082,0.1828,2.3607,2.3678,4.43,0.7272,0.3391,0.8024,65.00,7,350.0,264.0,0.9101,2.6998,2.8491,18.63,0.97,18.63,17.66,False,FORWARDS,0.855,0,0,STUCK,False,False,True,0,True,STUCK_DETECTED,0.00,0
1764559550.0047061,39.131,15,TEST1_DIRECT_FORWARD,True,31.4,1855.3,1855.5,0.97,0.977,0.0,-119.0,40.2,161.94,163.42,161.94,168.12,87.18,0.0192,10.0,0.128,0.1961,2.3658,2.3739,4.74,0.7272,0.3391,0.8024,65.00,7,350.0,264.0,0.9234,2.7049,2.8582,18.85,0.97,18.85,17.88,False,FORWARDS,0.857,0,0,STUCK,False,False,True,0,True,STUCK_DETECTED,0.00,0
1764559550.0415034,39.168,16,TEST1_DIRECT_FORWARD,False,0.0,0.0,0.0,0.00,0.000,0.0,-128.3,43.2,161.87,160.52,161.87,165.07,87.54,-0.0128,10.0,0.162,0.2090,2.3706,2.3798,5.04,0.7272,0.3391,0.8024,65.00,7,350.0,264.0,0.9362,2.7097,2.8669,19.06,0.00,19.06,0.00,False,FORWARDS,0.860,0,0,STUCK,False,False,True,0,True,STUCK_DETECTED,0.00,0
1764559550.0875714,39.214,17,TEST1_DIRECT_FORWARD,True,32.9,1855.4,1855.7,1.02,0.983,0.0,-139.0,46.7,161.76,160.22,161.76,164.72,87.71,-0.0213,10.0,0.186,0.2258,2.3750,2.3857,5.43,0.7272,0.3391,0.8024,65.00,7,350.0,264.0,0.9530,2.7141,2.8766,19.35,1.02,19.35,18.33,False,FORWARDS,0.863,0,0,STUCK,False,False,True,0,True,STUCK_DETECTED,0.00,0
1764559550.1297,39.256,18,TEST1_DIRECT_FORWARD,True,32.9,1855.4,1855.7,1.02,0.983,0.0,-148.3,49.8,161.87,162.33,161.87,166.85,87.74,-0.0224,10.0,0.213,0.2388,2.3794,2.3913,5.73,0.7272,0.3391,0.8024,65.00,7,350.0,264.0,0.9661,2.7185,2.8850,19.56,1.02,19.56,18.55,False,FORWARDS,0.866,0,0,STUCK,False,False,True,0,True,STUCK_DETECTED,0.00,0
1764559550.162844,39.289,19,TEST1_DIRECT_FORWARD,True,33.9,1851.2,1851.5,1.05,0.982,0.0,-158.3,53.0,161.99,162.52,161.99,167.08,87.59,0.0213,10.0,0.244,0.2559,2.3943,2.4080,6.10,0.0000,0.0000,0.0000,0.00,9,750.0,264.0,0.2559,2.3943,2.4080,6.10,1.05,6.10,5.05,False,FORWARDS,0.722,0,0,STUCK,False,False,True,0,True,STUCK_DETECTED,0.00,0
1764559550.2126448,39.339,20,TEST1_DIRECT_FORWARD,True,33.9,1851.2,1851.5,1.05,0.982,0.0,-166.4,55.7,162.00,161.47,162.00,166.09,87.63,0.0309,10.0,0.272,0.2675,2.3977,2.4126,6.37,0.0000,0.0000,0.0000,0.00,9,750.0,264.0,0.2675,2.3977,2.4126,6.37,1.05,6.37,5.32,False,FORWARDS,0.724,0,0,STUCK,False,False,True,0,True,STUCK_DETECTED,0.00,0
1764559550.2452953,39.371,21,TEST1_DIRECT_FORWARD,True,31.1,1848.2,1848.4,0.96,0.975,0.0,-174.9,58.4,161.86,159.79,161.86,164.44,87.57,0.0021,10.0,0.291,0.2774,2.4105,2.4264,6.57,0.0000,0.0000,0.0000,0.00,12,750.0,264.0,0.2774,2.4105,2.4264,6.57,0.96,6.57,5.60,False,FORWARDS,0.728,0,0,STUCK,False,False,True,0,True,STUCK_DETECTED,0.00,0
1764559550.2882223,39.414,22,TEST1_DIRECT_FORWARD,True,31.1,1848.2,1848.4,0.96,0.975,0.0,-183.5,61.3,161.68,159.05,161.68,163.78,87.68,-0.0256,10.0,0.299,0.2899,2.4140,2.4313,6.85,0.9898,0.4616,1.0922,65.00,12,300.0,264.0,1.2797,2.8755,3.1474,23.99,0.96,23.99,23.03,False,FORWARDS_RIGHT,0.944,0,0,STUCK,False,False,True,0,True,STUCK_DETECTED,0.00,0
1764559550.333249,39.459,23,TEST1_DIRECT_FORWARD,True,32.7,1846.9,1847.1,1.02,0.961,0.0,-191.9,64.1,161.40,160.01,161.40,164.79,87.54,0.0117,10.0,0.294,0.3049,2.4200,2.4391,7.18,0.9898,0.4616,1.0922,65.00,14,300.0,264.0,1.2947,2.8815,3.1590,24.19,1.02,24.19,23.18,False,FORWARDS_RIGHT,0.948,0,0,STUCK,False,False,True,0,True,STUCK_DETECTED,0.00,0
1764559550.3728395,39.499,24,TEST1_DIRECT_FORWARD,True,32.7,1846.9,1847.1,1.02,0.961,0.0,-198.8,66.5,160.93,159.99,160.93,164.78,87.38,0.0245,10.0,0.268,0.3151,2.4228,2.4432,7.41,0.9898,0.4616,1.0922,65.00,14,300.0,264.0,1.3049,2.8843,3.1658,24.34,1.02,24.34,23.33,False,FORWARDS_RIGHT,0.950,0,0,STUCK,False,False,True,0,True,STUCK_DETECTED,0.00,0
1764559550.4200368,39.546,25,TEST1_DIRECT_FORWARD,True,32.7,1846.9,1847.1,1.02,0.961,0.0,-208.2,69.8,160.50,159.08,160.50,163.86,87.52,-0.0181,10.0,0.227,0.3291,2.4266,2.4488,7.72,0.9898,0.4616,1.0922,65.00,11,300.0,264.0,1.3189,2.8882,3.1751,24.54,1.02,24.54,23.53,False,FORWARDS_RIGHT,0.953,0,0,STUCK,False,False,True,0,True,STUCK_DETECTED,0.00,0
1764559550.459476,39.585,26,TEST1_DIRECT_FORWARD,True,32.7,1846.9,1847.1,1.02,0.961,0.0,-216.0,72.6,160.29,158.42,160.29,163.25,87.65,-0.0234,10.0,0.181,0.3407,2.4297,2.4535,7.98,0.0000,0.0000,0.0000,0.00,22,750.0,264.0,0.3407,2.4297,2.4535,7.98,1.02,7.98,6.97,False,FORWARDS,0.736,0,0,STUCK,False,False,True,0,True,STUCK_DETECTED,0.00,0
1764559550.499489,39.625,27,TEST1_DIRECT_FORWARD,True,32.7,1846.9,1847.1,1.02,0.961,0.0,-224.0,75.5,160.12,158.58,160.12,163.50,87.64,0.0107,10.0,0.131,0.3526,2.4328,2.4582,8.25,0.0000,0.0000,0.0000,0.00,22,750.0,264.0,0.3526,2.4328,2.4582,8.25,1.02,8.25,7.23,False,FORWARDS,0.737,0,0,STUCK,False,False,True,0,True,STUCK_DETECTED,0.00,0
1764559550.542593,39.669,28,TEST1_DIRECT_FORWARD,True,32.7,1846.9,1847.1,1.02,0.961,0.0,-232.8,78.8,159.69,158.00,159.69,163.04,87.79,-0.0032,10.0,0.070,0.3659,2.4362,2.4636,8.54,0.0000,0.0000,0.0000,0.00,26,700.0,264.0,0.3659,2.4362,2.4636,8.54,1.02,8.54,7.53,False,FORWARDS,0.739,0,0,STUCK,False,False,True,0,True,STUCK_DETECTED,0.00,0
1764559550.5811303,39.707,29,TEST1_DIRECT_FORWARD,True,32.7,1846.9,1847.1,1.02,0.961,0.0,-240.5,81.7,159.27,158.31,159.27,163.42,87.74,-0.0096,10.0,-0.002,0.3775,2.4392,2.4683,8.80,0.0000,0.0000,0.0000,0.00,26,700.0,264.0,0.3775,2.4392,2.4683,8.80,1.02,8.80,7.78,False,FORWARDS,0.740,0,0,STUCK,False,False,True,0,True,STUCK_DETECTED,0.00,0
1764559550.62097,39.747,30,TEST1_DIRECT_FORWARD,True,32.7,1846.9,1847.1,1.02,0.961,0.0,-249.4,85.1,159.01,158.87,159.01,164.05,87.50,0.0330,10.0,-0.078,0.3911,2.4427,2.4738,9.10,0.0000,0.0000,0.0000,0.00,30,700.0,264.0,0.3911,2.4427,2.4738,9.10,1.02,9.10,8.08,False,FORWARDS,0.742,0,0,STUCK,False,False,True,0,True,STUCK_DETECTED,0.00,0
1764559550.65441,39.780,31,TEST1_DIRECT_FORWARD,False,0.0,0.0,0.0,0.00,0.000,0.0,-257.1,88.1,158.85,158.16,158.85,163.47,87.30,0.0213,10.0,-0.155,0.4030,2.4455,2.4785,9.36,0.0000,0.0000,0.0000,0.00,30,700.0,264.0,0.4030,2.4455,2.4785,9.36,0.00,9.36,0.00,False,FORWARDS,0.744,0,0,STUCK,False,False,True,0,True,STUCK_DETECTED,0.00,0
1764559550.7008662,39.827,32,TEST1_DIRECT_FORWARD,False,0.0,0.0,0.0,0.00,0.000,0.0,-266.0,91.6,158.64,156.95,158.64,162.43,87.18,0.0405,10.0,-0.233,0.4167,2.4488,2.4840,9.66,0.7272,0.3391,0.8024,65.00,31,350.0,264.0,1.1439,2.7879,3.0135,22.31,0.00,22.31,0.00,False,FORWARDS,0.904,0,0,STUCK,False,False,True,0,True,STUCK_DETECTED,0.00,0
1764559550.7373629,39.863,33,TEST1_DIRECT_FORWARD,False,0.0,0.0,0.0,0.00,0.000,0.0,-275.5,95.4,158.19,155.53,158.19,161.12,87.22,-0.0085,10.0,-0.321,0.4316,2.4523,2.4900,9.98,0.7272,0.3391,0.8024,65.00,31,350.0,264.0,1.1588,2.7914,3.0224,22.55,0.00,22.55,0.00,False,FORWARDS_RIGHT,0.907,0,0,STUCK,False,False,True,0,True,STUCK_DETECTED,0.00,0
1764559550.7960083,39.922,34,TEST1_DIRECT_FORWARD,False,0.0,0.0,0.0,0.00,0.000,0.0,-285.6,99.5,157.86,156.68,157.86,162.55,87.61,-0.0767,10.0,-0.413,0.4474,2.4559,2.4963,10.33,0.7272,0.3391,0.8024,65.00,35,350.0,264.0,1.1747,2.7950,3.0318,22.80,0.00,22.80,0.00,False,FORWARDS_RIGHT,0.910,0,0,STUCK,False,False,True,0,True,STUCK_DETECTED,0.00,0
1764559550.8367584,39.963,35,TEST1_DIRECT_FORWARD,False,0.0,0.0,0.0,0.00,0.000,0.0,-292.4,102.3,157.84,158.90,157.84,165.12,87.79,-0.0245,10.0,-0.500,0.4582,2.4582,2.5005,10.56,0.7272,0.3391,0.8024,65.00,35,350.0,264.0,1.1854,2.7973,3.0381,22.97,0.00,22.97,0.00,False,FORWARDS_RIGHT,0.911,0,0,STUCK,False,False,True,0,True,STUCK_DETECTED,0.00,0
1764559550.8716483,39.998,36,TEST1_DIRECT_FORWARD,False,0.0,0.0,0.0,0.00,0.000,0.0,-299.1,105.0,157.96,159.59,157.96,166.10,87.84,0.0107,10.0,-0.579,0.4687,2.4603,2.5045,10.79,0.7272,0.3391,0.8024,65.00,35,350.0,264.0,1.1960,2.7994,3.0442,23.13,0.00,23.13,0.00,False,FORWARDS_RIGHT,0.913,0,0,STUCK,False,False,True,0,True,STUCK_DETECTED,0.00,0
1764559550.92768,40.054,37,TEST1_DIRECT_FORWARD,True,19.8,1754.1,1754.2,0.65,0.981,0.0,-307.1,108.2,157.94,158.45,157.94,165.12,87.75,0.0394,10.0,-0.654,0.5448,2.7430,2.7966,11.23,0.7272,0.3391,0.8024,65.00,35,350.0,264.0,1.2720,3.0821,3.3343,22.43,0.65,22.43,21.78,False,FORWARDS,1.000,0,0,STUCK,False,False,True,0,True,STUCK_DETECTED,0.00,7
1764559550.9595108,40.086,38,TEST1_DIRECT_FORWARD,True,19.8,1754.1,1754.2,0.65,0.981,0.0,-318.0,112.6,157.88,157.33,157.88,164.12,87.44,0.0107,10.0,-0.726,0.5651,2.7463,2.8039,11.63,0.0000,0.0000,0.0000,0.00,37,700.0,268.0,0.5651,2.7463,2.8039,11.63,0.65,11.63,10.98,False,FORWARDS,0.841,0,0,STUCK,False,False,True,0,True,STUCK_DETECTED,0.00,5
1764559551.0065153,40.133,39,TEST1_DIRECT_FORWARD,True,19.8,1754.1,1754.2,0.65,0.981,0.0,-327.9,116.7,157.76,157.15,157.76,164.05,87.35,0.0085,10.0,-0.798,0.5837,2.7491,2.8104,11.99,0.0000,0.0000,0.0000,0.00,37,700.0,268.0,0.5837,2.7491,2.8104,11.99,0.65,11.99,11.34,False,FORWARDS,0.843,0,0,STUCK,False,False,True,0,True,STUCK_DETECTED,0.00,5
1764559551.0585444,40.185,40,TEST1_DIRECT_FORWARD,True,33.4,1691.4,1691.7,1.13,0.980,0.0,-341.1,122.1,157.60,157.24,157.60,164.27,87.40,0.0202,10.0,-0.871,0.7024,2.9430,3.0256,13.42,0.0000,0.0000,0.0000,0.00,37,700.0,268.0,0.7024,2.9430,3.0256,13.42,1.13,13.42,12.29,False,FORWARDS,0.908,0,0,STUCK,False,False,True,0,True,STUCK_DETECTED,0.00,12
1764559551.0989282,40.225,41,TEST1_DIRECT_FORWARD,True,33.4,1691.4,1691.7,1.13,0.980,0.0,-350.6,126.1,157.41,156.29,157.41,163.55,87.22,0.0192,10.0,-0.944,0.7224,2.9443,3.0317,13.78,0.0000,0.0000,0.0000,0.00,41,700.0,26.0,0.7224,2.9443,3.0317,13.78,1.13,13.78,12.65,False,FORWARDS,0.909,0,0,STUCK,False,False,True,0,True,STUCK_DETECTED,0.00,8
1764559551.1417294,40.268,42,TEST1_DIRECT_FORWARD,True,33.4,1691.4,1691.7,1.13,0.980,0.0,-361.7,130.7,157.27,155.50,157.27,163.02,87.27,0.0096,10.0,-1.018,0.7457,2.9456,3.0385,14.21,0.0000,0.0000,0.0000,0.00,41,700.0,26.0,0.7457,2.9456,3.0385,14.21,1.13,14.21,13.07,False,FORWARDS,0.912,0,0,STUCK,False,False,True,0,True,STUCK_DETECTED,0.00,8
1764559551.186915,40.313,43,TEST1_DIRECT_FORWARD,True,33.4,1691.4,1691.7,1.13,0.980,0.0,-373.9,135.8,157.26,155.49,157.26,163.33,87.35,-0.0256,10.0,-1.088,0.7715,2.9464,3.0457,14.67,0.0000,0.0000,0.0000,0.00,42,700.0,267.0,0.7715,2.9464,3.0457,14.67,1.13,14.67,13.54,False,FORWARDS,0.914,0,0,NAVIGATING,True,False,False,0,False,,0.00,5
1764559551.2337406,40.360,44,TEST1_DIRECT_FORWARD,True,33.4,1691.4,1691.7,1.13,0.980,0.0,-384.8,140.4,157.22,156.21,157.22,164.37,87.41,0.0096,10.0,-1.155,0.7946,2.9467,3.0519,15.09,0.0000,0.0000,0.0000,0.00,42,700.0,267.0,0.7946,2.9467,3.0519,15.09,1.13,15.09,13.96,False,FORWARDS,0.916,0,0,NAVIGATING,False,False,False,0,False,,0.00,5
1764559551.2697995,40.396,45,TEST1_DIRECT_FORWARD,True,33.4,1691.4,1691.7,1.13,0.980,0.0,-394.8,144.7,156.90,155.72,156.90,164.22,87.40,0.0181,10.0,-1.227,0.8158,2.9467,3.0575,15.47,0.0000,0.0000,0.0000,0.00,48,650.0,267.0,0.8158,2.9467,3.0575,15.47,1.13,15.47,14.34,False,FORWARDS,0.917,0,0,NAVIGATING,False,False,False,0,False,,0.00,5
1764559551.3131747,40.439,46,TEST1_DIRECT_FORWARD,True,33.4,1691.4,1691.7,1.13,0.980,0.0,-405.4,149.3,156.47,155.35,156.47,164.18,87.24,0.0011,10.0,-1.305,0.8386,2.9466,3.0636,15.89,0.0000,0.0000,0.0000,0.00,48,650.0,267.0,0.8386,2.9466,3.0636,15.89,1.13,15.89,14.75,False,FORWARDS,0.919,0,0,NAVIGATING,False,False,False,0,False,,0.00,5
1764559551.354344,40.480,47,TEST1_DIRECT_FORWARD,True,33.4,1691.4,1691.7,1.13,0.980,0.0,-416.4,154.2,156.16,155.34,156.16,164.41,87.40,-0.0138,10.0,-1.387,0.8622,2.9462,3.0698,16.31,0.0000,0.0000,0.0000,0.00,53,650.0,290.0,0.8622,2.9462,3.0698,16.31,1.13,16.31,15.18,False,FORWARDS,0.921,0,0,NAVIGATING,False,False,False,0,False,,0.00,3
1764559551.3963945,40.522,48,TEST1_DIRECT_FORWARD,False,0.0,0.0,0.0,0.00,0.000,0.0,-427.3,159.0,156.03,156.02,156.03,165.32,87.54,-0.0160,10.0,-1.468,0.8855,2.9455,3.0757,16.73,0.0000,0.0000,0.0000,0.00,58,650.0,313.0,0.8855,2.9455,3.0757,16.73,0.00,16.73,0.00,False,FORWARDS,0.923,0,0,SEARCHING,True,False,False,0,False,,0.00,0
1764559551.44823,40.574,49,TEST1_DIRECT_FORWARD,True,-55.3,1565.0,1566.0,357.98,1.000,0.0,-440.3,164.8,155.90,155.83,155.90,165.35,87.28,0.0298,10.0,-1.548,0.8835,3.2135,3.3327,15.37,0.7308,0.3254,0.8000,66.00,54,350.0,313.0,1.6144,3.5389,3.8897,24.52,-2.02,24.52,26.55,False,FORWARDS_RIGHT,1.000,0,0,NAVIGATING,True,False,False,0,False,,0.00,11
1764559551.491248,40.617,50,TEST1_DIRECT_FORWARD,True,-55.3,1565.0,1566.0,357.98,1.000,0.0,-448.1,168.4,155.66,154.81,155.66,164.44,87.24,0.0117,10.0,-1.630,0.9011,3.2038,3.3281,15.71,0.7308,0.3254,0.8000,66.00,58,350.0,313.0,1.6320,3.5292,3.8882,24.82,-2.02,24.82,26.84,False,FORWARDS_RIGHT,1.000,0,0,NAVIGATING,False,False,False,0,False,,0.00,10
1764559551.529762,40.656,51,TEST1_DIRECT_FORWARD,True,-55.3,1565.0,1566.0,357.98,1.000,0.0,-455.6,171.8,155.46,154.28,155.46,163.98,87.29,-0.0298,10.0,-1.713,0.9178,3.1945,3.3237,16.03,0.7308,0.3254,0.8000,66.00,58,350.0,313.0,1.6487,3.5199,3.8869,25.10,-2.02,25.10,27.12,False,FORWARDS_RIGHT,1.000,0,0,NAVIGATING,False,False,False,0,False,,0.00,10
1764559551.5787134,40.705,52,TEST1_DIRECT_FORWARD,True,-78.9,1494.4,1496.5,356.98,1.000,0.0,-464.6,175.9,155.43,155.27,155.43,165.14,87.31,-0.0341,10.0,-1.793,0.8585,2.9353,3.0583,16.30,0.7308,0.3254,0.8000,66.00,60,350.0,311.0,1.5893,3.2607,3.6274,25.99,-3.02,25.99,29.01,False,FORWARDS_RIGHT,1.000,0,0,NAVIGATING,False,False,False,0,False,,0.00,17
1764559551.6199572,40.746,53,TEST1_DIRECT_FORWARD,True,-78.9,1494.4,1496.5,356.98,1.000,0.0,-471.9,179.2,155.47,155.91,155.47,165.87,87.37,0.0138,10.0,-1.869,0.8745,2.9265,3.0543,16.64,0.7308,0.3254,0.8000,66.00,60,350.0,311.0,1.6053,3.2518,3.6265,26.27,-3.02,26.27,29.30,False,FORWARDS_RIGHT,1.000,0,0,NAVIGATING,False,False,False,0,False,,0.00,17
1764559551.657619,40.784,54,TEST1_DIRECT_FORWARD,True,-82.6,1441.5,1443.8,356.72,1.000,0.0,-480.3,183.0,155.38,155.31,155.38,165.40,87.24,0.0320,10.0,-1.943,0.8645,2.7358,2.8691,17.54,0.0000,0.0000,0.0000,0.00,62,650.0,103.0,0.8645,2.7358,2.8691,17.54,-3.28,17.54,20.82,False,FORWARDS,0.861,0,0,NAVIGATING,False,False,False,0,False,,0.00,24
1764559551.6984823,40.824,55,TEST1_DIRECT_FORWARD,True,-82.6,1441.5,1443.8,356.72,1.000,0.0,-490.0,187.5,155.20,153.84,155.20,164.04,87.22,0.0362,10.0,-2.019,0.8850,2.7244,2.8645,18.00,0.0000,0.0000,0.0000,0.00,62,650.0,103.0,0.8850,2.7244,2.8645,18.00,-3.28,18.00,21.28,False,FORWARDS,0.859,0,0,STUCK,True,False,True,0,True,STUCK_DETECTED,0.00,24
1764559551.7420673,40.868,56,TEST1_DIRECT_FORWARD,True,-98.6,1408.5,1412.0,356.00,1.000,0.0,-499.6,192.0,154.99,153.28,154.99,163.58,87.18,-0.0064,10.0,-2.096,0.8557,2.5957,2.7331,18.24,0.0000,0.0000,0.0000,0.00,65,650.0,103.0,0.8557,2.5957,2.7331,18.24,-4.00,18.24,22.25,False,FORWARDS,0.820,0,0,STUCK,False,False,True,0,True,STUCK_DETECTED,0.00,23
1764559551.7902763,40.916,57,TEST1_DIRECT_FORWARD,True,-98.6,1408.5,1412.0,356.00,1.000,0.0,-508.4,196.2,154.82,153.65,154.82,164.02,87.24,-0.0128,10.0,-2.172,0.8739,2.5855,2.7292,18.67,0.0000,0.0000,0.0000,0.00,65,650.0,103.0,0.8739,2.5855,2.7292,18.67,-4.00,18.67,22.68,False,FORWARDS,0.819,0,0,STUCK,False,False,True,0,True,STUCK_DETECTED,0.00,23
1764559551.8365955,40.963,58,TEST1_DIRECT_FORWARD,True,-98.6,1408.5,1412.0,356.00,1.000,0.0,-520.9,202.1,154.67,154.48,154.67,165.23,87.24,-0.0032,10.0,-2.249,0.8998,2.5709,2.7238,19.29,0.0000,0.0000,0.0000,0.00,70,650.0,103.0,0.8998,2.5709,2.7238,19.29,-4.00,19.29,23.29,False,FORWARDS,0.817,0,0,STUCK,False,False,True,0,True,STUCK_DETECTED,0.00,19
1764559551.8817418,41.008,59,TEST1_DIRECT_FORWARD,True,-98.6,1408.5,1412.0,356.00,1.000,0.0,-530.2,206.5,154.49,154.03,154.49,165.20,87.09,0.0160,10.0,-2.327,0.9192,2.5600,2.7200,19.75,0.0000,0.0000,0.0000,0.00,71,650.0,103.0,0.9192,2.5600,2.7200,19.75,-4.00,19.75,23.76,False,FORWARDS,0.816,0,0,STUCK,False,False,True,0,True,STUCK_DETECTED,0.00,17
1764559551.9191518,41.045,60,TEST1_DIRECT_FORWARD,True,-98.6,1408.5,1412.0,356.00,1.000,0.0,-538.6,210.6,154.36,153.52,154.36,165.00,87.13,-0.0213,10.0,-2.404,0.9366,2.5502,2.7168,20.17,0.0000,0.0000,0.0000,0.00,71,650.0,103.0,0.9366,2.5502,2.7168,20.17,-4.00,20.17,24.17,False,FORWARDS,0.815,0,0,STUCK,False,False,True,0,True,STUCK_DETECTED,0.00,17
1764559551.9633775,41.089,61,TEST1_DIRECT_FORWARD,True,-98.6,1408.5,1412.0,356.00,1.000,0.0,-548.8,215.4,154.40,154.75,154.40,166.70,87.26,-0.0138,10.0,-2.477,0.9579,2.5385,2.7132,20.67,0.0000,0.0000,0.0000,0.00,72,650.0,103.0,0.9579,2.5385,2.7132,20.67,-4.00,20.67,24.68,False,FORWARDS,0.814,0,0,NAVIGATING,True,False,False,0,False,,0.00,15
1764559552.004705,41.131,62,TEST1_DIRECT_FORWARD,True,-98.6,1408.5,1412.0,356.00,1.000,0.0,-557.5,219.6,154.30,154.23,154.30,166.50,87.23,0.0043,10.0,-2.550,0.9759,2.5286,2.7104,21.10,0.0000,0.0000,0.0000,0.00,72,650.0,103.0,0.9759,2.5286,2.7104,21.10,-4.00,21.10,25.11,False,FORWARDS,0.813,0,0,NAVIGATING,False,False,False,0,False,,0.00,15
1764559552.0502365,41.176,63,TEST1_DIRECT_FORWARD,True,-128.1,1340.4,1346.5,354.54,1.000,0.0,-566.9,224.2,154.08,153.75,154.08,166.16,87.42,-0.0043,10.0,-2.624,0.8955,2.2782,2.4479,21.46,0.0000,0.0000,0.0000,0.00,72,650.0,103.0,0.8955,2.2782,2.4479,21.46,-5.46,21.46,26.92,False,FORWARDS,0.734,0,0,NAVIGATING,False,False,False,0,False,,0.00,25
1764559552.1075134,41.234,64,TEST1_DIRECT_FORWARD,True,-128.1,1340.4,1346.5,354.54,1.000,0.0,-578.2,229.7,154.00,154.44,154.00,167.16,87.41,-0.0117,10.0,-2.697,0.9182,2.2657,2.4446,22.06,0.0000,0.0000,0.0000,0.00,75,650.0,103.0,0.9182,2.2657,2.4446,22.06,-5.46,22.06,27.52,False,FORWARDS,0.733,0,0,NAVIGATING,False,False,False,0,False,,0.00,16
1764559552.1433575,41.269,65,TEST1_DIRECT_FORWARD,True,-154.4,1337.7,1346.5,353.42,1.000,0.0,-585.6,233.3,154.08,154.65,154.08,167.48,87.33,0.0096,10.0,-2.766,0.8727,2.2352,2.3995,21.33,0.0000,0.0000,0.0000,0.00,75,650.0,103.0,0.8727,2.2352,2.3995,21.33,-6.58,21.33,27.91,False,FORWARDS,0.720,0,0,NAVIGATING,False,False,False,0,False,,0.00,15
1764559552.187718,41.314,66,TEST1_DIRECT_FORWARD,True,-171.4,1266.2,1277.7,352.29,1.000,0.0,-593.8,237.3,154.14,153.91,154.14,166.86,87.44,0.0192,10.0,-2.833,0.8138,1.9823,2.1428,22.32,0.0000,0.0000,0.0000,0.00,77,700.0,103.0,0.8138,1.9823,2.1428,22.32,-7.71,22.32,30.03,False,FORWARDS,0.643,0,0,NAVIGATING,False,False,False,0,False,,0.00,29
1764559552.2486029,41.375,67,TEST1_DIRECT_FORWARD,True,-175.1,1203.2,1215.9,351.72,0.999,0.0,-603.6,242.0,154.12,153.44,154.12,166.53,87.27,0.0107,10.0,-2.897,0.7872,1.7658,1.9333,24.03,0.0000,0.0000,0.0000,0.00,77,700.0,103.0,0.7872,1.7658,1.9333,24.03,-8.28,24.03,32.31,False,FORWARDS_RIGHT,0.580,0,0,STUCK,True,False,True,0,True,STUCK_DETECTED,0.00,48
1764559552.2800522,41.406,68,TEST1_DIRECT_FORWARD,True,-175.1,1203.2,1215.9,351.72,0.999,0.0,-607.7,244.0,153.97,153.02,153.97,166.22,87.21,0.0138,10.0,-2.962,0.7946,1.7619,1.9328,24.27,0.0000,0.0000,0.0000,0.00,79,700.0,103.0,0.7946,1.7619,1.9328,24.27,-8.28,24.27,32.56,False,FORWARDS_RIGHT,0.580,0,0,STUCK,False,False,True,0,True,STUCK_DETECTED,0.00,39
1764559552.3233345,41.449,69,TEST1_DIRECT_FORWARD,True,-175.1,1203.2,1215.9,351.72,0.999,0.0,-612.5,246.4,153.82,152.52,153.82,165.82,87.24,0.0149,10.0,-3.027,0.8032,1.7574,1.9322,24.56,0.0000,0.0000,0.0000,0.00,79,700.0,103.0,0.8032,1.7574,1.9322,24.56,-8.28,24.56,32.84,False,FORWARDS_RIGHT,0.580,0,0,STUCK,False,False,True,0,True,STUCK_DETECTED,0.00,39
1764559552.3705506,41.497,70,TEST1_DIRECT_FORWARD,True,-198.7,1199.6,1215.9,350.59,0.999,0.0,-617.8,249.0,153.75,152.81,153.75,166.27,87.23,-0.0234,10.0,-3.092,0.7608,1.7257,1.8859,23.79,0.0000,0.0000,0.0000,0.00,84,700.0,103.0,0.7608,1.7257,1.8859,23.79,-9.41,23.79,33.20,False,FORWARDS_RIGHT,0.566,0,0,STUCK,False,False,True,0,True,STUCK_DETECTED,0.00,30
1764559552.419636,41.546,71,TEST1_DIRECT_FORWARD,True,-198.7,1199.6,1215.9,350.59,0.999,0.0,-622.4,251.3,153.63,153.48,153.63,167.02,87.41,-0.0256,10.0,-3.156,0.7690,1.7212,1.8852,24.07,0.0000,0.0000,0.0000,0.00,84,700.0,103.0,0.7690,1.7212,1.8852,24.07,-9.41,24.07,33.48,False,FORWARDS_RIGHT,0.566,0,0,STUCK,False,False,True,0,True,STUCK_DETECTED,0.00,30
1764559552.4521608,41.578,72,TEST1_DIRECT_FORWARD,True,-198.7,1199.6,1215.9,350.59,0.999,0.0,-626.3,253.2,153.56,153.54,153.56,167.22,87.45,0.0149,10.0,-3.220,0.7761,1.7174,1.8846,24.32,0.0000,0.0000,0.0000,0.00,82,700.0,103.0,0.7761,1.7174,1.8846,24.32,-9.41,24.32,33.72,False,FORWARDS_RIGHT,0.565,0,0,STUCK,False,False,True,0,True,STUCK_DETECTED,0.00,25
1764559552.5023026,41.628,73,TEST1_DIRECT_FORWARD,True,-198.7,1199.6,1215.9,350.59,0.999,0.0,-631.8,256.0,153.49,153.10,153.49,166.90,87.27,0.0309,10.0,-3.282,0.7858,1.7121,1.8838,24.65,0.0000,0.0000,0.0000,0.00,82,700.0,277.0,0.7858,1.7121,1.8838,24.65,-9.41,24.65,34.06,False,FORWARDS_RIGHT,0.565,0,0,STUCK,False,False,True,0,True,STUCK_DETECTED,0.00,22
1764559552.5412972,41.667,74,TEST1_DIRECT_FORWARD,False,0.0,0.0,0.0,0.00,0.000,0.0,-636.3,258.2,153.28,152.29,153.28,165.90,87.36,0.0021,10.0,-3.346,0.7938,1.7078,1.8832,24.93,0.0000,0.0000,0.0000,0.00,82,700.0,277.0,0.7938,1.7078,1.8832,24.93,0.00,24.93,0.00,False,FORWARDS_RIGHT,0.565,0,0,STUCK,False,False,True,0,True,STUCK_DETECTED,0.00,0
1764559552.5766418,41.703,75,TEST1_DIRECT_FORWARD,False,0.0,0.0,0.0,0.00,0.000,0.0,-640.1,260.2,153.01,151.97,153.01,165.17,87.42,0.0000,10.0,-3.412,0.8007,1.7040,1.8827,25.17,0.0000,0.0000,0.0000,0.00,84,650.0,277.0,0.8007,1.7040,1.8827,25.17,0.00,25.17,0.00,False,FORWARDS_RIGHT,0.565,0,0,STUCK,False,False,True,0,True,STUCK_DETECTED,0.00,0
1764559552.6174257,41.743,76,TEST1_DIRECT_FORWARD,False,0.0,0.0,0.0,0.00,0.000,0.0,-644.5,262.5,152.80,151.82,152.80,164.83,87.55,0.0064,10.0,-3.479,0.8086,1.6996,1.8821,25.44,0.0000,0.0000,0.0000,0.00,84,650.0,277.0,0.8086,1.6996,1.8821,25.44,0.00,25.44,0.00,False,FORWARDS_RIGHT,0.565,0,0,STUCK,False,False,True,0,True,STUCK_DETECTED,0.00,0
1764559552.653711,41.780,77,TEST1_DIRECT_FORWARD,False,0.0,0.0,0.0,0.00,0.000,0.0,-648.5,264.5,152.62,151.70,152.62,164.95,87.41,0.0128,10.0,-3.546,0.8157,1.6957,1.8816,25.69,0.0000,0.0000,0.0000,0.00,91,650.0,106.0,0.8157,1.6957,1.8816,25.69,0.00,25.69,0.00,False,FORWARDS_RIGHT,0.564,0,0,STUCK,False,False,True,0,True,STUCK_DETECTED,0.00,0
1764559552.7006195,41.827,78,TEST1_DIRECT_FORWARD,False,0.0,0.0,0.0,0.00,0.000,0.0,-653.0,266.9,152.52,151.94,152.52,165.30,87.31,-0.0064,10.0,-3.613,0.8237,1.6912,1.8811,25.97,0.0000,0.0000,0.0000,0.00,91,650.0,106.0,0.8237,1.6912,1.8811,25.97,0.00,25.97,0.00,False,FORWARDS_RIGHT,0.564,0,0,STUCK,False,False,True,0,True,STUCK_DETECTED,0.00,0
1764559552.7399,41.866,79,TEST1_DIRECT_FORWARD,False,0.0,0.0,0.0,0.00,0.000,0.0,-657.3,269.1,152.49,152.22,152.49,165.39,87.30,-0.0096,10.0,-3.679,0.8315,1.6869,1.8807,26.24,0.0000,0.0000,0.0000,0.00,98,650.0,107.0,0.8315,1.6869,1.8807,26.24,0.00,26.24,0.00,False,FORWARDS_RIGHT,0.564,0,0,STUCK,False,False,True,0,True,STUCK_DETECTED,0.00,0
1764559552.7808094,41.907,80,TEST1_DIRECT_FORWARD,False,0.0,0.0,0.0,0.00,0.000,0.0,-661.8,271.4,152.42,152.17,152.42,164.99,87.28,0.0011,10.0,-3.743,0.8394,1.6826,1.8803,26.51,0.0000,0.0000,0.0000,0.00,98,650.0,107.0,0.8394,1.6826,1.8803,26.51,0.00,26.51,0.00,False,FORWARDS_RIGHT,0.564,0,0,STUCK,False,False,True,0,True,STUCK_DETECTED,0.00,0
1764559552.8233645,41.949,81,TEST1_DIRECT_FORWARD,False,0.0,0.0,0.0,0.00,0.000,0.0,-665.7,273.5,152.29,152.16,152.29,164.82,87.35,-0.0064,10.0,-3.808,0.8466,1.6787,1.8801,26.76,0.0000,0.0000,0.0000,0.00,95,650.0,107.0,0.8466,1.6787,1.8801,26.76,0.00,26.76,0.00,False,FORWARDS_RIGHT,0.564,0,0,STUCK,False,False,True,0,True,STUCK_DETECTED,0.00,0
1764559552.8647406,41.991,82,TEST1_DIRECT_FORWARD,False,0.0,0.0,0.0,0.00,0.000,0.0,-670.3,275.9,152.15,152.17,152.15,164.76,87.22,-0.0021,10.0,-3.873,0.8548,1.6742,1.8798,27.05,0.0000,0.0000,0.0000,0.00,95,650.0,107.0,0.8548,1.6742,1.8798,27.05,0.00,27.05,0.00,False,FORWARDS_RIGHT,0.564,0,0,STUCK,False,False,True,0,True,STUCK_DETECTED,0.00,0
1764559552.9078496,42.034,83,TEST1_DIRECT_FORWARD,True,-251.1,1069.3,1098.4,346.78,0.998,0.0,-674.5,278.1,152.11,152.63,152.11,165.18,87.26,-0.0064,10.0,-3.937,0.6562,1.2262,1.3907,28.15,-1.8929,0.4196,1.9389,-77.50,98,600.0,111.0,-1.2367,1.6458,2.0587,-36.92,-13.22,-36.92,-23.71,False,FORWARDS_LEFT,0.618,0,0,STUCK,False,False,True,0,True,STUCK_DETECTED,0.00,27
1764559552.952277,42.078,84,TEST1_DIRECT_FORWARD,True,-251.1,1069.3,1098.4,346.78,0.998,0.0,-679.2,280.6,152.21,153.34,152.21,165.62,87.28,-0.0224,10.0,-3.998,0.6635,1.2224,1.3909,28.49,-1.8929,0.4196,1.9389,-77.50,98,600.0,111.0,-1.2294,1.6421,2.0513,-36.82,-13.22,-36.82,-23.61,False,FORWARDS_LEFT,0.615,0,0,STUCK,False,False,True,0,True,STUCK_DETECTED,0.00,27
1764559552.993709,42.120,85,TEST1_DIRECT_FORWARD,True,-251.1,1069.3,1098.4,346.78,0.998,0.0,-684.7,283.5,152.36,153.47,152.36,165.20,87.32,0.0138,10.0,-4.056,0.6722,1.2182,1.3913,28.89,-2.8245,0.6780,2.9048,-76.50,99,600.0,112.0,-2.1524,1.8961,2.8685,-48.62,-13.22,-48.62,-35.41,False,FORWARDS_LEFT,0.861,0,0,STUCK,False,False,True,0,True,STUCK_DETECTED,0.00,22
1764559553.0379007,42.164,86,TEST1_DIRECT_FORWARD,True,-272.1,1064.2,1098.4,345.66,0.998,0.0,-691.5,287.0,152.48,152.98,152.48,164.27,87.36,0.0021,10.0,-4.111,0.6369,1.1800,1.3409,28.36,-2.8245,0.6780,2.9048,-76.50,99,600.0,112.0,-2.1877,1.8580,2.8702,-49.66,-14.34,-49.66,-35.32,False,FORWARDS_LEFT,0.861,0,0,STUCK,False,False,True,0,True,STUCK_DETECTED,0.00,21
1764559553.0814967,42.208,87,TEST1_DIRECT_FORWARD,True,-272.1,1064.2,1098.4,345.66,0.998,0.0,-698.1,290.5,152.61,153.04,152.61,164.10,87.25,0.0000,10.0,-4.163,0.6471,1.1751,1.3415,28.84,-3.7444,0.9680,3.8675,-75.51,104,600.0,265.0,-3.0974,2.1431,3.7665,-55.32,-14.34,-55.32,-40.98,False,FORWARDS_LEFT,1.000,0,0,STUCK,False,False,True,0,True,STUCK_DETECTED,0.00,18
1764559553.1255767,42.252,88,TEST1_DIRECT_FORWARD,True,-272.1,1064.2,1098.4,345.66,0.998,0.0,-706.7,294.9,152.74,153.21,152.74,164.20,87.35,0.0021,10.0,-4.213,0.6604,1.1690,1.3426,29.46,-3.8813,0.9670,4.0000,-76.01,112,600.0,265.0,-3.2210,2.1360,3.8649,-56.45,-14.34,-56.45,-42.11,False,FORWARDS_LEFT,1.000,0,0,STUCK,False,False,True,0,True,STUCK_DETECTED,0.00,16
1764559553.1679368,42.294,89,TEST1_DIRECT_FORWARD,True,-272.1,1064.2,1098.4,345.66,0.998,0.0,-714.4,298.8,152.82,153.01,152.82,164.20,87.34,-0.0021,10.0,-4.261,0.6725,1.1636,1.3440,30.02,-3.8813,0.9670,4.0000,-76.01,112,600.0,265.0,-3.2089,2.1306,3.8518,-56.42,-14.34,-56.42,-42.08,False,FORWARDS_LEFT,1.000,0,0,STUCK,False,False,True,0,True,STUCK_DETECTED,0.00,16
1764559553.2074676,42.333,90,TEST1_DIRECT_FORWARD,True,-272.1,1064.2,1098.4,345.66,0.998,0.0,-721.8,302.6,152.92,153.15,152.92,164.48,87.32,-0.0096,10.0,-4.306,0.6842,1.1586,1.3456,30.56,-3.8695,1.0133,4.0000,-75.33,122,550.0,265.0,-3.1853,2.1720,3.8553,-55.71,-14.34,-55.71,-41.37,False,FORWARDS_LEFT,1.000,0,0,STUCK,False,False,True,0,True,STUCK_DETECTED,0.00,11
1764559553.2452345,42.371,91,TEST1_DIRECT_FORWARD,False,0.0,0.0,0.0,0.00,0.000,0.0,-729.5,306.5,153.02,153.22,153.02,164.54,87.28,0.0032,10.0,-4.349,0.6966,1.1537,1.3476,31.12,-3.8695,1.0133,4.0000,-75.33,122,550.0,265.0,-3.1730,2.1670,3.8423,-55.67,0.00,-55.67,0.00,False,FORWARDS_LEFT,1.000,0,0,STUCK,False,False,True,0,True,STUCK_DETECTED,0.00,0
1764559553.284511,42.411,92,TEST1_DIRECT_FORWARD,False,0.0,0.0,0.0,0.00,0.000,0.0,-737.1,310.4,153.16,153.50,153.16,164.78,87.10,-0.0011,10.0,-4.390,0.7089,1.1489,1.3500,31.67,-3.7794,1.3101,4.0000,-70.88,132,550.0,265.0,-3.0705,2.4590,3.9338,-51.31,0.00,-51.31,0.00,False,FORWARDS_LEFT,1.000,0,0,STUCK,False,False,True,0,True,STUCK_DETECTED,0.00,0
1764559553.3244016,42.450,93,TEST1_DIRECT_FORWARD,False,0.0,0.0,0.0,0.00,0.000,0.0,-744.4,314.1,153.27,153.75,153.27,164.87,87.07,-0.0064,10.0,-4.429,0.7208,1.1445,1.3526,32.20,-3.7794,1.3101,4.0000,-70.88,132,550.0,265.0,-3.0586,2.4547,3.9218,-51.25,0.00,-51.25,0.00,False,FORWARDS_LEFT,1.000,0,0,STUCK,False,False,True,0,True,STUCK_DETECTED,0.00,0
1764559553.3653357,42.491,94,TEST1_DIRECT_FORWARD,False,0.0,0.0,0.0,0.00,0.000,0.0,-752.5,318.2,153.32,153.84,153.32,164.60,86.91,0.0075,10.0,-4.466,0.7341,1.1399,1.3558,32.78,-3.7946,1.2652,4.0000,-71.56,145,500.0,265.0,-3.0605,2.4051,3.8924,-51.84,0.00,-51.84,0.00,False,FORWARDS_LEFT,1.000,0,0,STUCK,False,False,True,0,True,STUCK_DETECTED,0.00,0
1764559553.406587,42.533,95,TEST1_DIRECT_FORWARD,False,0.0,0.0,0.0,0.00,0.000,0.0,-760.1,322.0,153.31,153.40,153.31,163.40,86.93,0.0277,10.0,-4.503,0.7467,1.1356,1.3591,33.33,-3.7946,1.2652,4.0000,-71.56,145,500.0,265.0,-3.0479,2.4008,3.8799,-51.77,0.00,-51.77,0.00,False,FORWARDS_LEFT,1.000,0,0,STUCK,False,False,True,0,True,STUCK_DETECTED,0.00,0
1764559553.4487467,42.575,96,TEST1_DIRECT_FORWARD,False,0.0,0.0,0.0,0.00,0.000,0.0,-767.6,325.7,153.24,152.25,153.24,161.10,86.91,0.0501,10.0,-4.539,0.7592,1.1315,1.3626,33.86,-3.7606,1.3630,4.0000,-70.08,166,450.0,121.0,-3.0014,2.4945,3.9027,-50.27,0.00,-50.27,0.00,False,FORWARDS_LEFT,1.000,0,0,STUCK,False,False,True,0,True,STUCK_DETECTED,0.00,0
1764559553.4869716,42.613,97,TEST1_DIRECT_FORWARD,False,0.0,0.0,0.0,0.00,0.000,0.0,-774.9,329.5,153.09,151.58,153.09,159.23,86.88,-0.0394,10.0,-4.577,0.7716,1.1274,1.3662,34.39,-3.7606,1.3630,4.0000,-70.08,166,450.0,121.0,-2.9890,2.4905,3.8905,-50.20,0.00,-50.20,0.00,False,FORWARDS_LEFT,1.000,0,0,STUCK,False,False,True,0,True,STUCK_DETECTED,0.00,0
1764559553.530665,42.657,98,TEST1_DIRECT_FORWARD,False,0.0,0.0,0.0,0.00,0.000,0.0,-782.9,333.5,153.11,153.39,153.11,159.69,87.22,-0.0735,10.0,-4.613,0.7853,1.1232,1.3705,34.96,-3.7350,1.4318,4.0000,-69.03,182,450.0,121.0,-2.9497,2.5550,3.9024,-49.10,0.00,-49.10,0.00,False,FORWARDS_LEFT,1.000,0,0,STUCK,False,False,True,0,True,STUCK_DETECTED,0.00,0
1764559553.5685403,42.695,99,TEST1_DIRECT_FORWARD,False,0.0,0.0,0.0,0.00,0.000,0.0,-790.5,337.3,153.30,154.89,153.30,160.43,87.32,-0.0192,10.0,-4.647,0.7983,1.1193,1.3749,35.50,-3.7350,1.4318,4.0000,-69.03,182,450.0,121.0,-2.9366,2.5511,3.8900,-49.02,0.00,-49.02,0.00,False,FORWARDS_LEFT,1.000,0,0,STUCK,False,False,True,0,True,STUCK_DETECTED,0.00,0
1764559553.6095257,42.736,100,TEST1_DIRECT_FORWARD,False,0.0,0.0,0.0,0.00,0.000,0.0,-798.3,341.2,153.49,155.10,153.49,160.37,87.37,0.0096,10.0,-4.678,0.8121,1.1155,1.3798,36.05,-3.7517,1.3875,4.0000,-69.70,202,400.0,121.0,-2.9396,2.5030,3.8609,-49.59,0.00,-49.59,0.00,False,FORWARDS_LEFT,1.000,0,0,STUCK,False,False,True,0,True,STUCK_DETECTED,0.00,0
1764559553.6589327,42.785,101,TEST1_DIRECT_FORWARD,True,-352.2,905.3,971.4,338.74,0.986,0.0,-805.7,344.9,153.70,155.26,153.70,160.21,87.22,0.0128,10.0,-4.707,0.4863,0.6010,0.7731,38.97,-3.7517,1.3875,4.0000,-69.70,181,400.0,121.0,-3.2654,1.9885,3.8232,-58.66,-21.26,-58.66,-37.40,False,FORWARDS_LEFT,1.000,0,0,STUCK,False,False,True,0,True,STUCK_DETECTED,0.00,24
1764559553.6951208,42.821,102,TEST1_DIRECT_FORWARD,True,-352.2,905.3,971.4,338.74,0.986,0.0,-813.2,348.6,153.97,156.23,153.97,160.71,87.07,0.0138,10.0,-4.779,0.4974,0.6007,0.7799,39.63,-3.7595,1.3660,4.0000,-70.03,204,350.0,260.0,-3.2622,1.9666,3.8091,-58.92,-21.26,-58.92,-37.66,False,FORWARDS_LEFT,1.000,0,0,STUCK,False,False,True,0,True,STUCK_DETECTED,0.00,23
1764559553.7382152,42.864,103,TEST1_DIRECT_FORWARD,True,-352.2,905.3,971.4,338.74,0.986,0.0,-820.7,352.2,154.20,156.01,154.20,160.21,87.16,0.0117,10.0,-4.849,0.5086,0.6005,0.7870,40.26,-3.7595,1.3660,4.0000,-70.03,204,350.0,260.0,-3.2509,1.9665,3.7994,-58.83,-21.26,-58.83,-37.57,False,FORWARDS_LEFT,1.000,0,0,STUCK,False,False,True,0,True,STUCK_DETECTED,0.00,23
1764559553.7778063,42.904,104,TEST1_DIRECT_FORWARD,True,-352.2,905.3,971.4,338.74,0.986,0.0,-828.6,355.9,154.32,155.06,154.32,158.93,87.14,0.0181,10.0,-4.919,0.5207,0.6005,0.7948,40.93,-3.7639,1.3539,4.0000,-70.22,219,350.0,117.0,-3.2432,1.9544,3.7866,-58.93,-21.26,-58.93,-37.67,False,FORWARDS_LEFT,1.000,0,0,STUCK,False,False,True,0,True,STUCK_DETECTED,0.00,21
1764559553.8200672,42.946,105,TEST1_DIRECT_FORWARD,True,-352.2,905.3,971.4,338.74,0.986,0.0,-837.3,360.1,154.41,154.33,154.41,157.95,87.19,-0.0192,10.0,-4.987,0.5344,0.6007,0.8040,41.66,-3.7707,1.3348,4.0000,-70.51,245,300.0,121.0,-3.2363,1.9354,3.7709,-59.12,-21.26,-59.12,-37.86,False,FORWARDS_LEFT,1.000,0,0,STUCK,False,False,True,0,True,STUCK_DETECTED,0.00,20
1764559553.864009,42.990,106,TEST1_DIRECT_FORWARD,True,-369.9,898.2,971.4,337.61,0.986,0.0,-845.5,364.0,154.63,154.40,154.63,157.76,87.24,0.0224,10.0,-5.053,0.5008,0.5625,0.7532,41.68,-3.7707,1.3348,4.0000,-70.51,244,300.0,121.0,-3.2699,1.8973,3.7805,-59.88,-22.39,-59.88,-37.49,False,FORWARDS_LEFT,1.000,0,0,STUCK,False,False,True,0,True,STUCK_DETECTED,0.00,21
1764559553.9113715,43.037,107,TEST1_DIRECT_FORWARD,True,-369.9,898.2,971.4,337.61,0.986,0.0,-853.5,367.8,154.89,154.17,154.89,156.94,86.66,0.1119,10.0,-5.117,0.5135,0.5632,0.7622,42.36,-3.7694,1.3385,4.0000,-70.45,264,250.0,121.0,-3.2559,1.9017,3.7706,-59.71,-22.39,-59.71,-37.33,False,FORWARDS_LEFT,1.000,0,0,STUCK,False,False,True,0,True,STUCK_DETECTED,0.00,15
1764559553.9526718,43.079,108,TEST1_DIRECT_FORWARD,True,-369.9,898.2,971.4,337.61,0.986,0.0,-861.2,371.4,154.93,153.84,154.93,155.97,86.12,0.1193,10.0,-5.181,0.5259,0.5640,0.7711,43.00,-3.7652,1.3504,4.0000,-70.27,251,250.0,121.0,-3.2393,1.9144,3.7627,-59.42,-22.39,-59.42,-37.03,False,FORWARDS_LEFT,1.000,0,0,STUCK,False,False,True,0,True,STUCK_DETECTED,0.00,13
1764559554.0080786,43.134,109,TEST1_DIRECT_FORWARD,False,0.0,0.0,0.0,0.00,0.000,0.0,-873.2,376.9,155.08,156.36,155.08,156.46,85.40,-0.0586,10.0,-5.243,0.5458,0.5654,0.7859,43.99,-3.7545,1.3798,4.0000,-69.82,292,250.0,121.0,-3.2087,1.9452,3.7522,-58.78,0.00,-58.78,0.00,False,FORWARDS_LEFT,1.000,0,0,STUCK,False,False,True,0,True,STUCK_DETECTED,0.00,0
1764559554.0560966,43.182,110,TEST1_DIRECT_FORWARD,False,0.0,0.0,0.0,0.00,0.000,0.0,-881.1,380.5,155.61,160.46,155.61,159.28,85.05,-0.0543,10.0,-5.299,0.5595,0.5666,0.7963,44.64,-3.7545,1.3798,4.0000,-69.82,292,250.0,121.0,-3.1950,1.9464,3.7412,-58.65,0.00,-58.65,0.00,False,FORWARDS_LEFT,1.000,0,0,STUCK,False,False,True,0,True,STUCK_DETECTED,0.00,0
1764559554.0892417,43.215,111,TEST1_DIRECT_FORWARD,False,0.0,0.0,0.0,0.00,0.000,0.0,-888.5,383.8,156.15,160.60,156.15,158.28,85.13,0.0138,10.0,-5.351,0.5726,0.5679,0.8065,45.23,-3.7662,1.3474,4.0000,-70.31,300,200.0,121.0,-3.1937,1.9154,3.7240,-59.05,0.00,-59.05,0.00,False,FORWARDS_LEFT,1.000,0,0,STUCK,False,False,True,0,True,STUCK_DETECTED,0.00,0
1764559554.1464078,43.272,112,TEST1_DIRECT_FORWARD,False,0.0,0.0,0.0,0.00,0.000,0.0,-899.6,388.7,156.29,157.66,156.29,153.85,85.52,-0.0309,10.0,-5.400,0.5926,0.5701,0.8223,46.11,-3.7392,1.4207,4.0000,-69.20,310,200.0,121.0,-3.1466,1.9908,3.7235,-57.68,0.00,-57.68,0.00,False,FORWARDS_LEFT,1.000,0,0,STUCK,False,False,True,0,True,STUCK_DETECTED,0.00,0
1764559554.1871214,43.313,113,TEST1_DIRECT_FORWARD,False,0.0,0.0,0.0,0.00,0.000,0.0,-907.4,392.1,156.58,158.89,156.58,154.38,85.53,-0.0479,10.0,-5.448,0.6072,0.5717,0.8340,46.72,-3.7392,1.4207,4.0000,-69.20,310,200.0,121.0,-3.1320,1.9924,3.7121,-57.54,0.00,-57.54,0.00,False,FORWARDS_LEFT,1.000,0,0,STUCK,False,False,True,0,True,STUCK_DETECTED,0.00,0
1764559554.2257502,43.352,114,TEST1_DIRECT_FORWARD,False,0.0,0.0,0.0,0.00,0.000,0.0,-914.7,395.1,157.14,160.65,157.14,155.36,85.50,-0.0501,10.0,-5.494,0.6211,0.5735,0.8453,47.28,-3.7254,1.4566,4.0000,-68.64,304,200.0,121.0,-3.1043,2.0301,3.7092,-56.82,0.00,-56.82,0.00,False,FORWARDS_LEFT,1.000,0,0,STUCK,False,False,True,0,True,STUCK_DETECTED,0.00,0
1764559554.2843764,43.410,115,TEST1_DIRECT_FORWARD,False,0.0,0.0,0.0,0.00,0.000,0.0,-925.7,399.6,157.92,162.13,157.92,155.72,85.56,-0.0053,10.0,-5.534,0.6425,0.5765,0.8632,48.10,-3.7254,1.4566,4.0000,-68.64,304,200.0,121.0,-3.0828,2.0331,3.6929,-56.60,0.00,-56.60,0.00,False,FORWARDS_LEFT,1.000,0,0,STUCK,False,False,True,0,True,STUCK_DETECTED,0.00,0
1764559554.3228438,43.449,116,TEST1_DIRECT_FORWARD,False,0.0,0.0,0.0,0.00,0.000,0.0,-933.7,402.7,158.70,162.20,158.70,155.39,85.51,0.0330,10.0,-5.566,0.6587,0.5789,0.8769,48.69,-3.6874,1.5502,4.0000,-67.20,288,200.0,121.0,-3.0287,2.1291,3.7022,-54.89,0.00,-54.89,0.00,False,FORWARDS_LEFT,1.000,0,0,STUCK,False,False,True,0,True,STUCK_DETECTED,0.00,0
1764559554.3653502,43.491,117,TEST1_DIRECT_FORWARD,False,0.0,0.0,0.0,0.00,0.000,0.0,-941.0,405.5,159.47,161.86,159.47,154.69,85.43,0.0277,10.0,-5.589,0.6738,0.5814,0.8900,49.21,-3.6874,1.5502,4.0000,-67.20,288,200.0,121.0,-3.0136,2.1315,3.6912,-54.73,0.00,-54.73,0.00,False,FORWARDS_LEFT,1.000,0,0,STUCK,False,False,True,0,True,STUCK_DETECTED,0.00,0
1764559554.4287107,43.555,118,TEST1_DIRECT_FORWARD,True,-290.1,701.6,759.2,337.54,0.978,0.0,-953.8,410.0,160.26,161.77,160.26,153.96,85.38,-0.0053,10.0,-5.605,0.7209,0.3166,0.7874,66.29,-3.5982,1.7473,4.0000,-64.10,227,200.0,121.0,-2.8773,2.0640,3.5410,-54.35,-22.46,-54.35,-31.88,False,FORWARDS_LEFT,1.000,0,0,STUCK,False,False,True,0,True,STUCK_DETECTED,0.00,53
1764559554.4664855,43.592,119,TEST1_DIRECT_FORWARD,True,-290.1,701.6,759.2,337.54,0.978,0.0,-961.3,412.6,160.81,161.89,160.81,153.61,85.37,-0.0352,10.0,-5.617,0.7418,0.3194,0.8077,66.71,-3.4833,1.9664,4.0000,-60.55,226,200.0,121.0,-2.7414,2.2857,3.5693,-50.18,-22.46,-50.18,-27.72,False,FORWARDS_LEFT,1.000,0,0,STUCK,False,False,True,0,True,STUCK_DETECTED,0.00,39
1764559554.5085773,43.635,120,TEST1_DIRECT_FORWARD,True,-290.1,701.6,759.2,337.54,0.978,0.0,-969.5,415.5,161.06,162.92,161.06,153.80,85.55,-0.0724,10.0,-5.626,0.7653,0.3223,0.8304,67.16,-3.4833,1.9664,4.0000,-60.55,226,200.0,121.0,-2.7180,2.2886,3.5532,-49.90,-22.46,-49.90,-27.44,False,FORWARDS_LEFT,1.000,0,0,STUCK,False,False,True,0,True,STUCK_DETECTED,0.00,39
1764559554.5694952,43.696,121,TEST1_DIRECT_FORWARD,True,-303.8,695.8,759.2,336.41,0.978,0.0,-981.8,419.6,161.42,164.23,161.42,153.79,85.55,0.0192,10.0,-5.631,0.7522,0.3064,0.8122,67.84,-3.4556,2.0146,4.0000,-59.76,223,200.0,121.0,-2.7034,2.3210,3.5631,-49.35,-23.59,-49.35,-25.77,False,FORWARDS_LEFT,1.000,0,0,STUCK,False,False,True,0,True,STUCK_DETECTED,0.00,31
1764559554.6123092,43.738,122,TEST1_DIRECT_FORWARD,True,-303.8,695.8,759.2,336.41,0.978,0.0,-989.3,422.0,162.08,164.22,162.08,153.36,85.53,0.0000,10.0,-5.627,0.7742,0.3091,0.8336,68.23,-3.4556,2.0146,4.0000,-59.76,223,200.0,121.0,-2.6815,2.3237,3.5482,-49.09,-23.59,-49.09,-25.50,False,FORWARDS_LEFT,1.000,0,0,STUCK,False,False,True,0,True,STUCK_DETECTED,0.00,31
1764559554.6511004,43.777,123,TEST1_DIRECT_FORWARD,True,-303.8,695.8,759.2,336.41,0.978,0.0,-997.9,424.8,162.45,162.60,162.45,151.41,85.46,0.1204,10.0,-5.616,0.7994,0.3121,0.8582,68.67,-3.2868,2.2797,4.0000,-55.25,217,200.0,121.0,-2.4874,2.5918,3.5923,-43.82,-23.59,-43.82,-20.23,False,FORWARDS_LEFT,1.000,0,0,STUCK,False,False,True,0,True,STUCK_DETECTED,0.00,19
1764559554.7213855,43.847,124,TEST1_DIRECT_FORWARD,True,-303.8,695.8,759.2,336.41,0.978,0.0,-1011.4,429.4,161.01,146.32,161.01,134.60,85.69,0.1108,10.0,-5.615,0.8388,0.3158,0.8963,69.37,-3.1097,2.5158,4.0000,-51.03,213,200.0,121.0,-2.2709,2.8316,3.6298,-38.73,-23.59,-38.73,-15.14,False,FORWARDS_LEFT,1.000,0,0,STUCK,False,False,True,0,True,STUCK_DETECTED,0.00,15
1764559554.7572405,43.883,125,TEST1_DIRECT_FORWARD,False,0.0,0.0,0.0,0.00,0.000,0.0,-1019.3,432.4,159.30,145.00,159.30,131.83,85.65,-0.0671,10.0,-5.627,0.8619,0.3173,0.9185,69.79,-3.1191,2.5042,4.0000,-51.24,228,200.0,121.0,-2.2572,2.8216,3.6133,-38.66,0.00,-38.66,0.00,False,FORWARDS_LEFT,1.000,0,0,STUCK,False,False,True,0,True,STUCK_DETECTED,0.00,0
1764559554.790969,43.917,126,TEST1_DIRECT_FORWARD,False,0.0,0.0,0.0,0.00,0.000,0.0,-1026.6,435.4,157.81,147.28,157.81,133.21,85.61,-0.1150,10.0,-5.652,0.8835,0.3183,0.9390,70.19,-3.0103,2.6341,4.0000,-48.81,214,200.0,121.0,-2.1268,2.9524,3.6386,-35.77,0.00,-35.77,0.00,False,FORWARDS_LEFT,1.000,0,0,STUCK,False,False,True,0,True,STUCK_DETECTED,0.00,0
1764559554.842103,43.968,127,TEST1_DIRECT_FORWARD,False,0.0,0.0,0.0,0.00,0.000,0.0,-1036.7,439.6,156.98,153.59,156.98,137.38,85.62,-0.0639,10.0,-5.683,0.9132,0.3191,0.9673,70.74,-2.9074,2.7472,4.0000,-46.62,203,200.0,121.0,-1.9942,3.0663,3.6578,-33.04,0.00,-33.04,0.00,False,FORWARDS_LEFT,1.000,0,0,STUCK,False,False,True,0,True,STUCK_DETECTED,0.00,0
1764559554.8831704,44.009,128,TEST1_DIRECT_FORWARD,False,0.0,0.0,0.0,0.00,0.000,0.0,-1045.2,443.4,156.25,154.49,156.25,136.63,85.52,0.0692,10.0,-5.718,0.9383,0.3194,0.9911,71.20,-2.9074,2.7472,4.0000,-46.62,203,200.0,121.0,-1.9691,3.0666,3.6444,-32.71,0.00,-32.71,0.00,False,FORWARDS_LEFT,1.000,0,0,STUCK,False,False,True,0,True,STUCK_DETECTED,0.00,0
1764559554.9289875,44.055,129,TEST1_DIRECT_FORWARD,False,0.0,0.0,0.0,0.00,0.000,0.0,-1052.8,446.9,155.24,151.76,155.24,132.85,85.49,0.1119,10.0,-5.758,0.9608,0.3193,1.0125,71.62,-2.8599,2.7966,4.0000,-45.64,185,200.0,121.0,-1.8991,3.1158,3.6490,-31.36,0.00,-31.36,0.00,False,FORWARDS_LEFT,1.000,0,0,STUCK,False,False,True,0,True,STUCK_DETECTED,0.00,0
1764559554.994751,44.121,130,TEST1_DIRECT_FORWARD,False,0.0,0.0,0.0,0.00,0.000,0.0,-1064.8,452.8,153.85,149.01,153.85,128.15,85.53,-0.0447,10.0,-5.810,0.9965,0.3182,1.0460,72.29,-2.8599,2.7966,4.0000,-45.64,185,200.0,121.0,-1.8634,3.1147,3.6296,-30.89,0.00,-30.89,0.00,False,FORWARDS_LEFT,1.000,0,0,STUCK,False,False,True,0,True,STUCK_DETECTED,0.00,0
1764559555.0221803,44.148,131,TEST1_DIRECT_FORWARD,False,0.0,0.0,0.0,0.00,0.000,0.0,-1070.9,456.0,152.35,149.19,152.35,127.40,85.61,-0.1406,10.0,-5.875,1.0147,0.3172,1.0631,72.64,-2.8097,2.8470,4.0000,-44.62,160,200.0,121.0,-1.7951,3.1641,3.6379,-29.57,0.00,-29.57,0.00,False,FORWARDS_LEFT,1.000,0,0,STUCK,False,False,True,0,True,STUCK_DETECTED,0.00,0
1764559555.0832136,44.209,132,TEST1_DIRECT_FORWARD,True,-277.5,602.3,663.2,335.26,1.000,0.0,-1079.1,460.4,151.70,157.78,151.70,134.52,85.83,-0.2780,10.0,-5.944,1.0822,0.1916,1.0991,79.96,-2.7607,2.8946,4.0000,-43.64,140,200.0,121.0,-1.6785,3.0862,3.5131,-28.54,-24.74,-28.54,-3.80,False,FORWARDS_LEFT,1.000,0,0,STUCK,False,False,True,0,True,STUCK_DETECTED,0.00,20
1764559555.127131,44.253,133,TEST1_DIRECT_FORWARD,True,-277.5,602.3,663.2,335.26,1.000,0.0,-1089.9,465.9,152.78,173.31,152.78,148.86,85.80,-0.2280,10.0,-5.998,1.1175,0.1876,1.1331,80.47,-2.6872,2.9630,4.0000,-42.21,147,200.0,121.0,-1.5697,3.1505,3.5199,-26.48,-24.74,-26.48,-1.74,False,FORWARDS_LEFT,1.000,0,0,STUCK,False,False,True,0,True,STUCK_DETECTED,0.00,12
1764559555.1727538,44.299,134,TEST1_DIRECT_FORWARD,True,-277.5,602.3,663.2,335.26,1.000,0.0,-1098.1,469.6,155.84,176.98,155.84,152.17,86.05,0.0107,10.0,-6.018,1.1443,0.1851,1.1591,80.81,-2.4889,3.1313,4.0000,-38.48,131,200.0,125.0,-1.3447,3.3164,3.5786,-22.07,-24.74,-22.07,2.67,False,FORWARDS,1.000,0,0,STUCK,False,False,True,0,True,STUCK_DETECTED,0.00,3
1764559555.2173452,44.343,135,TEST1_DIRECT_FORWARD,True,-289.3,596.7,663.2,334.14,1.000,0.0,-1109.2,474.0,158.38,170.40,158.38,145.23,86.28,0.1587,10.0,-6.013,1.1390,0.1705,1.1516,81.49,-2.4889,3.1313,4.0000,-38.48,131,200.0,125.0,-1.3500,3.3018,3.5671,-22.24,-25.86,-22.24,3.63,False,FORWARDS,1.000,0,0,STUCK,False,False,True,0,True,STUCK_DETECTED,0.00,3
1764559555.2645836,44.391,136,TEST1_DIRECT_FORWARD,True,-289.3,596.7,663.2,334.14,1.000,0.0,-1124.6,479.7,159.89,162.40,159.89,136.66,86.52,0.0479,10.0,-5.993,1.1906,0.1669,1.2023,82.02,-2.5759,3.0602,4.0000,-40.09,136,200.0,125.0,-1.3853,3.2270,3.5118,-23.23,-25.86,-23.23,2.63,False,FORWARDS_LEFT,1.000,0,0,STUCK,False,False,True,0,True,STUCK_DETECTED,0.00,2
1764559555.3104916,44.436,137,TEST1_DIRECT_FORWARD,True,-289.3,596.7,663.2,334.14,1.000,0.0,-1132.8,482.5,160.73,161.97,160.73,135.54,86.62,-0.0479,10.0,-5.966,1.2182,0.1649,1.2293,82.29,-2.9989,2.6471,4.0000,-48.57,154,200.0,125.0,-1.7807,2.8120,3.3284,-32.34,-25.86,-32.34,-6.48,False,FORWARDS_LEFT,0.999,0,0,NAVIGATING,True,False,False,0,False,,0.00,1
1764559555.3488941,44.475,138,TEST1_DIRECT_FORWARD,True,-289.3,596.7,663.2,334.14,1.000,0.0,-1141.3,485.3,161.79,165.05,161.79,137.69,86.59,-0.0522,10.0,-5.926,1.2467,0.1630,1.2573,82.55,-2.9989,2.6471,4.0000,-48.57,154,200.0,125.0,-1.7522,2.8101,3.3116,-31.94,-25.86,-31.94,-6.08,False,FORWARDS_LEFT,0.993,0,0,AVOIDING_OBSTACLES,True,False,False,0,False,,0.00,1
1764559555.3929803,44.519,139,TEST1_DIRECT_FORWARD,False,0.0,0.0,0.0,0.00,0.000,0.0,-1150.8,488.2,163.40,167.95,163.40,139.32,86.60,0.0011,10.0,-5.870,1.2789,0.1612,1.2891,82.82,-3.1664,2.4442,4.0000,-52.34,166,200.0,130.0,-1.8875,2.6054,3.2172,-35.92,0.00,-35.92,0.00,False,FORWARDS_LEFT,0.965,0,0,AVOIDING_OBSTACLES,False,False,False,0,False,,0.00,0
1764559555.4388127,44.565,140,TEST1_DIRECT_FORWARD,False,0.0,0.0,0.0,0.00,0.000,0.0,-1158.7,490.2,165.39,168.83,165.39,138.94,86.58,-0.0309,10.0,-5.792,1.3058,0.1600,1.3156,83.01,-3.1664,2.4442,4.0000,-52.34,166,200.0,130.0,-1.8606,2.6042,3.2005,-35.54,0.00,-35.54,0.00,False,FORWARDS_LEFT,0.960,0,0,AVOIDING_OBSTACLES,False,False,False,0,False,,0.00,0
1764559555.4782343,44.604,141,TEST1_DIRECT_FORWARD,False,0.0,0.0,0.0,0.00,0.000,0.0,-1167.2,492.1,167.52,170.52,167.52,139.19,86.70,-0.0820,10.0,-5.691,1.3348,0.1591,1.3443,83.20,-3.2134,2.3820,4.0000,-53.45,170,200.0,242.0,-1.8786,2.5411,3.1601,-36.47,0.00,-36.47,0.00,False,FORWARDS_LEFT,0.948,0,0,AVOIDING_OBSTACLES,False,False,False,0,False,,0.00,0
1764559555.5285769,44.655,142,TEST1_DIRECT_FORWARD,False,0.0,0.0,0.0,0.00,0.000,0.0,-1177.1,494.0,168.79,170.51,168.79,138.40,86.86,0.0629,10.0,-5.576,1.3688,0.1583,1.3779,83.40,-3.2134,2.3820,4.0000,-53.45,170,200.0,242.0,-1.8446,2.5403,3.1394,-35.98,0.00,-35.98,0.00,False,FORWARDS_LEFT,0.942,0,0,STUCK,True,False,True,0,True,STUCK_DETECTED,0.00,0
1764559555.569202,44.695,143,TEST1_DIRECT_FORWARD,False,0.0,0.0,0.0,0.00,0.000,0.0,-1185.0,495.7,168.22,167.55,168.22,135.05,86.63,0.0714,10.0,-5.466,1.3958,0.1575,1.4047,83.56,-3.3469,2.1905,4.0000,-56.80,180,200.0,242.0,-1.9511,2.3480,3.0528,-39.73,0.00,-39.73,0.00,False,FORWARDS_LEFT,0.916,0,0,STUCK,False,False,True,0,True,STUCK_DETECTED,0.00,0
1764559555.607118,44.733,144,TEST1_DIRECT_FORWARD,False,0.0,0.0,0.0,0.00,0.000,0.0,-1192.2,497.3,167.17,166.54,167.17,133.18,86.47,0.0107,10.0,-5.367,1.4207,0.1564,1.4293,83.72,-3.4344,2.0505,4.0000,-59.16,180,200.0,242.0,-2.0138,2.2069,2.9876,-42.38,0.00,-42.38,0.00,False,FORWARDS_LEFT,0.896,0,0,STUCK,False,False,True,0,True,STUCK_DETECTED,0.00,0
1764559555.6673992,44.793,145,TEST1_DIRECT_FORWARD,False,0.0,0.0,0.0,0.00,0.000,0.0,-1203.2,499.9,167.15,170.16,167.15,135.75,86.28,-0.0075,10.0,-5.264,1.4584,0.1546,1.4666,83.95,-3.4336,2.0519,4.0000,-59.14,179,200.0,242.0,-1.9751,2.2066,2.9614,-41.83,0.00,-41.83,0.00,False,FORWARDS_LEFT,0.888,0,0,STUCK,False,False,True,0,True,STUCK_DETECTED,0.00,0
1764559555.7129586,44.839,146,TEST1_DIRECT_FORWARD,True,-316.3,626.0,701.3,333.19,0.970,0.0,-1210.6,501.4,168.18,172.70,168.18,137.29,86.19,-0.0490,10.0,-5.147,1.3969,0.1946,1.4104,82.07,-3.5944,1.7551,4.0000,-63.97,197,200.0,242.0,-2.1974,1.9497,2.9377,-48.42,-26.81,-48.42,-21.61,False,FORWARDS_LEFT,0.881,0,0,STUCK,False,False,True,0,True,STUCK_DETECTED,0.00,0
1764559555.7522786,44.878,147,TEST1_DIRECT_FORWARD,True,-258.8,711.9,757.4,340.02,0.993,0.0,-1217.4,502.7,169.31,173.28,169.31,137.17,86.32,-0.0799,10.0,-5.016,1.6455,0.3590,1.6842,77.69,-3.5944,1.7551,4.0000,-63.97,197,200.0,242.0,-1.9489,2.1141,2.8754,-42.67,-19.98,-42.67,-22.69,False,FORWARDS_LEFT,0.863,0,0,STUCK,False,False,True,0,True,STUCK_DETECTED,0.00,0
1764559555.8161614,44.942,148,TEST1_DIRECT_FORWARD,True,-258.8,711.9,757.4,340.02,0.993,0.0,-1229.2,504.7,170.13,173.30,170.13,135.52,86.87,-0.0511,10.0,-4.875,1.6850,0.3596,1.7229,77.95,-3.7277,1.4506,4.0000,-68.74,216,200.0,236.0,-2.0427,1.8102,2.7294,-48.45,-19.98,-48.45,-28.47,False,FORWARDS_LEFT,0.819,0,0,STUCK,False,False,True,0,True,STUCK_DETECTED,0.00,0
1764559555.8632624,44.989,149,TEST1_DIRECT_FORWARD,True,-258.8,711.9,757.4,340.02,0.993,0.0,-1236.8,506.0,170.65,173.13,170.65,134.83,86.82,0.0586,10.0,-4.727,1.7105,0.3601,1.7480,78.11,-3.6919,1.5395,4.0000,-67.36,222,200.0,236.0,-1.9814,1.8995,2.7448,-46.21,-19.98,-46.21,-26.23,False,FORWARDS_LEFT,0.823,0,0,STUCK,False,False,True,0,True,STUCK_DETECTED,0.00,0
1764559555.9012187,45.027,150,TEST1_DIRECT_FORWARD,True,-258.8,711.9,757.4,340.02,0.993,0.0,-1243.1,507.0,171.03,172.64,171.03,134.20,86.82,0.0746,10.0,-4.573,1.7319,0.3604,1.7690,78.24,-3.6919,1.5395,4.0000,-67.36,222,200.0,236.0,-1.9600,1.8999,2.7297,-45.89,-19.98,-45.89,-25.91,False,FORWARDS_LEFT,0.819,0,0,STUCK,False,False,True,0,True,STUCK_DETECTED,0.00,0
1764559555.9632428,45.089,151,TEST1_DIRECT_FORWARD,True,-258.8,711.9,757.4,340.02,0.993,0.0,-1254.0,508.7,171.19,172.14,171.19,132.91,86.49,0.0522,10.0,-4.416,1.7687,0.3611,1.8052,78.46,-3.7235,1.4614,4.0000,-68.57,236,200.0,75.0,-1.9548,1.8225,2.6726,-47.01,-19.98,-47.01,-27.03,False,FORWARDS_LEFT,0.802,0,0,STUCK,False,False,True,0,True,STUCK_DETECTED,0.00,0
1764559556.002821,45.129,152,TEST1_DIRECT_FORWARD,True,-258.8,711.9,757.4,340.02,0.993,0.0,-1260.8,509.7,171.26,171.21,171.26,130.87,86.54,-0.0405,10.0,-4.258,1.7916,0.3614,1.8277,78.59,-3.7235,1.4614,4.0000,-68.57,236,200.0,75.0,-1.9319,1.8228,2.6561,-46.66,-19.98,-46.66,-26.69,False,FORWARDS_LEFT,0.797,0,0,STUCK,False,False,True,0,True,STUCK_DETECTED,0.00,0
1764559556.044114,45.170,153,TEST1_DIRECT_FORWARD,True,-258.8,711.9,757.4,340.02,0.993,0.0,-1267.3,510.7,171.68,171.67,171.68,130.55,86.73,-0.0618,10.0,-4.096,1.8137,0.3618,1.8495,78.72,-3.8807,0.9696,4.0000,-75.97,240,200.0,75.0,-2.0670,1.3314,2.4587,-57.21,-19.98,-57.21,-37.23,False,FORWARDS_LEFT,0.738,0,0,STUCK,False,False,True,0,True,STUCK_DETECTED,0.00,0
1764559556.1013489,45.227,154,TEST1_DIRECT_FORWARD,False,0.0,0.0,0.0,0.00,0.000,0.0,-1276.7,511.9,172.35,173.32,172.35,131.08,86.72,0.0863,10.0,-3.926,1.8454,0.3625,1.8807,78.89,-3.8924,0.9216,4.0000,-76.68,240,200.0,283.0,-2.0469,1.2841,2.4164,-57.90,0.00,-57.90,0.00,False,FORWARDS_LEFT,0.725,0,0,STUCK,False,False,True,0,True,STUCK_DETECTED,0.00,0
1764559556.1378694,45.264,155,TEST1_DIRECT_FORWARD,False,0.0,0.0,0.0,0.00,0.000,0.0,-1282.5,512.7,172.32,169.83,172.32,127.08,86.55,0.0692,10.0,-3.755,1.8651,0.3628,1.9001,78.99,-3.8924,0.9216,4.0000,-76.68,240,200.0,283.0,-2.0273,1.2844,2.3999,-57.64,0.00,-57.64,0.00,False,FORWARDS_LEFT,0.720,0,0,STUCK,False,False,True,0,True,STUCK_DETECTED,0.00,0
1764559556.1881166,45.314,156,TEST1_DIRECT_FORWARD,True,-136.1,765.6,777.6,349.92,0.992,0.0,-1288.8,513.6,171.59,165.39,171.59,121.79,86.64,-0.0266,10.0,-3.589,2.3250,0.5081,2.3798,77.67,-3.8841,0.9558,4.0000,-76.18,239,200.0,283.0,-1.5592,1.4640,2.1387,-46.80,-10.08,-46.80,-36.72,False,FORWARDS_LEFT,0.642,0,0,STUCK,False,False,True,0,True,STUCK_DETECTED,0.00,0
1764559556.2520542,45.378,157,TEST1_DIRECT_FORWARD,True,-136.1,765.6,777.6,349.92,0.992,0.0,-1296.7,514.9,171.00,167.34,171.00,123.01,86.82,-0.0138,10.0,-3.427,2.3516,0.5079,2.4059,77.81,-3.8841,0.9558,4.0000,-76.18,239,200.0,283.0,-1.5325,1.4638,2.1192,-46.31,-10.08,-46.31,-36.24,False,FORWARDS_LEFT,0.636,0,0,STUCK,False,False,True,0,True,STUCK_DETECTED,0.00,0
