timestamp,elapsed_time,log_number,test_mode,person_detected,person_x_mm,person_y_mm,person_distance_mm,person_angle_deg,person_confidence,time_since_person_update_ms,robot_x_mm,robot_y_mm,robot_orientation_deg,imu_yaw_raw,imu_yaw_smoothed,imu_roll,imu_pitch,imu_angular_vel_z,imu_update_rate,imu_drift_estimate,attr_force_x,attr_force_y,attr_force_magnitude,attr_force_direction_deg,repul_force_x,repul_force_y,repul_force_magnitude,repul_force_direction_deg,num_obstacles_in_range,closest_obstacle_dist_mm,closest_obstacle_angle_deg,total_force_x,total_force_y,total_force_magnitude,total_force_direction_deg,expected_direction_to_person_deg,force_direction_deg,direction_error_deg,direction_mismatch_flag,commanded_direction,commanded_speed,motor_1_speed,motor_2_speed,nav_state,nav_state_changed,goal_reached,stuck_detected,time_in_current_state_s,anomaly_detected,anomaly_type,calculation_time_ms,obstacles_filtered_for_person
1764558274.0562322,44.673,1,TEST1_DIRECT_FORWARD,True,178.6,2083.7,2091.4,4.90,0.982,0.0,0.0,0.0,167.39,167.39,167.39,168.59,87.80,0.0011,10.0,0.000,0.1538,1.7939,1.8005,85.10,0.0000,0.0000,0.0000,0.00,3,750.0,34.0,0.1538,1.7939,1.8005,85.10,4.90,85.10,80.20,False,RIGHT,0.378,0,0,NAVIGATING,True,False,False,0,False,,0.00,0
1764558274.0983922,44.715,2,TEST1_DIRECT_FORWARD,True,178.7,2085.6,2093.2,4.90,0.981,0.0,0.0,0.0,167.39,167.39,167.39,168.59,87.80,-0.0043,10.0,0.000,0.1534,1.7907,1.7973,85.10,0.0000,0.0000,0.0000,0.00,3,750.0,34.0,0.1534,1.7907,1.7973,85.10,4.90,85.10,80.20,False,RIGHT,0.377,0,0,NAVIGATING,False,False,False,0,False,,0.00,0
1764558274.1363099,44.753,3,TEST1_DIRECT_FORWARD,True,178.7,2085.6,2093.2,4.90,0.981,0.0,0.0,0.0,167.39,167.39,167.39,168.59,87.80,-0.0075,10.0,0.000,0.1534,1.7907,1.7973,85.10,0.0000,0.0000,0.0000,0.00,3,750.0,34.0,0.1534,1.7907,1.7973,85.10,4.90,85.10,80.20,False,RIGHT,0.377,0,0,NAVIGATING,False,False,False,0,False,,0.00,0
1764558274.180135,44.797,4,TEST1_DIRECT_FORWARD,True,178.7,2085.6,2093.2,4.90,0.981,0.0,0.0,0.0,167.39,167.39,167.39,168.59,87.80,0.0149,10.0,0.000,0.1534,1.7907,1.7973,85.10,0.0000,0.0000,0.0000,0.00,3,750.0,34.0,0.1534,1.7907,1.7973,85.10,4.90,85.10,80.20,False,RIGHT,0.377,0,0,NAVIGATING,False,False,False,0,False,,0.00,0
1764558274.2176697,44.834,5,TEST1_DIRECT_FORWARD,True,178.7,2085.6,2093.2,4.90,0.981,0.0,0.0,0.0,167.39,167.39,167.39,168.59,87.80,-0.0107,10.0,0.000,0.1534,1.7907,1.7973,85.10,0.0000,0.0000,0.0000,0.00,3,750.0,34.0,0.1534,1.7907,1.7973,85.10,4.90,85.10,80.20,False,RIGHT,0.377,0,0,NAVIGATING,False,False,False,0,False,,0.00,0
1764558274.2600486,44.877,6,TEST1_DIRECT_FORWARD,True,178.7,2085.6,2093.2,4.90,0.981,0.0,0.0,0.0,167.39,167.39,167.39,168.59,87.80,-0.0192,10.0,0.000,0.1534,1.7907,1.7973,85.10,0.0000,0.0000,0.0000,0.00,4,750.0,34.0,0.1534,1.7907,1.7973,85.10,4.90,85.10,80.20,False,RIGHT,0.377,0,0,NAVIGATING,False,False,False,0,False,,0.00,0
1764558274.3013635,44.918,7,TEST1_DIRECT_FORWARD,True,178.7,2085.6,2093.2,4.90,0.981,0.0,0.0,0.0,167.39,167.39,167.39,168.59,87.80,-0.0128,10.0,0.000,0.1534,1.7907,1.7973,85.10,0.0000,0.0000,0.0000,0.00,4,750.0,34.0,0.1534,1.7907,1.7973,85.10,4.90,85.10,80.20,False,RIGHT,0.377,0,0,NAVIGATING,False,False,False,0,False,,0.00,0
1764558274.3389251,44.956,8,TEST1_DIRECT_FORWARD,True,178.7,2085.6,2093.2,4.90,0.981,0.0,0.0,0.0,167.39,167.39,167.39,168.59,87.80,-0.0011,10.0,0.000,0.1534,1.7907,1.7973,85.10,0.0000,0.0000,0.0000,0.00,4,750.0,34.0,0.1534,1.7907,1.7973,85.10,4.90,85.10,80.20,False,RIGHT,0.377,0,0,NAVIGATING,False,False,False,0,False,,0.00,0
1764558274.38549,45.002,9,TEST1_DIRECT_FORWARD,True,178.7,2085.6,2093.2,4.90,0.981,0.0,0.0,0.0,167.39,167.39,167.39,168.59,87.80,0.0000,10.0,0.000,0.1534,1.7907,1.7973,85.10,0.0000,0.0000,0.0000,0.00,4,750.0,34.0,0.1534,1.7907,1.7973,85.10,4.90,85.10,80.20,False,RIGHT,0.377,0,0,NAVIGATING,False,False,False,0,False,,0.00,0
1764558274.4200468,45.037,10,TEST1_DIRECT_FORWARD,False,0.0,0.0,0.0,0.00,0.000,0.0,0.0,0.0,167.36,167.10,167.36,168.35,87.68,0.0107,10.0,0.000,0.1534,1.7907,1.7973,85.10,0.0000,0.0000,0.0000,0.00,4,750.0,34.0,0.1534,1.7907,1.7973,85.10,0.00,85.10,0.00,False,RIGHT,0.377,0,0,SEARCHING,True,False,True,0,True,STUCK_DETECTED,0.00,0
1764558274.4649177,45.082,11,TEST1_DIRECT_FORWARD,True,176.2,2080.1,2087.6,4.84,0.979,0.0,0.0,0.0,167.26,166.37,167.26,167.72,87.82,0.0032,10.0,0.000,0.1525,1.8005,1.8070,85.16,0.0000,0.0000,0.0000,0.00,4,750.0,34.0,0.1525,1.8005,1.8070,85.16,4.84,85.16,80.31,False,RIGHT,0.379,0,0,NAVIGATING,True,False,True,0,True,STUCK_DETECTED,0.00,0
1764558274.5085092,45.125,12,TEST1_DIRECT_FORWARD,True,176.2,2080.1,2087.6,4.84,0.979,0.0,0.0,0.0,167.01,164.94,167.01,166.49,87.91,-0.0107,10.0,-0.049,0.1525,1.8005,1.8070,85.16,0.0000,0.0000,0.0000,0.00,6,750.0,34.0,0.1525,1.8005,1.8070,85.16,4.84,85.16,80.31,False,RIGHT,0.379,0,0,STUCK,True,False,True,0,True,STUCK_DETECTED,0.00,0
1764558274.5530875,45.170,13,TEST1_DIRECT_FORWARD,True,176.1,2076.5,2083.9,4.85,0.977,0.0,0.0,0.0,166.81,165.40,166.81,167.20,87.77,-0.0437,10.0,-0.092,0.1532,1.8069,1.8134,85.15,0.0000,0.0000,0.0000,0.00,6,750.0,34.0,0.1532,1.8069,1.8134,85.15,4.85,85.15,80.31,False,RIGHT,0.381,0,0,STUCK,False,False,True,0,True,STUCK_DETECTED,0.00,0
1764558274.5880444,45.205,14,TEST1_DIRECT_FORWARD,True,176.1,2076.5,2083.9,4.85,0.977,0.0,0.0,0.0,166.86,167.84,166.86,169.93,87.88,-0.0138,10.0,-0.126,0.1532,1.8069,1.8134,85.15,0.0000,0.0000,0.0000,0.00,9,750.0,34.0,0.1532,1.8069,1.8134,85.15,4.85,85.15,80.31,False,RIGHT,0.381,0,0,STUCK,False,False,True,0,True,STUCK_DETECTED,0.00,0
1764558274.6352668,45.252,15,TEST1_DIRECT_FORWARD,True,176.0,2074.6,2082.1,4.85,0.978,0.0,0.0,0.0,166.86,167.41,166.86,169.83,87.77,0.0415,10.0,-0.154,0.1536,1.8101,1.8166,85.15,0.0000,0.0000,0.0000,0.00,10,750.0,34.0,0.1536,1.8101,1.8166,85.15,4.85,85.15,80.30,False,RIGHT,0.381,0,0,STUCK,False,False,True,0,True,STUCK_DETECTED,0.00,0
1764558274.667374,45.284,16,TEST1_DIRECT_FORWARD,True,176.0,2074.6,2082.1,4.85,0.978,0.0,0.0,0.0,166.79,166.69,166.79,169.21,87.69,0.0352,10.0,-0.184,0.1536,1.8101,1.8166,85.15,0.0000,0.0000,0.0000,0.00,10,750.0,34.0,0.1536,1.8101,1.8166,85.15,4.85,85.15,80.30,False,RIGHT,0.381,0,0,STUCK,False,False,True,0,True,STUCK_DETECTED,0.00,0
1764558274.712311,45.329,17,TEST1_DIRECT_FORWARD,True,176.0,2074.6,2082.1,4.85,0.981,0.0,0.0,0.0,166.55,165.00,166.55,167.86,87.78,-0.0043,10.0,-0.225,0.1536,1.8101,1.8166,85.15,0.0000,0.0000,0.0000,0.00,12,750.0,34.0,0.1536,1.8101,1.8166,85.15,4.85,85.15,80.30,False,RIGHT,0.381,0,0,STUCK,False,False,True,0,True,STUCK_DETECTED,0.00,0
1764558274.7512822,45.368,18,TEST1_DIRECT_FORWARD,True,176.0,2074.6,2082.1,4.85,0.981,0.0,0.0,0.0,166.34,165.25,166.34,168.26,87.75,-0.0192,10.0,-0.273,0.1536,1.8101,1.8166,85.15,0.0000,0.0000,0.0000,0.00,12,750.0,34.0,0.1536,1.8101,1.8166,85.15,4.85,85.15,80.30,False,RIGHT,0.381,0,0,STUCK,False,False,True,0,True,STUCK_DETECTED,0.00,0
1764558274.7891738,45.406,19,TEST1_DIRECT_FORWARD,True,176.0,2074.6,2082.1,4.85,0.981,0.0,0.0,0.0,166.23,166.35,166.23,169.71,87.74,0.0021,10.0,-0.322,0.1536,1.8101,1.8166,85.15,0.0000,0.0000,0.0000,0.00,12,750.0,34.0,0.1536,1.8101,1.8166,85.15,4.85,85.15,80.30,False,RIGHT,0.381,0,0,STUCK,False,False,True,0,True,STUCK_DETECTED,0.00,0
1764558274.8326147,45.449,20,TEST1_DIRECT_FORWARD,True,176.0,2074.6,2082.1,4.85,0.981,0.0,0.0,0.0,166.07,165.47,166.07,169.11,87.70,0.0149,10.0,-0.374,0.1536,1.8101,1.8166,85.15,0.0000,0.0000,0.0000,0.00,12,750.0,34.0,0.1536,1.8101,1.8166,85.15,4.85,85.15,80.30,False,RIGHT,0.381,0,0,STUCK,False,False,True,0,True,STUCK_DETECTED,0.00,0
1764558274.8751965,45.492,21,TEST1_DIRECT_FORWARD,True,176.0,2074.6,2082.1,4.85,0.981,0.0,0.0,0.0,165.94,165.08,165.94,168.99,87.66,0.0053,10.0,-0.428,0.1536,1.8101,1.8166,85.15,0.0000,0.0000,0.0000,0.00,14,750.0,34.0,0.1536,1.8101,1.8166,85.15,4.85,85.15,80.30,False,RIGHT,0.381,0,0,STUCK,False,False,True,0,True,STUCK_DETECTED,0.00,0
1764558274.9146845,45.532,22,TEST1_DIRECT_FORWARD,True,176.0,2074.6,2082.1,4.85,0.981,0.0,0.0,0.0,165.99,165.40,165.99,169.66,87.73,-0.0170,10.0,-0.474,0.1536,1.8101,1.8166,85.15,0.0000,0.0000,0.0000,0.00,14,750.0,34.0,0.1536,1.8101,1.8166,85.15,4.85,85.15,80.30,False,RIGHT,0.381,0,0,STUCK,False,False,True,0,True,STUCK_DETECTED,0.00,0
1764558274.9547837,45.572,23,TEST1_DIRECT_FORWARD,True,176.0,2074.6,2082.1,4.85,0.981,0.0,0.0,0.0,165.97,165.23,165.97,169.70,87.69,0.0096,10.0,-0.517,0.1536,1.8101,1.8166,85.15,0.0000,0.0000,0.0000,0.00,15,700.0,34.0,0.1536,1.8101,1.8166,85.15,4.85,85.15,80.30,False,RIGHT,0.381,0,0,STUCK,False,False,True,0,True,STUCK_DETECTED,0.00,0
1764558274.998948,45.616,24,TEST1_DIRECT_FORWARD,True,176.0,2074.6,2082.1,4.85,0.981,0.0,0.0,0.0,165.70,165.11,165.70,169.96,87.68,-0.0032,10.0,-0.568,0.1536,1.8101,1.8166,85.15,0.0000,0.0000,0.0000,0.00,15,700.0,34.0,0.1536,1.8101,1.8166,85.15,4.85,85.15,80.30,False,RIGHT,0.381,0,0,STUCK,False,False,True,0,True,STUCK_DETECTED,0.00,0
1764558275.0384526,45.655,25,TEST1_DIRECT_FORWARD,True,90.0,2072.6,2074.5,2.49,0.963,0.0,0.0,0.0,165.41,164.51,165.41,169.69,87.83,0.0064,10.0,-0.627,0.0794,1.8282,1.8299,87.51,0.0000,0.0000,0.0000,0.00,19,700.0,34.0,0.0794,1.8282,1.8299,87.51,2.49,87.51,85.03,False,RIGHT,0.384,0,0,STUCK,False,False,True,0,True,STUCK_DETECTED,0.00,0
1764558275.0759358,45.693,26,TEST1_DIRECT_FORWARD,True,90.0,2072.6,2074.5,2.49,0.963,0.0,0.0,0.0,165.20,164.65,165.20,170.07,87.74,-0.0064,10.0,-0.689,0.0794,1.8282,1.8299,87.51,0.0000,0.0000,0.0000,0.00,19,700.0,34.0,0.0794,1.8282,1.8299,87.51,2.49,87.51,85.03,False,RIGHT,0.384,0,0,STUCK,False,False,True,0,True,STUCK_DETECTED,0.00,0
1764558275.1187594,45.736,27,TEST1_DIRECT_FORWARD,True,90.0,2072.6,2074.5,2.49,0.963,0.0,0.0,0.0,165.15,164.47,165.15,170.21,87.75,0.0085,10.0,-0.749,0.0794,1.8282,1.8299,87.51,0.0000,0.0000,0.0000,0.00,21,700.0,34.0,0.0794,1.8282,1.8299,87.51,2.49,87.51,85.03,False,RIGHT,0.384,0,0,STUCK,False,False,True,0,True,STUCK_DETECTED,0.00,0
1764558275.1586745,45.775,28,TEST1_DIRECT_FORWARD,True,90.0,2072.6,2074.5,2.49,0.963,0.0,0.0,0.0,165.06,164.38,165.06,170.41,87.59,0.0075,10.0,-0.807,0.0794,1.8282,1.8299,87.51,0.0000,0.0000,0.0000,0.00,21,700.0,34.0,0.0794,1.8282,1.8299,87.51,2.49,87.51,85.03,False,RIGHT,0.384,0,0,STUCK,False,False,True,0,True,STUCK_DETECTED,0.00,0
1764558275.201117,45.818,29,TEST1_DIRECT_FORWARD,True,40.4,2070.8,2071.2,1.12,0.979,0.0,0.0,0.0,164.79,163.56,164.79,169.86,87.72,0.0064,10.0,-0.871,0.0358,1.8354,1.8357,88.88,0.0000,0.0000,0.0000,0.00,24,700.0,34.0,0.0358,1.8354,1.8357,88.88,1.12,88.88,87.77,False,RIGHT,0.385,0,0,STUCK,False,False,True,0,True,STUCK_DETECTED,0.00,0
1764558275.2381608,45.855,30,TEST1_DIRECT_FORWARD,True,-0.3,2071.2,2071.2,359.99,0.979,0.0,0.0,0.0,164.58,163.39,164.58,170.07,87.64,-0.0170,10.0,-0.938,-0.0003,1.8357,1.8357,90.01,0.0000,0.0000,0.0000,0.00,24,700.0,34.0,-0.0003,1.8357,1.8357,90.01,-0.01,90.01,90.02,True,RIGHT,0.385,0,0,STUCK,False,False,True,0,True,FORCE_AWAY_FROM_PERSON|STUCK_DETECTED,0.00,0
1764558275.2820346,45.899,31,TEST1_DIRECT_FORWARD,True,-27.7,2069.9,2070.1,359.23,0.995,0.0,0.0,0.0,164.44,163.65,164.44,170.62,87.70,0.0043,10.0,-1.005,-0.0246,1.8375,1.8377,90.77,0.0000,0.0000,0.0000,0.00,26,700.0,34.0,-0.0246,1.8375,1.8377,90.77,-0.77,90.77,91.53,True,RIGHT,0.386,0,0,STUCK,False,False,True,0,True,FORCE_AWAY_FROM_PERSON|STUCK_DETECTED,0.00,0
1764558275.3204324,45.937,32,TEST1_DIRECT_FORWARD,True,-27.7,2069.9,2070.1,359.23,0.995,0.0,0.0,0.0,164.23,163.37,164.23,170.60,87.74,0.0085,10.0,-1.074,-0.0246,1.8375,1.8377,90.77,0.0000,0.0000,0.0000,0.00,26,700.0,34.0,-0.0246,1.8375,1.8377,90.77,-0.77,90.77,91.53,True,RIGHT,0.386,0,0,STUCK,False,False,True,0,True,FORCE_AWAY_FROM_PERSON|STUCK_DETECTED,0.00,0
1764558275.3630016,45.980,33,TEST1_DIRECT_FORWARD,True,-27.7,2069.9,2070.1,359.23,0.995,0.0,0.0,0.0,163.98,162.68,163.98,170.27,87.71,-0.0138,10.0,-1.147,-0.0246,1.8375,1.8377,90.77,0.0000,0.0000,0.0000,0.00,33,700.0,34.0,-0.0246,1.8375,1.8377,90.77,-0.77,90.77,91.53,True,RIGHT,0.386,0,0,STUCK,False,False,True,0,True,FORCE_AWAY_FROM_PERSON|STUCK_DETECTED,0.00,0
1764558275.4087875,46.026,34,TEST1_DIRECT_FORWARD,True,-27.7,2069.9,2070.1,359.23,0.995,0.0,0.0,0.0,163.71,162.47,163.71,170.35,87.69,-0.0085,10.0,-1.224,-0.0246,1.8375,1.8377,90.77,0.0000,0.0000,0.0000,0.00,33,700.0,34.0,-0.0246,1.8375,1.8377,90.77,-0.77,90.77,91.53,True,RIGHT,0.386,0,0,STUCK,False,False,True,0,True,FORCE_AWAY_FROM_PERSON|STUCK_DETECTED,0.00,0
1764558275.438714,46.056,35,TEST1_DIRECT_FORWARD,True,-68.3,2069.0,2070.1,358.11,0.995,0.0,0.0,0.0,163.51,162.51,163.51,170.60,87.69,-0.0053,10.0,-1.302,-0.0606,1.8367,1.8377,91.89,0.0000,0.0000,0.0000,0.00,38,700.0,34.0,-0.0606,1.8367,1.8377,91.89,-1.89,91.89,93.78,True,RIGHT,0.386,0,0,STUCK,False,False,True,0,True,FORCE_AWAY_FROM_PERSON|STUCK_DETECTED,0.00,0
1764558275.4907877,46.108,36,TEST1_DIRECT_FORWARD,True,-68.3,2069.0,2070.1,358.11,0.995,0.0,0.0,0.0,163.30,162.49,163.30,170.98,87.67,0.0192,10.0,-1.382,-0.0606,1.8367,1.8377,91.89,0.0000,0.0000,0.0000,0.00,38,700.0,34.0,-0.0606,1.8367,1.8377,91.89,-1.89,91.89,93.78,True,RIGHT,0.386,0,0,STUCK,False,False,True,0,True,FORCE_AWAY_FROM_PERSON|STUCK_DETECTED,0.00,0
1764558275.5236,46.140,37,TEST1_DIRECT_FORWARD,True,-68.3,2069.0,2070.1,358.11,0.995,0.0,0.0,0.0,163.06,162.12,163.06,171.05,87.79,0.0064,10.0,-1.463,-0.0606,1.8367,1.8377,91.89,0.0000,0.0000,0.0000,0.00,41,700.0,34.0,-0.0606,1.8367,1.8377,91.89,-1.89,91.89,93.78,True,RIGHT,0.386,0,0,STUCK,False,False,True,0,True,FORCE_AWAY_FROM_PERSON|STUCK_DETECTED,0.00,0
1764558275.5701616,46.187,38,TEST1_DIRECT_FORWARD,True,-68.3,2069.0,2070.1,358.11,0.995,0.0,0.0,0.0,162.80,161.80,162.80,171.20,87.69,-0.0043,10.0,-1.548,-0.0606,1.8367,1.8377,91.89,0.0000,0.0000,0.0000,0.00,41,700.0,34.0,-0.0606,1.8367,1.8377,91.89,-1.89,91.89,93.78,True,RIGHT,0.386,0,0,STUCK,False,False,True,0,True,FORCE_AWAY_FROM_PERSON|STUCK_DETECTED,0.00,0
1764558275.6004536,46.217,39,TEST1_DIRECT_FORWARD,False,0.0,0.0,0.0,0.00,0.000,0.0,0.0,0.0,162.62,161.70,162.62,171.53,87.80,-0.0117,10.0,-1.632,-0.0606,1.8367,1.8377,91.89,0.0000,0.0000,0.0000,0.00,49,650.0,34.0,-0.0606,1.8367,1.8377,91.89,0.00,91.89,0.00,False,RIGHT,0.386,0,0,STUCK,False,False,True,0,True,STUCK_DETECTED,0.00,0
1764558275.64711,46.264,40,TEST1_DIRECT_FORWARD,False,0.0,0.0,0.0,0.00,0.000,0.0,0.0,0.0,162.42,161.41,162.42,171.74,87.76,0.0075,10.0,-1.718,-0.0606,1.8367,1.8377,91.89,0.0000,0.0000,0.0000,0.00,53,650.0,34.0,-0.0606,1.8367,1.8377,91.89,0.00,91.89,0.00,False,RIGHT,0.386,0,0,STUCK,False,False,True,0,True,STUCK_DETECTED,0.00,0
1764558275.6889734,46.306,41,TEST1_DIRECT_FORWARD,False,0.0,0.0,0.0,0.00,0.000,0.0,0.0,0.0,162.08,160.25,162.08,171.41,87.66,-0.0021,10.0,-1.808,-0.0606,1.8367,1.8377,91.89,0.0000,0.0000,0.0000,0.00,53,650.0,34.0,-0.0606,1.8367,1.8377,91.89,0.00,91.89,0.00,False,RIGHT,0.386,0,0,STUCK,False,False,True,0,True,STUCK_DETECTED,0.00,0
1764558275.7267644,46.344,42,TEST1_DIRECT_FORWARD,False,0.0,0.0,0.0,0.00,0.000,0.0,0.0,0.0,161.77,160.31,161.77,171.92,87.73,0.0032,10.0,-1.901,-0.0606,1.8367,1.8377,91.89,0.0000,0.0000,0.0000,0.00,56,650.0,34.0,-0.0606,1.8367,1.8377,91.89,0.00,91.89,0.00,False,RIGHT,0.386,0,0,STUCK,False,False,True,0,True,STUCK_DETECTED,0.00,0
1764558275.7711723,46.388,43,TEST1_DIRECT_FORWARD,False,0.0,0.0,0.0,0.00,0.000,0.0,0.0,0.0,161.48,159.69,161.48,171.78,87.68,0.0000,10.0,-1.996,-0.0606,1.8367,1.8377,91.89,0.0000,0.0000,0.0000,0.00,56,650.0,34.0,-0.0606,1.8367,1.8377,91.89,0.00,91.89,0.00,False,RIGHT,0.386,0,0,STUCK,False,False,True,0,True,STUCK_DETECTED,0.00,0
1764558275.807156,46.424,44,TEST1_DIRECT_FORWARD,False,0.0,0.0,0.0,0.00,0.000,0.0,0.0,0.0,161.17,159.41,161.17,171.93,87.75,0.0117,10.0,-2.094,-0.0606,1.8367,1.8377,91.89,0.0000,0.0000,0.0000,0.00,62,650.0,34.0,-0.0606,1.8367,1.8377,91.89,0.00,91.89,0.00,False,RIGHT,0.386,0,0,STUCK,False,False,True,0,True,STUCK_DETECTED,0.00,0
1764558275.8548272,46.472,45,TEST1_DIRECT_FORWARD,True,-119.7,2072.5,2075.9,356.69,0.984,0.0,0.0,0.0,160.83,159.10,160.83,171.79,87.78,-0.0075,10.0,-2.196,-0.1054,1.8243,1.8274,93.31,0.0000,0.0000,0.0000,0.00,62,650.0,34.0,-0.1054,1.8243,1.8274,93.31,-3.31,93.31,96.61,True,RIGHT,0.384,0,0,STUCK,False,False,True,0,True,FORCE_AWAY_FROM_PERSON|STUCK_DETECTED,0.00,0
1764558275.8930752,46.510,46,TEST1_DIRECT_FORWARD,True,-160.4,2069.7,2075.9,355.57,0.984,0.0,0.0,0.0,160.45,158.68,160.45,171.50,87.69,0.0085,10.0,-2.301,-0.1412,1.8219,1.8274,94.43,0.0000,0.0000,0.0000,0.00,68,650.0,34.0,-0.1412,1.8219,1.8274,94.43,-4.43,94.43,98.86,True,RIGHT,0.384,0,0,STUCK,False,False,True,0,True,FORCE_AWAY_FROM_PERSON|STUCK_DETECTED,0.00,0
1764558275.934887,46.552,47,TEST1_DIRECT_FORWARD,True,-160.4,2069.7,2075.9,355.57,0.984,0.0,0.0,0.0,160.06,158.26,160.06,171.22,87.79,0.0064,10.0,-2.410,-0.1412,1.8219,1.8274,94.43,0.0000,0.0000,0.0000,0.00,68,650.0,34.0,-0.1412,1.8219,1.8274,94.43,-4.43,94.43,98.86,True,RIGHT,0.384,0,0,STUCK,False,False,True,0,True,FORCE_AWAY_FROM_PERSON|STUCK_DETECTED,0.00,0
1764558275.9843328,46.601,48,TEST1_DIRECT_FORWARD,True,-313.8,2051.1,2075.0,351.30,0.984,0.0,0.0,0.0,159.65,157.65,159.65,171.00,87.75,0.0085,10.0,-2.524,-0.2766,1.8080,1.8290,98.70,-0.0828,-0.3897,0.3984,-102.00,77,600.0,34.0,-0.3594,1.4183,1.4631,104.22,-8.70,104.22,112.92,True,RIGHT,0.307,0,0,STUCK,False,False,True,0,True,FORCE_AWAY_FROM_PERSON|STUCK_DETECTED,0.00,0
1764558276.0297573,46.647,49,TEST1_DIRECT_FORWARD,True,-313.8,2051.1,2075.0,351.30,0.984,0.0,0.0,0.0,159.21,157.33,159.21,171.05,87.74,0.0096,10.0,-2.642,-0.2766,1.8080,1.8290,98.70,-0.0828,-0.3897,0.3984,-102.00,77,600.0,34.0,-0.3594,1.4183,1.4631,104.22,-8.70,104.22,112.92,True,RIGHT,0.307,0,0,STUCK,False,False,True,0,True,FORCE_AWAY_FROM_PERSON|STUCK_DETECTED,0.00,0
1764558276.0628533,46.680,50,TEST1_DIRECT_FORWARD,True,-313.8,2051.1,2075.0,351.30,0.984,0.0,0.0,0.0,158.81,157.38,158.81,171.29,87.62,-0.0011,10.0,-2.763,-0.2766,1.8080,1.8290,98.70,-0.0828,-0.3897,0.3984,-102.00,86,600.0,34.0,-0.3594,1.4183,1.4631,104.22,-8.70,104.22,112.92,True,RIGHT,0.307,0,0,STUCK,False,False,True,0,True,FORCE_AWAY_FROM_PERSON|STUCK_DETECTED,0.00,0
1764558276.11801,46.735,51,TEST1_DIRECT_FORWARD,True,-354.0,2044.6,2075.0,350.18,0.984,0.0,0.0,0.0,158.49,157.13,158.49,171.23,87.75,0.0085,10.0,-2.886,-0.3120,1.8022,1.8290,99.82,-0.1729,-0.7797,0.7987,-102.50,91,600.0,37.0,-0.4849,1.0225,1.1316,115.37,-9.82,115.37,125.19,True,BACKWARDS_RIGHT,0.170,0,0,STUCK,False,False,True,0,True,FORCE_AWAY_FROM_PERSON|STUCK_DETECTED,0.00,0
1764558276.15449,46.771,52,TEST1_DIRECT_FORWARD,True,-354.0,2044.6,2075.0,350.18,0.984,0.0,1.2,-0.5,158.13,156.68,158.13,170.94,87.79,0.0160,10.0,-3.011,-0.3128,1.8009,1.8278,99.85,-0.1729,-0.7797,0.7987,-102.50,91,600.0,37.0,-0.4857,1.0211,1.1307,115.44,-9.82,115.44,125.26,True,BACKWARDS_RIGHT,0.170,0,0,STUCK,False,False,True,0,True,FORCE_AWAY_FROM_PERSON|STUCK_DETECTED,0.00,0
1764558276.1988006,46.816,53,TEST1_DIRECT_FORWARD,True,-354.0,2044.6,2075.0,350.18,0.984,0.0,2.7,-1.1,157.75,155.89,157.75,170.84,87.77,0.0096,10.0,-3.138,-0.3137,1.7992,1.8263,99.89,-0.1657,-0.7792,0.7967,-102.00,95,600.0,37.0,-0.4794,1.0200,1.1270,115.17,-9.82,115.17,125.00,True,BACKWARDS_RIGHT,0.169,0,0,STUCK,False,False,True,0,True,FORCE_AWAY_FROM_PERSON|STUCK_DETECTED,0.00,0
1764558276.2603202,46.877,54,TEST1_DIRECT_FORWARD,True,-354.0,2044.6,2075.0,350.18,0.984,0.0,4.4,-1.8,157.41,155.98,157.41,171.50,87.78,-0.0107,10.0,-3.267,-0.3147,1.7973,1.8246,99.93,-0.1657,-0.7792,0.7967,-102.00,95,600.0,37.0,-0.4804,1.0180,1.1257,115.26,-9.82,115.26,125.09,True,BACKWARDS_RIGHT,0.169,0,0,STUCK,False,False,True,0,True,FORCE_AWAY_FROM_PERSON|STUCK_DETECTED,0.00,0
1764558276.2863634,46.903,55,TEST1_DIRECT_FORWARD,False,0.0,0.0,0.0,0.00,0.000,0.0,5.7,-2.3,157.11,156.12,157.11,171.86,87.79,-0.0075,10.0,-3.397,-0.3155,1.7957,1.8233,99.97,0.3850,-1.2338,1.2925,-72.67,98,350.0,93.0,0.0695,0.5620,0.5662,82.95,0.00,82.95,0.00,False,RIGHT,0.119,0,0,STUCK,False,False,True,0,True,STUCK_DETECTED,0.00,0
1764558276.32392,46.941,56,TEST1_DIRECT_FORWARD,False,0.0,0.0,0.0,0.00,0.000,0.0,5.7,-2.3,156.89,156.50,156.89,172.41,87.70,0.0021,10.0,-3.526,-0.3155,1.7957,1.8233,99.97,0.3850,-1.2338,1.2925,-72.67,98,350.0,93.0,0.0695,0.5620,0.5662,82.95,0.00,82.95,0.00,False,RIGHT,0.119,0,0,STUCK,False,False,True,0,True,STUCK_DETECTED,0.00,0
1764558276.3746004,46.991,57,TEST1_DIRECT_FORWARD,False,0.0,0.0,0.0,0.00,0.000,0.0,5.7,-2.3,156.61,155.44,156.61,171.67,87.81,0.0107,10.0,-3.656,-0.3155,1.7957,1.8233,99.97,0.3850,-1.2338,1.2925,-72.67,97,350.0,247.0,0.0695,0.5620,0.5662,82.95,0.00,82.95,0.00,False,RIGHT,0.119,0,0,STUCK,False,False,True,0,True,STUCK_DETECTED,0.00,0
1764558276.413513,47.030,58,TEST1_DIRECT_FORWARD,False,0.0,0.0,0.0,0.00,0.000,0.0,5.7,-2.3,156.33,154.86,156.33,171.26,87.81,-0.0043,10.0,-3.785,-0.3155,1.7957,1.8233,99.97,0.3850,-1.2338,1.2925,-72.67,97,350.0,247.0,0.0695,0.5620,0.5662,82.95,0.00,82.95,0.00,False,RIGHT,0.119,0,0,STUCK,False,False,True,0,True,STUCK_DETECTED,0.00,0
1764558276.456471,47.073,59,TEST1_DIRECT_FORWARD,False,0.0,0.0,0.0,0.00,0.000,0.0,5.7,-2.3,156.16,155.59,156.16,171.79,87.74,-0.0341,10.0,-3.914,-0.3155,1.7957,1.8233,99.97,0.4607,-0.8446,0.9621,-61.39,95,350.0,247.0,0.1451,0.9511,0.9621,81.32,0.00,81.32,0.00,False,RIGHT,0.202,0,0,STUCK,False,False,True,0,True,STUCK_DETECTED,0.00,0
1764558276.5005147,47.117,60,TEST1_DIRECT_FORWARD,False,0.0,0.0,0.0,0.00,0.000,0.0,5.7,-2.3,156.10,156.83,156.10,172.71,87.70,0.0096,10.0,-4.039,-0.3155,1.7957,1.8233,99.97,-0.2702,-1.1700,1.2008,-103.00,92,600.0,247.0,-0.5857,0.6257,0.8571,133.11,0.00,133.11,0.00,False,BACKWARDS_RIGHT,0.129,0,0,STUCK,False,False,True,0,True,STUCK_DETECTED,0.00,0
1764558276.5451324,47.162,61,TEST1_DIRECT_FORWARD,True,-646.3,1978.1,2081.0,341.91,0.986,0.0,6.7,-2.8,155.96,155.71,155.96,171.37,87.74,0.0298,10.0,-4.162,-0.5667,1.7191,1.8101,108.24,-0.2702,-1.1700,1.2008,-103.00,92,600.0,247.0,-0.8369,0.5491,1.0009,146.73,-18.09,146.73,164.82,True,BACKWARDS_RIGHT,0.150,0,0,STUCK,False,False,True,0,True,FORCE_AWAY_FROM_PERSON|STUCK_DETECTED,0.00,0
1764558276.5827367,47.200,62,TEST1_DIRECT_FORWARD,True,-646.3,1978.1,2081.0,341.91,0.986,0.0,7.8,-3.3,155.73,154.42,155.73,169.82,87.74,0.0224,10.0,-4.285,-0.5670,1.7175,1.8087,108.27,-0.2702,-1.1700,1.2008,-103.00,86,600.0,247.0,-0.8371,0.5475,1.0003,146.81,-18.09,146.81,164.91,True,BACKWARDS_RIGHT,0.150,0,0,STUCK,False,False,True,0,True,FORCE_AWAY_FROM_PERSON|STUCK_DETECTED,0.00,0
1764558276.63106,47.248,63,TEST1_DIRECT_FORWARD,True,-680.7,1950.3,2065.7,340.76,0.984,0.0,9.1,-3.9,155.55,154.08,155.55,169.15,87.76,-0.0107,10.0,-4.407,-0.6104,1.7291,1.8337,109.44,-0.2702,-1.1700,1.2008,-103.00,86,600.0,247.0,-0.8805,0.5591,1.0430,147.59,-19.24,147.59,166.83,True,BACKWARDS_RIGHT,0.156,0,0,STUCK,False,False,True,0,True,FORCE_AWAY_FROM_PERSON|STUCK_DETECTED,0.00,0
1764558276.665251,47.282,64,TEST1_DIRECT_FORWARD,True,-680.7,1950.3,2065.7,340.76,0.984,0.0,10.2,-4.4,155.44,154.87,155.44,169.60,87.73,-0.0117,10.0,-4.526,-0.6106,1.7274,1.8322,109.47,-0.2702,-1.1700,1.2008,-103.00,84,600.0,247.0,-0.8808,0.5574,1.0423,147.67,-19.24,147.67,166.91,True,BACKWARDS_RIGHT,0.156,0,0,STUCK,False,False,True,0,True,FORCE_AWAY_FROM_PERSON|STUCK_DETECTED,0.00,0
1764558276.709294,47.326,65,TEST1_DIRECT_FORWARD,True,-696.1,1933.3,2054.8,340.20,0.992,0.0,11.6,-5.0,155.35,155.24,155.35,169.14,87.84,0.0138,10.0,-4.643,-0.6343,1.7373,1.8495,110.06,-0.2702,-1.1700,1.2008,-103.00,84,600.0,247.0,-0.9045,0.5673,1.0676,147.90,-19.80,147.90,167.70,True,BACKWARDS_RIGHT,0.160,0,0,STUCK,False,False,True,0,True,FORCE_AWAY_FROM_PERSON|STUCK_DETECTED,0.00,0
1764558276.7612813,47.378,66,TEST1_DIRECT_FORWARD,True,-733.9,1919.3,2054.8,339.07,0.992,0.0,13.2,-5.7,155.25,155.45,155.25,168.31,87.70,0.0053,10.0,-4.759,-0.6682,1.7218,1.8469,111.21,-0.2702,-1.1700,1.2008,-103.00,83,600.0,250.0,-0.9384,0.5518,1.0886,149.54,-20.93,149.54,170.47,True,BACKWARDS_RIGHT,0.163,0,0,STUCK,False,False,True,0,True,FORCE_AWAY_FROM_PERSON|STUCK_DETECTED,0.00,0
1764558276.799399,47.416,67,TEST1_DIRECT_FORWARD,True,-733.9,1919.3,2054.8,339.07,0.992,0.0,14.3,-6.3,155.23,155.29,155.23,167.33,87.68,0.0032,10.0,-4.871,-0.6683,1.7199,1.8452,111.24,-0.2702,-1.1700,1.2008,-103.00,83,600.0,250.0,-0.9385,0.5499,1.0878,149.63,-20.93,149.63,170.56,True,BACKWARDS_RIGHT,0.163,0,0,STUCK,False,False,True,0,True,FORCE_AWAY_FROM_PERSON|STUCK_DETECTED,0.00,0
1764558276.8423963,47.459,68,TEST1_DIRECT_FORWARD,True,-733.9,1919.3,2054.8,339.07,0.992,0.0,15.7,-6.9,155.18,154.32,155.18,165.53,87.69,0.0011,10.0,-4.980,-0.6685,1.7179,1.8434,111.26,-0.2702,-1.1700,1.2008,-103.00,79,600.0,250.0,-0.9387,0.5479,1.0869,149.73,-20.93,149.73,170.66,True,BACKWARDS_RIGHT,0.163,0,0,STUCK,False,False,True,0,True,FORCE_AWAY_FROM_PERSON|STUCK_DETECTED,0.00,0
1764558276.8881872,47.505,69,TEST1_DIRECT_FORWARD,True,-733.9,1919.3,2054.8,339.07,0.992,0.0,17.0,-7.5,155.10,154.77,155.10,165.39,87.62,-0.0288,10.0,-5.088,-0.6687,1.7158,1.8415,111.29,-0.2702,-1.1700,1.2008,-103.00,79,600.0,250.0,-0.9389,0.5458,1.0860,149.83,-20.93,149.83,170.76,True,BACKWARDS_RIGHT,0.163,0,0,STUCK,False,False,True,0,True,FORCE_AWAY_FROM_PERSON|STUCK_DETECTED,0.00,0
1764558276.9262106,47.543,70,TEST1_DIRECT_FORWARD,True,-733.9,1919.3,2054.8,339.07,0.992,0.0,18.3,-8.1,155.03,156.12,155.03,166.48,87.66,0.0000,10.0,-5.193,-0.6688,1.7137,1.8396,111.32,-0.2702,-1.1700,1.2008,-103.00,72,600.0,250.0,-0.9390,0.5437,1.0850,149.93,-20.93,149.93,170.86,True,BACKWARDS_RIGHT,0.163,0,0,STUCK,False,False,True,0,True,FORCE_AWAY_FROM_PERSON|STUCK_DETECTED,0.00,0
1764558276.967544,47.584,71,TEST1_DIRECT_FORWARD,True,-771.5,1904.5,2054.8,337.95,0.992,0.0,19.5,-8.7,155.04,155.84,155.04,166.15,87.65,0.0181,10.0,-5.295,-0.7020,1.6980,1.8374,112.46,-0.2702,-1.1700,1.2008,-103.00,72,600.0,250.0,-0.9722,0.5280,1.1063,151.49,-22.05,151.49,173.54,True,BACKWARDS_RIGHT,0.166,0,0,STUCK,False,False,True,0,True,FORCE_AWAY_FROM_PERSON|STUCK_DETECTED,0.00,0
1764558277.0072417,47.624,72,TEST1_DIRECT_FORWARD,False,0.0,0.0,0.0,0.00,0.000,0.0,20.9,-9.4,155.05,154.49,155.05,164.80,87.68,0.0085,10.0,-5.395,-0.7021,1.6958,1.8353,112.49,-0.2702,-1.1700,1.2008,-103.00,67,600.0,250.0,-0.9723,0.5258,1.1053,151.60,0.00,151.60,0.00,False,BACKWARDS_RIGHT,0.166,0,0,STUCK,False,False,True,0,True,STUCK_DETECTED,0.00,0
1764558277.0468838,47.664,73,TEST1_DIRECT_FORWARD,False,0.0,0.0,0.0,0.00,0.000,0.0,22.2,-9.9,155.10,154.65,155.10,164.91,87.68,-0.0149,10.0,-5.490,-0.7022,1.6938,1.8336,112.52,-0.2702,-1.1700,1.2008,-103.00,61,600.0,250.0,-0.9723,0.5238,1.1044,151.69,0.00,151.69,0.00,False,BACKWARDS_RIGHT,0.166,0,0,STUCK,False,False,True,0,True,STUCK_DETECTED,0.00,0
1764558277.0847704,47.702,74,TEST1_DIRECT_FORWARD,False,0.0,0.0,0.0,0.00,0.000,0.0,23.4,-10.5,155.17,155.53,155.17,165.77,87.59,0.0000,10.0,-5.582,-0.7022,1.6919,1.8318,112.54,-0.2702,-1.1700,1.2008,-103.00,61,600.0,250.0,-0.9724,0.5219,1.1036,151.78,0.00,151.78,0.00,False,BACKWARDS_RIGHT,0.166,0,0,STUCK,False,False,True,0,True,STUCK_DETECTED,0.00,0
1764558277.1300492,47.747,75,TEST1_DIRECT_FORWARD,True,-689.2,1920.8,2040.7,340.26,0.954,0.0,24.7,-11.1,155.20,155.50,155.20,165.60,87.54,0.0149,10.0,-5.672,-0.6435,1.7413,1.8564,110.28,-0.2702,-1.1700,1.2008,-103.00,53,600.0,250.0,-0.9136,0.5713,1.0775,147.98,-19.74,147.98,167.72,True,BACKWARDS_RIGHT,0.162,0,0,STUCK,False,False,True,0,True,FORCE_AWAY_FROM_PERSON|STUCK_DETECTED,0.00,0
1764558277.1653116,47.782,76,TEST1_DIRECT_FORWARD,True,-726.8,1906.9,2040.7,339.14,0.954,0.0,25.9,-11.6,155.15,155.01,155.15,164.85,87.60,0.0096,10.0,-5.759,-0.6771,1.7260,1.8541,111.42,-0.2702,-1.1700,1.2008,-103.00,53,600.0,250.0,-0.9473,0.5560,1.0984,149.59,-20.86,149.59,170.45,True,BACKWARDS_RIGHT,0.165,0,0,STUCK,False,False,True,0,True,FORCE_AWAY_FROM_PERSON|STUCK_DETECTED,0.00,0
1764558277.2033677,47.820,77,TEST1_DIRECT_FORWARD,True,-712.2,1923.9,2051.4,339.69,0.834,0.0,27.2,-12.2,155.12,154.96,155.12,164.53,87.67,0.0021,10.0,-5.845,-0.6541,1.7129,1.8335,110.90,-0.2702,-1.1700,1.2008,-103.00,47,600.0,250.0,-0.9242,0.5429,1.0719,149.57,-20.31,149.57,169.88,True,BACKWARDS_RIGHT,0.161,0,0,STUCK,False,False,True,0,True,FORCE_AWAY_FROM_PERSON|STUCK_DETECTED,0.00,0
1764558277.2484653,47.865,78,TEST1_DIRECT_FORWARD,True,-712.2,1923.9,2051.4,339.69,0.834,0.0,28.4,-12.8,155.21,155.24,155.21,164.67,87.60,0.0000,10.0,-5.927,-0.6542,1.7110,1.8318,110.93,-0.2702,-1.1700,1.2008,-103.00,47,600.0,250.0,-0.9244,0.5410,1.0711,149.66,-20.31,149.66,169.97,True,BACKWARDS_RIGHT,0.161,0,0,STUCK,False,False,True,0,True,FORCE_AWAY_FROM_PERSON|STUCK_DETECTED,0.00,0
1764558277.285721,47.903,79,TEST1_DIRECT_FORWARD,True,-712.2,1923.9,2051.4,339.69,0.834,0.0,29.6,-13.4,155.28,155.41,155.28,164.58,87.57,-0.0107,10.0,-6.006,-0.6544,1.7091,1.8301,110.95,-0.2702,-1.1700,1.2008,-103.00,43,600.0,250.0,-0.9246,0.5391,1.0703,149.75,-20.31,149.75,170.07,True,BACKWARDS_RIGHT,0.161,0,0,STUCK,False,False,True,0,True,FORCE_AWAY_FROM_PERSON|STUCK_DETECTED,0.00,0
1764558277.3227406,47.940,80,TEST1_DIRECT_FORWARD,True,-712.2,1923.9,2051.4,339.69,0.834,0.0,30.8,-13.9,155.24,155.72,155.24,164.51,87.72,-0.0011,10.0,-6.084,-0.6546,1.7072,1.8284,110.98,-0.2702,-1.1700,1.2008,-103.00,43,600.0,250.0,-0.9247,0.5372,1.0695,149.85,-20.31,149.85,170.16,True,BACKWARDS_RIGHT,0.160,0,0,STUCK,False,False,True,0,True,FORCE_AWAY_FROM_PERSON|STUCK_DETECTED,0.00,0
1764558277.3670185,47.984,81,TEST1_DIRECT_FORWARD,True,-712.2,1923.9,2051.4,339.69,0.834,0.0,32.0,-14.5,155.23,155.75,155.23,164.33,87.70,-0.0011,10.0,-6.160,-0.6547,1.7053,1.8267,111.00,-0.2702,-1.1700,1.2008,-103.00,39,600.0,250.0,-0.9249,0.5353,1.0687,149.94,-20.31,149.94,170.25,True,BACKWARDS_RIGHT,0.160,0,0,STUCK,False,False,True,0,True,FORCE_AWAY_FROM_PERSON|STUCK_DETECTED,0.00,0
1764558277.4083157,48.025,82,TEST1_DIRECT_FORWARD,True,-749.8,1909.5,2051.4,338.56,0.834,0.0,33.3,-15.1,155.30,155.27,155.30,163.26,87.57,-0.0043,10.0,-6.233,-0.6875,1.6895,1.8241,112.14,-0.2702,-1.1700,1.2008,-103.00,39,600.0,250.0,-0.9577,0.5195,1.0895,151.52,-21.44,151.52,172.96,True,BACKWARDS_RIGHT,0.163,0,0,STUCK,False,False,True,0,True,FORCE_AWAY_FROM_PERSON|STUCK_DETECTED,0.00,0
1764558277.4459968,48.063,83,TEST1_DIRECT_FORWARD,True,-749.8,1909.5,2051.4,338.56,0.834,0.0,34.6,-15.7,155.39,155.52,155.39,163.11,87.65,-0.0053,10.0,-6.304,-0.6876,1.6876,1.8223,112.17,-0.2702,-1.1700,1.2008,-103.00,36,600.0,250.0,-0.9578,0.5176,1.0887,151.61,-21.44,151.61,173.05,True,BACKWARDS_RIGHT,0.163,0,0,STUCK,False,False,True,0,True,FORCE_AWAY_FROM_PERSON|STUCK_DETECTED,0.00,0
1764558277.4886765,48.106,84,TEST1_DIRECT_FORWARD,True,-749.8,1909.5,2051.4,338.56,0.834,0.0,35.8,-16.2,155.41,155.67,155.41,163.01,87.62,-0.0021,10.0,-6.372,-0.6877,1.6857,1.8206,112.19,-0.2702,-1.1700,1.2008,-103.00,36,600.0,250.0,-0.9579,0.5157,1.0879,151.70,-21.44,151.70,173.14,True,BACKWARDS_RIGHT,0.163,0,0,STUCK,False,False,True,0,True,FORCE_AWAY_FROM_PERSON|STUCK_DETECTED,0.00,0
1764558277.527146,48.144,85,TEST1_DIRECT_FORWARD,False,0.0,0.0,0.0,0.00,0.000,0.0,37.1,-16.8,155.43,155.78,155.43,162.84,87.53,-0.0138,10.0,-6.438,-0.6878,1.6837,1.8188,112.22,-0.2702,-1.1700,1.2008,-103.00,35,600.0,250.0,-0.9580,0.5137,1.0870,151.80,0.00,151.80,0.00,False,BACKWARDS_RIGHT,0.163,0,0,STUCK,False,False,True,0,True,STUCK_DETECTED,0.00,0
1764558277.5691512,48.186,86,TEST1_DIRECT_FORWARD,False,0.0,0.0,0.0,0.00,0.000,0.0,38.4,-17.4,155.56,156.30,155.56,162.85,87.65,-0.0011,10.0,-6.502,-0.6879,1.6817,1.8170,112.25,-0.2702,-1.1700,1.2008,-103.00,35,600.0,250.0,-0.9581,0.5117,1.0862,151.89,0.00,151.89,0.00,False,BACKWARDS_RIGHT,0.163,0,0,STUCK,False,False,True,0,True,STUCK_DETECTED,0.00,0
1764558277.6109943,48.228,87,TEST1_DIRECT_FORWARD,False,0.0,0.0,0.0,0.00,0.000,0.0,39.7,-18.0,155.67,156.00,155.67,162.30,87.55,0.0075,10.0,-6.563,-0.6880,1.6797,1.8151,112.27,-0.2702,-1.1700,1.2008,-103.00,34,600.0,250.0,-0.9582,0.5097,1.0853,151.99,0.00,151.99,0.00,False,BACKWARDS_RIGHT,0.163,0,0,STUCK,False,False,True,0,True,STUCK_DETECTED,0.00,0
1764558277.657075,48.274,88,TEST1_DIRECT_FORWARD,False,0.0,0.0,0.0,0.00,0.000,0.0,41.0,-18.6,155.72,155.73,155.72,162.04,87.55,0.0064,10.0,-6.621,-0.6881,1.6776,1.8133,112.30,-0.2702,-1.1700,1.2008,-103.00,34,600.0,250.0,-0.9583,0.5076,1.0844,152.09,0.00,152.09,0.00,False,BACKWARDS_RIGHT,0.163,0,0,STUCK,False,False,True,0,True,STUCK_DETECTED,0.00,0
1764558277.691599,48.308,89,TEST1_DIRECT_FORWARD,False,0.0,0.0,0.0,0.00,0.000,0.0,42.2,-19.1,155.76,155.88,155.76,162.15,87.61,0.0075,10.0,-6.678,-0.6882,1.6759,1.8117,112.33,-0.2702,-1.1700,1.2008,-103.00,33,600.0,250.0,-0.9584,0.5059,1.0837,152.17,0.00,152.17,0.00,False,BACKWARDS_RIGHT,0.163,0,0,STUCK,False,False,True,0,True,STUCK_DETECTED,0.00,0
1764558277.7397552,48.357,90,TEST1_DIRECT_FORWARD,False,0.0,0.0,0.0,0.00,0.000,0.0,43.6,-19.7,155.77,155.80,155.77,162.01,87.54,-0.0053,10.0,-6.734,-0.6883,1.6738,1.8098,112.35,-0.2702,-1.1700,1.2008,-103.00,33,600.0,250.0,-0.9585,0.5038,1.0828,152.27,0.00,152.27,0.00,False,BACKWARDS_RIGHT,0.162,0,0,STUCK,False,False,True,0,True,STUCK_DETECTED,0.00,0
1764558277.7730308,48.390,91,TEST1_DIRECT_FORWARD,False,0.0,0.0,0.0,0.00,0.000,0.0,44.8,-20.3,155.85,156.53,155.85,162.35,87.65,-0.0160,10.0,-6.787,-0.6884,1.6720,1.8081,112.38,-0.2702,-1.1700,1.2008,-103.00,34,600.0,250.0,-0.9586,0.5020,1.0820,152.36,0.00,152.36,0.00,False,BACKWARDS_RIGHT,0.162,0,0,STUCK,False,False,True,0,True,STUCK_DETECTED,0.00,0
1764558277.8172884,48.434,92,TEST1_DIRECT_FORWARD,False,0.0,0.0,0.0,0.00,0.000,0.0,46.1,-20.9,156.00,156.84,156.00,162.01,87.49,0.0107,10.0,-6.838,-0.6885,1.6699,1.8063,112.41,-0.2702,-1.1700,1.2008,-103.00,34,600.0,250.0,-0.9587,0.4999,1.0812,152.46,0.00,152.46,0.00,False,BACKWARDS_RIGHT,0.162,0,0,STUCK,False,False,True,0,True,STUCK_DETECTED,0.00,0
1764558277.8562238,48.473,93,TEST1_DIRECT_FORWARD,False,0.0,0.0,0.0,0.00,0.000,0.0,47.3,-21.4,156.07,156.17,156.07,160.82,87.54,0.0202,10.0,-6.886,-0.6886,1.6681,1.8047,112.43,-0.2702,-1.1700,1.2008,-103.00,34,600.0,250.0,-0.9588,0.4981,1.0805,152.55,0.00,152.55,0.00,False,BACKWARDS_RIGHT,0.162,0,0,STUCK,False,False,True,0,True,STUCK_DETECTED,0.00,0
1764558277.897558,48.514,94,TEST1_DIRECT_FORWARD,False,0.0,0.0,0.0,0.00,0.000,0.0,48.6,-22.0,156.06,155.60,156.06,159.49,87.44,-0.0181,10.0,-6.934,-0.6887,1.6661,1.8029,112.46,-0.2702,-1.1700,1.2008,-103.00,34,600.0,250.0,-0.9589,0.4961,1.0796,152.64,0.00,152.64,0.00,False,BACKWARDS_RIGHT,0.162,0,0,STUCK,False,False,True,0,True,STUCK_DETECTED,0.00,0
1764558277.9357364,48.553,95,TEST1_DIRECT_FORWARD,True,-652.8,1933.2,2040.5,341.34,0.948,0.0,49.8,-22.5,156.09,156.06,156.09,159.64,87.56,-0.0181,10.0,-6.980,-0.6165,1.7162,1.8236,109.76,-0.2702,-1.1700,1.2008,-103.00,34,600.0,250.0,-0.8867,0.5462,1.0414,148.37,-18.66,148.37,167.03,True,BACKWARDS_RIGHT,0.156,0,0,STUCK,False,False,True,0,True,FORCE_AWAY_FROM_PERSON|STUCK_DETECTED,0.00,0
1764558277.9831975,48.600,96,TEST1_DIRECT_FORWARD,True,-652.8,1933.2,2040.5,341.34,0.948,0.0,51.1,-23.1,156.14,156.75,156.14,159.56,87.51,0.0075,10.0,-7.025,-0.6168,1.7142,1.8218,109.79,-0.2702,-1.1700,1.2008,-103.00,34,600.0,250.0,-0.8870,0.5442,1.0406,148.47,-18.66,148.47,167.13,True,BACKWARDS_RIGHT,0.156,0,0,STUCK,False,False,True,0,True,FORCE_AWAY_FROM_PERSON|STUCK_DETECTED,0.00,0
1764558278.0198932,48.637,97,TEST1_DIRECT_FORWARD,True,-690.6,1920.0,2040.5,340.22,0.948,0.0,52.3,-23.6,156.16,156.27,156.16,158.84,87.49,0.0096,10.0,-7.069,-0.6494,1.6990,1.8189,110.92,-0.2702,-1.1700,1.2008,-103.00,34,600.0,250.0,-0.9196,0.5290,1.0609,150.09,-19.78,150.09,169.87,True,BACKWARDS_RIGHT,0.159,0,0,STUCK,False,False,True,0,True,FORCE_AWAY_FROM_PERSON|STUCK_DETECTED,0.00,0
1764558278.0555892,48.672,98,TEST1_DIRECT_FORWARD,True,-690.6,1920.0,2040.5,340.22,0.948,0.0,53.4,-24.1,156.19,155.97,156.19,158.48,87.46,-0.0043,10.0,-7.112,-0.6496,1.6973,1.8174,110.94,-0.2702,-1.1700,1.2008,-103.00,34,600.0,250.0,-0.9197,0.5273,1.0602,150.17,-19.78,150.17,169.96,True,BACKWARDS_RIGHT,0.159,0,0,STUCK,False,False,True,0,True,FORCE_AWAY_FROM_PERSON|STUCK_DETECTED,0.00,0
1764558278.0978434,48.715,99,TEST1_DIRECT_FORWARD,True,-690.6,1920.0,2040.5,340.22,0.948,0.0,54.6,-24.6,156.23,156.29,156.23,158.80,87.46,-0.0202,10.0,-7.153,-0.6498,1.6955,1.8157,110.97,-0.2702,-1.1700,1.2008,-103.00,34,600.0,250.0,-0.9199,0.5255,1.0594,150.27,-19.78,150.27,170.05,True,BACKWARDS_RIGHT,0.159,0,0,STUCK,False,False,True,0,True,FORCE_AWAY_FROM_PERSON|STUCK_DETECTED,0.00,0
1764558278.1392026,48.756,100,TEST1_DIRECT_FORWARD,True,-690.6,1920.0,2040.5,340.22,0.948,0.0,55.9,-25.2,156.30,156.50,156.30,159.01,87.58,-0.0117,10.0,-7.193,-0.6499,1.6936,1.8140,111.00,-0.2702,-1.1700,1.2008,-103.00,33,600.0,250.0,-0.9201,0.5236,1.0587,150.36,-19.78,150.36,170.14,True,BACKWARDS_RIGHT,0.159,0,0,STUCK,False,False,True,0,True,FORCE_AWAY_FROM_PERSON|STUCK_DETECTED,0.00,0
1764558278.1789417,48.796,101,TEST1_DIRECT_FORWARD,True,-690.6,1920.0,2040.5,340.22,0.948,0.0,57.2,-25.7,156.34,156.96,156.34,159.28,87.60,-0.0149,10.0,-7.231,-0.6501,1.6917,1.8123,111.02,-0.2702,-1.1700,1.2008,-103.00,33,600.0,250.0,-0.9203,0.5217,1.0579,150.45,-19.78,150.45,170.23,True,BACKWARDS_RIGHT,0.159,0,0,STUCK,False,False,True,0,True,FORCE_AWAY_FROM_PERSON|STUCK_DETECTED,0.00,0
1764558278.2226353,48.839,102,TEST1_DIRECT_FORWARD,True,-690.6,1920.0,2040.5,340.22,0.948,0.0,58.4,-26.3,156.32,156.65,156.32,158.60,87.55,0.0085,10.0,-7.342,-0.6503,1.6898,1.8106,111.05,-0.2702,-1.1700,1.2008,-103.00,33,600.0,250.0,-0.9205,0.5198,1.0571,150.55,-19.78,150.55,170.33,True,BACKWARDS_RIGHT,0.159,0,0,STUCK,False,False,True,0,True,FORCE_AWAY_FROM_PERSON|STUCK_DETECTED,0.00,0
1764558278.2623534,48.879,103,TEST1_DIRECT_FORWARD,False,0.0,0.0,0.0,0.00,0.000,0.0,59.7,-26.9,156.33,156.22,156.33,157.87,87.55,0.0043,10.0,-7.453,-0.6505,1.6879,1.8089,111.08,-0.2702,-1.1700,1.2008,-103.00,33,600.0,250.0,-0.9207,0.5179,1.0564,150.64,0.00,150.64,0.00,False,BACKWARDS_RIGHT,0.158,0,0,STUCK,False,False,True,0,True,STUCK_DETECTED,0.00,0
1764558278.2999413,48.917,104,TEST1_DIRECT_FORWARD,False,0.0,0.0,0.0,0.00,0.000,0.0,60.9,-27.4,156.39,156.21,156.39,157.61,87.47,-0.0085,10.0,-7.563,-0.6507,1.6862,1.8074,111.10,-0.2702,-1.1700,1.2008,-103.00,34,600.0,250.0,-0.9209,0.5162,1.0557,150.73,0.00,150.73,0.00,False,BACKWARDS_RIGHT,0.158,0,0,STUCK,False,False,True,0,True,STUCK_DETECTED,0.00,0
1764558278.344375,48.961,105,TEST1_DIRECT_FORWARD,False,0.0,0.0,0.0,0.00,0.000,0.0,62.2,-28.0,156.45,156.69,156.45,157.93,87.43,-0.0075,10.0,-7.672,-0.6509,1.6842,1.8056,111.13,-0.2702,-1.1700,1.2008,-103.00,34,600.0,250.0,-0.9211,0.5142,1.0549,150.83,0.00,150.83,0.00,False,BACKWARDS_RIGHT,0.158,0,0,STUCK,False,False,True,0,True,STUCK_DETECTED,0.00,0
1764558278.3795125,48.996,106,TEST1_DIRECT_FORWARD,False,0.0,0.0,0.0,0.00,0.000,0.0,63.3,-28.4,156.46,156.82,156.46,157.99,87.53,0.0043,10.0,-7.781,-0.6511,1.6826,1.8041,111.15,-0.2702,-1.1700,1.2008,-103.00,35,600.0,250.0,-0.9212,0.5126,1.0542,150.91,0.00,150.91,0.00,False,BACKWARDS_RIGHT,0.158,0,0,STUCK,False,False,True,0,True,STUCK_DETECTED,0.00,0
1764558278.4229574,49.040,107,TEST1_DIRECT_FORWARD,True,-600.2,1952.4,2042.6,342.91,0.959,0.0,64.6,-29.0,156.54,157.11,156.54,157.82,87.44,-0.0053,10.0,-7.890,-0.5735,1.7092,1.8029,108.55,-0.2702,-1.1700,1.2008,-103.00,35,600.0,250.0,-0.8437,0.5392,1.0013,147.42,-17.09,147.42,164.50,True,BACKWARDS_RIGHT,0.150,0,0,STUCK,False,False,True,0,True,FORCE_AWAY_FROM_PERSON|STUCK_DETECTED,0.00,0
1764558278.468808,49.086,108,TEST1_DIRECT_FORWARD,True,-641.4,1944.6,2047.6,341.75,0.956,0.0,65.9,-29.6,156.65,157.01,156.65,156.84,87.50,0.0128,10.0,-7.997,-0.6040,1.6859,1.7908,109.71,-0.2702,-1.1700,1.2008,-103.00,35,600.0,250.0,-0.8742,0.5159,1.0151,149.46,-18.25,149.46,167.71,True,BACKWARDS_RIGHT,0.152,0,0,STUCK,False,False,True,0,True,FORCE_AWAY_FROM_PERSON|STUCK_DETECTED,0.00,0
1764558278.5062325,49.123,109,TEST1_DIRECT_FORWARD,True,-641.4,1944.6,2047.6,341.75,0.956,0.0,67.0,-30.0,156.66,156.43,156.66,155.62,87.44,0.0053,10.0,-8.104,-0.6043,1.6843,1.7894,109.74,-0.2702,-1.1700,1.2008,-103.00,35,600.0,250.0,-0.8744,0.5143,1.0145,149.54,-18.25,149.54,167.79,True,BACKWARDS_RIGHT,0.152,0,0,STUCK,False,False,True,0,True,FORCE_AWAY_FROM_PERSON|STUCK_DETECTED,0.00,0
1764558278.5500348,49.167,110,TEST1_DIRECT_FORWARD,True,-627.3,1950.4,2048.8,342.17,0.966,0.0,68.3,-30.6,156.68,156.70,156.68,155.11,87.51,-0.0032,10.0,-8.211,-0.5918,1.6856,1.7865,109.35,-0.2702,-1.1700,1.2008,-103.00,34,600.0,250.0,-0.8620,0.5156,1.0045,149.11,-17.83,149.11,166.94,True,BACKWARDS_RIGHT,0.151,0,0,STUCK,False,False,True,0,True,FORCE_AWAY_FROM_PERSON|STUCK_DETECTED,0.00,0
1764558278.5915859,49.208,111,TEST1_DIRECT_FORWARD,True,-627.3,1950.4,2048.8,342.17,0.966,0.0,69.4,-31.1,156.68,156.94,156.68,155.00,87.41,0.0032,10.0,-8.317,-0.5921,1.6840,1.7851,109.37,-0.2702,-1.1700,1.2008,-103.00,34,600.0,250.0,-0.8623,0.5140,1.0039,149.20,-17.83,149.20,167.03,True,BACKWARDS_RIGHT,0.151,0,0,STUCK,False,False,True,0,True,FORCE_AWAY_FROM_PERSON|STUCK_DETECTED,0.00,0
1764558278.631001,49.248,112,TEST1_DIRECT_FORWARD,True,-599.6,1958.2,2047.9,342.97,0.981,0.0,70.7,-31.6,156.72,157.11,156.72,155.06,87.58,0.0053,10.0,-8.420,-0.5703,1.6929,1.7863,108.62,-0.2702,-1.1700,1.2008,-103.00,33,600.0,250.0,-0.8404,0.5229,0.9898,148.11,-17.03,148.11,165.14,True,BACKWARDS_RIGHT,0.148,0,0,STUCK,False,False,True,0,True,FORCE_AWAY_FROM_PERSON|STUCK_DETECTED,0.00,0
1764558278.671699,49.289,113,TEST1_DIRECT_FORWARD,True,-638.0,1946.0,2047.9,341.85,0.981,0.0,71.7,-32.1,156.82,157.17,156.82,155.05,87.50,-0.0149,10.0,-8.520,-0.6021,1.6783,1.7831,109.74,-0.2702,-1.1700,1.2008,-103.00,33,600.0,250.0,-0.8723,0.5083,1.0096,149.77,-18.15,149.77,167.92,True,BACKWARDS_RIGHT,0.151,0,0,STUCK,False,False,True,0,True,FORCE_AWAY_FROM_PERSON|STUCK_DETECTED,0.00,0
1764558278.7143173,49.331,114,TEST1_DIRECT_FORWARD,True,-638.0,1946.0,2047.9,341.85,0.981,0.0,73.0,-32.6,156.92,157.17,156.92,155.04,87.49,0.0138,10.0,-8.619,-0.6024,1.6765,1.7814,109.77,-0.1801,-0.7800,0.8005,-103.00,34,600.0,250.0,-0.7826,0.8965,1.1900,131.12,-18.15,131.12,149.27,True,BACKWARDS_RIGHT,0.179,0,0,STUCK,False,False,True,0,True,FORCE_AWAY_FROM_PERSON|STUCK_DETECTED,0.00,0
1764558278.753733,49.371,115,TEST1_DIRECT_FORWARD,True,-638.0,1946.0,2047.9,341.85,0.981,0.0,74.4,-33.2,156.96,157.08,156.96,154.94,87.50,0.0053,10.0,-8.718,-0.6027,1.6745,1.7797,109.80,-0.2702,-1.1700,1.2008,-103.00,34,600.0,250.0,-0.8729,0.5045,1.0082,149.97,-18.15,149.97,168.12,True,BACKWARDS_RIGHT,0.151,0,0,STUCK,False,False,True,0,True,FORCE_AWAY_FROM_PERSON|STUCK_DETECTED,0.00,0
1764558278.7948189,49.412,116,TEST1_DIRECT_FORWARD,True,-638.0,1946.0,2047.9,341.85,0.981,0.0,75.6,-33.7,157.01,157.39,157.01,155.25,87.51,0.0011,10.0,-8.816,-0.6030,1.6728,1.7782,109.82,-0.2702,-1.1700,1.2008,-103.00,34,600.0,250.0,-0.8732,0.5028,1.0076,150.06,-18.15,150.06,168.21,True,BACKWARDS_RIGHT,0.151,0,0,STUCK,False,False,True,0,True,FORCE_AWAY_FROM_PERSON|STUCK_DETECTED,0.00,0
1764558278.837863,49.455,117,TEST1_DIRECT_FORWARD,True,-638.0,1946.0,2047.9,341.85,0.981,0.0,76.8,-34.2,157.06,157.64,157.06,155.30,87.48,0.0000,10.0,-8.911,-0.6032,1.6712,1.7767,109.85,0.7246,-0.7271,1.0265,-45.10,35,300.0,250.0,0.1214,0.9441,0.9518,82.68,-18.15,82.68,100.83,True,RIGHT,0.200,0,0,STUCK,False,False,True,0,True,FORCE_AWAY_FROM_PERSON|STUCK_DETECTED,0.00,0
1764558278.8731666,49.490,118,TEST1_DIRECT_FORWARD,True,-676.0,1933.1,2047.9,340.72,0.981,0.0,76.8,-34.2,157.10,157.35,157.10,154.69,87.41,0.0085,10.0,-9.003,-0.6343,1.6575,1.7747,110.94,0.7246,-0.7271,1.0265,-45.10,35,300.0,250.0,0.0903,0.9304,0.9348,84.46,-19.28,84.46,103.73,True,RIGHT,0.196,0,0,STUCK,False,False,True,0,True,FORCE_AWAY_FROM_PERSON|STUCK_DETECTED,0.00,0
1764558278.9146008,49.531,119,TEST1_DIRECT_FORWARD,True,-676.0,1933.1,2047.9,340.72,0.981,0.0,76.8,-34.2,157.16,157.05,157.16,154.24,87.48,-0.0032,10.0,-9.094,-0.6343,1.6575,1.7747,110.94,0.7246,-0.7271,1.0265,-45.10,35,300.0,250.0,0.0903,0.9304,0.9348,84.46,-19.28,84.46,103.73,True,RIGHT,0.196,0,0,STUCK,False,False,True,0,True,FORCE_AWAY_FROM_PERSON|STUCK_DETECTED,0.00,0
1764558278.9518747,49.569,120,TEST1_DIRECT_FORWARD,False,0.0,0.0,0.0,0.00,0.000,0.0,76.8,-34.2,157.21,157.19,157.21,154.34,87.52,-0.0064,10.0,-9.183,-0.6343,1.6575,1.7747,110.94,0.7246,-0.7271,1.0265,-45.10,35,300.0,250.0,0.0903,0.9304,0.9348,84.46,0.00,84.46,0.00,False,RIGHT,0.196,0,0,STUCK,False,False,True,0,True,STUCK_DETECTED,0.00,0
1764558278.9958293,49.613,121,TEST1_DIRECT_FORWARD,True,-531.5,1980.1,2050.2,344.97,0.972,0.0,76.8,-34.2,157.28,157.64,157.28,154.73,87.56,0.0000,10.0,-9.269,-0.5142,1.7027,1.7786,106.81,0.7246,-0.7271,1.0265,-45.10,35,300.0,250.0,0.2103,0.9756,0.9980,77.83,-15.03,77.83,92.86,True,RIGHT,0.210,0,0,STUCK,False,False,True,0,True,FORCE_AWAY_FROM_PERSON|STUCK_DETECTED,0.00,0
1764558279.0339403,49.651,122,TEST1_DIRECT_FORWARD,True,-531.5,1980.1,2050.2,344.97,0.972,0.0,76.8,-34.2,157.39,158.17,157.39,154.99,87.50,-0.0011,10.0,-9.355,-0.5142,1.7027,1.7786,106.81,0.7246,-0.7271,1.0265,-45.10,35,300.0,250.0,0.2103,0.9756,0.9980,77.83,-15.03,77.83,92.86,True,RIGHT,0.210,0,0,STUCK,False,False,True,0,True,FORCE_AWAY_FROM_PERSON|STUCK_DETECTED,0.00,0
1764558279.0824406,49.699,123,TEST1_DIRECT_FORWARD,True,-528.3,1981.1,2050.4,345.07,0.971,0.0,76.8,-34.2,157.50,158.35,157.50,154.56,87.58,0.0075,10.0,-9.440,-0.5115,1.7034,1.7785,106.71,0.7246,-0.7271,1.0265,-45.10,35,300.0,250.0,0.2131,0.9763,0.9992,77.69,-14.93,77.69,92.62,True,RIGHT,0.210,0,0,STUCK,False,False,True,0,True,FORCE_AWAY_FROM_PERSON|STUCK_DETECTED,0.00,0
1764558279.1169615,49.734,124,TEST1_DIRECT_FORWARD,True,-528.3,1981.1,2050.4,345.07,0.971,0.0,76.8,-34.2,157.59,158.05,157.59,153.67,87.49,0.0096,10.0,-9.521,-0.5115,1.7034,1.7785,106.71,0.7246,-0.7271,1.0265,-45.10,35,300.0,250.0,0.2131,0.9763,0.9992,77.69,-14.93,77.69,92.62,True,RIGHT,0.210,0,0,STUCK,False,False,True,0,True,FORCE_AWAY_FROM_PERSON|STUCK_DETECTED,0.00,0
1764558279.160137,49.777,125,TEST1_DIRECT_FORWARD,True,-529.9,1980.6,2050.3,345.02,0.969,0.0,76.8,-34.2,157.67,157.89,157.67,152.69,87.48,-0.0043,10.0,-9.598,-0.5129,1.7030,1.7786,106.76,0.7246,-0.7271,1.0265,-45.10,35,300.0,250.0,0.2117,0.9759,0.9986,77.76,-14.98,77.76,92.74,True,RIGHT,0.210,0,0,STUCK,False,False,True,0,True,FORCE_AWAY_FROM_PERSON|STUCK_DETECTED,0.00,0
1764558279.2017608,49.819,126,TEST1_DIRECT_FORWARD,True,-526.7,1981.6,2050.5,345.12,0.981,0.0,76.8,-34.2,157.76,158.28,157.76,152.28,87.46,0.0021,10.0,-9.673,-0.5101,1.7037,1.7784,106.67,0.7246,-0.7271,1.0265,-45.10,35,300.0,250.0,0.2145,0.9766,0.9999,77.61,-14.88,77.61,92.50,True,RIGHT,0.210,0,0,STUCK,False,False,True,0,True,FORCE_AWAY_FROM_PERSON|STUCK_DETECTED,0.00,0
1764558279.238767,49.856,127,TEST1_DIRECT_FORWARD,True,-526.7,1981.6,2050.5,345.12,0.981,0.0,76.8,-34.2,157.88,158.86,157.88,151.95,87.51,-0.0075,10.0,-9.746,-0.5101,1.7037,1.7784,106.67,0.7246,-0.7271,1.0265,-45.10,35,300.0,250.0,0.2145,0.9766,0.9999,77.61,-14.88,77.61,92.50,True,RIGHT,0.210,0,0,STUCK,False,False,True,0,True,FORCE_AWAY_FROM_PERSON|STUCK_DETECTED,0.00,0
1764558279.2816014,49.898,128,TEST1_DIRECT_FORWARD,True,-526.7,1981.6,2050.5,345.12,0.981,0.0,76.8,-34.2,158.04,158.92,158.04,151.25,87.46,0.0053,10.0,-9.816,-0.5101,1.7037,1.7784,106.67,0.7246,-0.7271,1.0265,-45.10,35,300.0,250.0,0.2145,0.9766,0.9999,77.61,-14.88,77.61,92.50,True,RIGHT,0.210,0,0,STUCK,False,False,True,0,True,FORCE_AWAY_FROM_PERSON|STUCK_DETECTED,0.00,0
1764558279.324258,49.941,129,TEST1_DIRECT_FORWARD,True,-526.7,1981.6,2050.5,345.12,0.981,0.0,76.8,-34.2,158.14,158.07,158.14,149.86,87.41,0.0053,10.0,-9.882,-0.5101,1.7037,1.7784,106.67,0.7246,-0.7271,1.0265,-45.10,36,300.0,250.0,0.2145,0.9766,0.9999,77.61,-14.88,77.61,92.50,True,RIGHT,0.210,0,0,STUCK,False,False,True,0,True,FORCE_AWAY_FROM_PERSON|STUCK_DETECTED,0.00,0
1764558279.3685372,49.985,130,TEST1_DIRECT_FORWARD,True,-526.7,1981.6,2050.5,345.12,0.981,0.0,76.8,-34.2,158.20,157.79,158.20,149.40,87.49,-0.0043,10.0,-9.946,-0.5101,1.7037,1.7784,106.67,0.7246,-0.7271,1.0265,-45.10,36,300.0,250.0,0.2145,0.9766,0.9999,77.61,-14.88,77.61,92.50,True,RIGHT,0.210,0,0,STUCK,False,False,True,0,True,FORCE_AWAY_FROM_PERSON|STUCK_DETECTED,0.00,0
1764558279.4029849,50.020,131,TEST1_DIRECT_FORWARD,True,-526.7,1981.6,2050.5,345.12,0.981,0.0,76.8,-34.2,158.27,158.33,158.27,149.99,87.41,-0.0107,10.0,-10.008,-0.5101,1.7037,1.7784,106.67,0.7246,-0.7271,1.0265,-45.10,36,300.0,250.0,0.2145,0.9766,0.9999,77.61,-14.88,77.61,92.50,True,RIGHT,0.210,0,0,STUCK,False,False,True,0,True,FORCE_AWAY_FROM_PERSON|STUCK_DETECTED,0.00,0
1764558279.4508843,50.068,132,TEST1_DIRECT_FORWARD,True,-526.7,1981.6,2050.5,345.12,0.981,0.0,76.8,-34.2,158.38,159.29,158.38,150.98,87.47,0.0043,10.0,-10.066,-0.5101,1.7037,1.7784,106.67,0.7246,-0.7271,1.0265,-45.10,38,300.0,250.0,0.2145,0.9766,0.9999,77.61,-14.88,77.61,92.50,True,RIGHT,0.210,0,0,STUCK,False,False,True,0,True,FORCE_AWAY_FROM_PERSON|STUCK_DETECTED,0.00,0
1764558279.4901783,50.107,133,TEST1_DIRECT_FORWARD,True,-526.7,1981.6,2050.5,345.12,0.981,0.0,76.8,-34.2,158.41,158.66,158.41,150.37,87.43,0.0202,10.0,-10.122,-0.5101,1.7037,1.7784,106.67,0.7246,-0.7271,1.0265,-45.10,38,300.0,250.0,0.2145,0.9766,0.9999,77.61,-14.88,77.61,92.50,True,RIGHT,0.210,0,0,STUCK,False,False,True,0,True,FORCE_AWAY_FROM_PERSON|STUCK_DETECTED,0.00,0
1764558279.526359,50.143,134,TEST1_DIRECT_FORWARD,False,0.0,0.0,0.0,0.00,0.000,0.0,76.8,-34.2,158.36,157.51,158.36,149.27,87.49,0.0234,10.0,-10.175,-0.5101,1.7037,1.7784,106.67,-0.2702,-1.1700,1.2008,-103.00,38,600.0,250.0,-0.7803,0.5337,0.9453,145.63,0.00,145.63,0.00,False,BACKWARDS_RIGHT,0.142,0,0,RECOVERING,True,False,True,0,True,STUCK_DETECTED,0.00,0
1764558279.5758066,50.193,135,TEST1_DIRECT_FORWARD,False,0.0,0.0,0.0,0.00,0.000,0.0,78.1,-34.7,158.33,157.55,158.33,149.36,87.52,-0.0149,10.0,-10.227,-0.5105,1.7021,1.7770,106.70,-0.2702,-1.1700,1.2008,-103.00,38,600.0,250.0,-0.7807,0.5321,0.9448,145.73,0.00,145.73,0.00,False,BACKWARDS_RIGHT,0.142,0,0,RECOVERING,False,False,True,0,True,STUCK_DETECTED,0.00,0
1764558279.6089132,50.226,136,TEST1_DIRECT_FORWARD,False,0.0,0.0,0.0,0.00,0.000,0.0,79.1,-35.1,158.40,159.02,158.40,150.86,87.47,-0.0138,10.0,-10.276,-0.5109,1.7008,1.7758,106.72,-0.2702,-1.1700,1.2008,-103.00,38,600.0,250.0,-0.7811,0.5308,0.9444,145.80,0.00,145.80,0.00,False,BACKWARDS_RIGHT,0.142,0,0,RECOVERING,False,False,True,0,True,STUCK_DETECTED,0.00,0
1764558279.650278,50.267,137,TEST1_DIRECT_FORWARD,False,0.0,0.0,0.0,0.00,0.000,0.0,80.3,-35.6,158.46,159.47,158.46,151.36,87.50,0.0053,10.0,-10.322,-0.5113,1.6993,1.7746,106.75,-0.2702,-1.1700,1.2008,-103.00,38,600.0,250.0,-0.7815,0.5293,0.9439,145.89,0.00,145.89,0.00,False,BACKWARDS_RIGHT,0.142,0,0,RECOVERING,False,False,True,0,True,STUCK_DETECTED,0.00,0
1764558279.6886492,50.305,138,TEST1_DIRECT_FORWARD,False,0.0,0.0,0.0,0.00,0.000,0.0,81.3,-36.0,158.40,158.30,158.40,150.23,87.42,0.0298,10.0,-10.366,-0.5117,1.6979,1.7734,106.77,-0.2702,-1.1700,1.2008,-103.00,39,600.0,250.0,-0.7819,0.5279,0.9434,145.97,0.00,145.97,0.00,False,BACKWARDS_RIGHT,0.142,0,0,RECOVERING,False,False,True,0,True,STUCK_DETECTED,0.00,0
1764558279.7291148,50.346,139,TEST1_DIRECT_FORWARD,False,0.0,0.0,0.0,0.00,0.000,0.0,82.5,-36.5,158.33,157.37,158.33,149.33,87.50,0.0096,10.0,-10.409,-0.5121,1.6965,1.7721,106.80,-0.2702,-1.1700,1.2008,-103.00,39,600.0,250.0,-0.7823,0.5265,0.9430,146.06,0.00,146.06,0.00,False,BACKWARDS_RIGHT,0.141,0,0,RECOVERING,False,False,True,0,True,STUCK_DETECTED,0.00,0
1764558279.7681382,50.385,140,TEST1_DIRECT_FORWARD,False,0.0,0.0,0.0,0.00,0.000,0.0,83.6,-36.9,158.34,157.93,158.34,149.92,87.45,-0.0107,10.0,-10.450,-0.5125,1.6951,1.7709,106.82,-0.2702,-1.1700,1.2008,-103.00,39,600.0,250.0,-0.7827,0.5251,0.9425,146.14,0.00,146.14,0.00,False,BACKWARDS_RIGHT,0.141,0,0,RECOVERING,False,False,True,0,True,STUCK_DETECTED,0.00,0
1764558279.8091757,50.426,141,TEST1_DIRECT_FORWARD,False,0.0,0.0,0.0,0.00,0.000,0.0,84.7,-37.3,158.39,158.77,158.39,150.81,87.47,-0.0224,10.0,-10.487,-0.5129,1.6937,1.7696,106.85,-0.2702,-1.1700,1.2008,-103.00,39,600.0,250.0,-0.7831,0.5237,0.9420,146.23,0.00,146.23,0.00,False,BACKWARDS_RIGHT,0.141,0,0,RECOVERING,False,False,True,0,True,STUCK_DETECTED,0.00,0
1764558279.8480203,50.465,142,TEST1_DIRECT_FORWARD,False,0.0,0.0,0.0,0.00,0.000,0.0,85.8,-37.8,158.36,159.04,158.36,151.13,87.55,-0.0064,10.0,-10.521,-0.5133,1.6923,1.7684,106.87,-0.1801,-0.7800,0.8005,-103.00,39,600.0,250.0,-0.6934,0.9123,1.1459,127.24,0.00,127.24,0.00,False,BACKWARDS_RIGHT,0.172,0,0,RECOVERING,False,False,True,0,True,STUCK_DETECTED,0.00,0
1764558279.892196,50.509,143,TEST1_DIRECT_FORWARD,False,0.0,0.0,0.0,0.00,0.000,0.0,87.2,-38.3,158.38,158.85,158.38,150.92,87.44,0.0096,10.0,-10.552,-0.5137,1.6905,1.7668,106.90,-0.2702,-1.1700,1.2008,-103.00,39,600.0,250.0,-0.7839,0.5205,0.9410,146.42,0.00,146.42,0.00,False,BACKWARDS_RIGHT,0.141,0,0,RECOVERING,False,False,True,0,True,STUCK_DETECTED,0.00,0
1764558279.9312928,50.548,144,TEST1_DIRECT_FORWARD,True,-540.7,2024.3,2095.3,345.05,0.991,0.0,88.2,-38.7,158.50,158.65,158.50,150.72,87.57,0.0309,10.0,-10.579,-0.4936,1.6193,1.6929,106.95,-0.2702,-1.1700,1.2008,-103.00,38,600.0,250.0,-0.7638,0.4493,0.8862,149.53,-14.95,149.53,164.49,True,BACKWARDS_RIGHT,0.133,0,0,RECOVERING,False,False,True,0,True,FORCE_AWAY_FROM_PERSON|STUCK_DETECTED,0.00,0
1764558279.9739182,50.591,145,TEST1_DIRECT_FORWARD,True,-540.7,2024.3,2095.3,345.05,0.991,0.0,89.3,-39.2,158.52,157.78,158.52,149.81,87.49,0.0224,10.0,-10.602,-0.4940,1.6180,1.6917,106.98,-0.2702,-1.1700,1.2008,-103.00,38,600.0,250.0,-0.7642,0.4480,0.8858,149.62,-14.95,149.62,164.57,True,BACKWARDS_RIGHT,0.133,0,0,RECOVERING,False,False,True,0,True,FORCE_AWAY_FROM_PERSON|STUCK_DETECTED,0.00,0
1764558280.0107136,50.628,146,TEST1_DIRECT_FORWARD,True,-540.7,2024.3,2095.3,345.05,0.991,0.0,90.3,-39.6,158.35,157.38,158.35,149.41,87.50,-0.0170,10.0,-10.623,-0.4943,1.6168,1.6907,107.00,-0.2702,-1.1700,1.2008,-103.00,37,600.0,250.0,-0.7645,0.4468,0.8855,149.69,-14.95,149.69,164.65,True,BACKWARDS_RIGHT,0.133,0,0,RECOVERING,False,False,True,0,True,FORCE_AWAY_FROM_PERSON|STUCK_DETECTED,0.00,0
1764558280.0557914,50.673,147,TEST1_DIRECT_FORWARD,True,-540.7,2024.3,2095.3,345.05,0.991,0.0,91.4,-40.0,158.23,158.19,158.23,150.22,87.53,-0.0277,10.0,-10.641,-0.4947,1.6155,1.6895,107.03,-0.2702,-1.1700,1.2008,-103.00,37,600.0,250.0,-0.7649,0.4455,0.8851,149.78,-14.95,149.78,164.74,True,BACKWARDS_RIGHT,0.133,0,0,RECOVERING,False,False,True,0,True,FORCE_AWAY_FROM_PERSON|STUCK_DETECTED,0.00,0
1764558280.0921495,50.709,148,TEST1_DIRECT_FORWARD,True,-540.7,2024.3,2095.3,345.05,0.991,0.0,92.4,-40.4,158.30,158.99,158.30,151.03,87.50,-0.0021,10.0,-10.654,-0.4950,1.6143,1.6885,107.05,-0.2702,-1.1700,1.2008,-103.00,37,600.0,250.0,-0.7652,0.4443,0.8848,149.86,-14.95,149.86,164.81,True,BACKWARDS_RIGHT,0.133,0,0,RECOVERING,False,False,True,0,True,FORCE_AWAY_FROM_PERSON|STUCK_DETECTED,0.00,0
1764558280.134142,50.751,149,TEST1_DIRECT_FORWARD,True,-540.7,2024.3,2095.3,345.05,0.991,0.0,93.5,-40.8,158.39,158.34,158.39,150.41,87.56,0.0234,10.0,-10.663,-0.4953,1.6130,1.6874,107.07,-0.2702,-1.1700,1.2008,-103.00,37,600.0,250.0,-0.7655,0.4430,0.8845,149.94,-14.95,149.94,164.90,True,BACKWARDS_RIGHT,0.133,0,0,RECOVERING,False,False,True,0,True,FORCE_AWAY_FROM_PERSON|STUCK_DETECTED,0.00,0
1764558280.1812797,50.798,150,TEST1_DIRECT_FORWARD,True,-540.7,2024.3,2095.3,345.05,0.991,0.0,94.7,-41.3,158.38,157.84,158.38,149.91,87.58,0.0117,10.0,-10.667,-0.4957,1.6116,1.6861,107.10,-0.2702,-1.1700,1.2008,-103.00,37,600.0,250.0,-0.7659,0.4416,0.8841,150.03,-14.95,150.03,164.99,True,BACKWARDS_RIGHT,0.133,0,0,RECOVERING,False,False,True,0,True,FORCE_AWAY_FROM_PERSON|STUCK_DETECTED,0.00,0
1764558280.2223277,50.839,151,TEST1_DIRECT_FORWARD,True,-540.7,2024.3,2095.3,345.05,0.991,0.0,95.7,-41.7,158.32,158.15,158.32,150.21,87.47,-0.0245,10.0,-10.669,-0.4960,1.6104,1.6851,107.12,-0.2702,-1.1700,1.2008,-103.00,37,600.0,250.0,-0.7662,0.4404,0.8838,150.11,-14.95,150.11,165.07,True,BACKWARDS_RIGHT,0.133,0,0,RECOVERING,False,False,True,0,True,FORCE_AWAY_FROM_PERSON|STUCK_DETECTED,0.00,0
1764558280.2599902,50.877,152,TEST1_DIRECT_FORWARD,False,0.0,0.0,0.0,0.00,0.000,0.0,96.8,-42.1,158.29,158.77,158.29,150.83,87.61,0.0170,10.0,-10.667,-0.4964,1.6091,1.6839,107.14,-0.2702,-1.1700,1.2008,-103.00,37,600.0,250.0,-0.7666,0.4391,0.8834,150.20,0.00,150.20,0.00,False,BACKWARDS_RIGHT,0.133,0,0,RECOVERING,False,False,True,0,True,STUCK_DETECTED,0.00,0
1764558280.3019774,50.919,153,TEST1_DIRECT_FORWARD,False,0.0,0.0,0.0,0.00,0.000,0.0,97.7,-42.5,158.28,158.66,158.28,150.73,87.58,0.0107,10.0,-10.662,-0.4967,1.6079,1.6829,107.17,-0.2702,-1.1700,1.2008,-103.00,37,600.0,250.0,-0.7669,0.4379,0.8831,150.27,0.00,150.27,0.00,False,BACKWARDS_RIGHT,0.132,0,0,RECOVERING,False,False,True,0,True,STUCK_DETECTED,0.00,0
1764558280.34146,50.958,154,TEST1_DIRECT_FORWARD,False,0.0,0.0,0.0,0.00,0.000,0.0,98.8,-43.0,158.24,158.34,158.24,150.41,87.58,0.0117,10.0,-10.653,-0.4970,1.6066,1.6817,107.19,-0.2702,-1.1700,1.2008,-103.00,36,600.0,250.0,-0.7672,0.4366,0.8827,150.36,0.00,150.36,0.00,False,BACKWARDS_RIGHT,0.132,0,0,RECOVERING,False,False,True,0,True,STUCK_DETECTED,0.00,0
1764558280.3813264,50.998,155,TEST1_DIRECT_FORWARD,False,0.0,0.0,0.0,0.00,0.000,0.0,99.9,-43.4,158.28,158.16,158.28,150.21,87.48,-0.0117,10.0,-10.642,-0.4974,1.6053,1.6806,107.21,-0.2702,-1.1700,1.2008,-103.00,36,600.0,250.0,-0.7675,0.4353,0.8824,150.44,0.00,150.44,0.00,False,BACKWARDS_RIGHT,0.132,0,0,RECOVERING,False,False,True,0,True,STUCK_DETECTED,0.00,0
1764558280.426199,51.043,156,TEST1_DIRECT_FORWARD,False,0.0,0.0,0.0,0.00,0.000,0.0,101.0,-43.8,158.41,158.67,158.41,150.73,87.61,0.0096,10.0,-10.626,-0.4977,1.6040,1.6794,107.24,-0.2702,-1.1700,1.2008,-103.00,36,600.0,250.0,-0.7679,0.4340,0.8820,150.53,0.00,150.53,0.00,False,BACKWARDS_RIGHT,0.132,0,0,RECOVERING,False,False,True,0,True,STUCK_DETECTED,0.00,0
1764558280.4638596,51.081,157,TEST1_DIRECT_FORWARD,False,0.0,0.0,0.0,0.00,0.000,0.0,102.0,-44.2,158.49,158.98,158.49,151.04,87.61,0.0011,10.0,-10.608,-0.4980,1.6028,1.6784,107.26,-0.2702,-1.1700,1.2008,-103.00,35,600.0,250.0,-0.7682,0.4328,0.8817,150.60,0.00,150.60,0.00,False,BACKWARDS_RIGHT,0.132,0,0,RECOVERING,False,False,True,0,True,STUCK_DETECTED,0.00,0
1764558280.5058246,51.123,158,TEST1_DIRECT_FORWARD,False,0.0,0.0,0.0,0.00,0.000,0.0,103.1,-44.7,158.47,158.77,158.47,150.83,87.61,0.0192,10.0,-10.586,-0.4984,1.6015,1.6772,107.29,-0.2702,-1.1700,1.2008,-103.00,35,600.0,250.0,-0.7685,0.4315,0.8814,150.69,0.00,150.69,0.00,False,BACKWARDS_RIGHT,0.132,0,0,RECOVERING,False,False,True,0,True,STUCK_DETECTED,0.00,0
1764558280.5445924,51.161,159,TEST1_DIRECT_FORWARD,False,0.0,0.0,0.0,0.00,0.000,0.0,104.1,-45.0,158.49,158.58,158.49,150.63,87.50,0.0096,10.0,-10.563,-0.4987,1.6003,1.6762,107.31,-0.2702,-1.1700,1.2008,-103.00,35,600.0,250.0,-0.7688,0.4303,0.8811,150.76,0.00,150.76,0.00,False,BACKWARDS_RIGHT,0.132,0,0,RECOVERING,False,False,True,0,True,STUCK_DETECTED,0.00,0
1764558280.5869148,51.204,160,TEST1_DIRECT_FORWARD,False,0.0,0.0,0.0,0.00,0.000,0.0,105.2,-45.5,158.57,158.58,158.57,150.63,87.50,-0.0160,10.0,-10.538,-0.4990,1.5990,1.6751,107.33,-0.2702,-1.1700,1.2008,-103.00,35,600.0,250.0,-0.7692,0.4290,0.8807,150.85,0.00,150.85,0.00,False,BACKWARDS_RIGHT,0.132,0,0,RECOVERING,False,False,True,0,True,STUCK_DETECTED,0.00,0
1764558280.6227376,51.240,161,TEST1_DIRECT_FORWARD,False,0.0,0.0,0.0,0.00,0.000,0.0,106.2,-45.9,158.63,158.78,158.63,150.84,87.62,-0.0064,10.0,-10.511,-0.4993,1.5979,1.6741,107.35,-0.2702,-1.1700,1.2008,-103.00,35,600.0,250.0,-0.7695,0.4279,0.8804,150.92,0.00,150.92,0.00,False,BACKWARDS_RIGHT,0.132,0,0,RECOVERING,False,False,True,0,True,STUCK_DETECTED,0.00,0
1764558280.670779,51.288,162,TEST1_DIRECT_FORWARD,False,0.0,0.0,0.0,0.00,0.000,0.0,107.3,-46.3,158.64,158.89,158.64,150.95,87.63,0.0011,10.0,-10.482,-0.4996,1.5966,1.6729,107.38,-0.2702,-1.1700,1.2008,-103.00,35,600.0,250.0,-0.7698,0.4266,0.8801,151.01,0.00,151.01,0.00,False,BACKWARDS_RIGHT,0.132,0,0,RECOVERING,False,False,True,0,True,STUCK_DETECTED,0.00,0
