timestamp,elapsed_time,log_number,test_mode,person_detected,person_x_mm,person_y_mm,person_distance_mm,person_angle_deg,person_confidence,time_since_person_update_ms,robot_x_mm,robot_y_mm,robot_orientation_deg,imu_yaw_raw,imu_yaw_smoothed,imu_roll,imu_pitch,imu_angular_vel_z,imu_update_rate,imu_drift_estimate,attr_force_x,attr_force_y,attr_force_magnitude,attr_force_direction_deg,repul_force_x,repul_force_y,repul_force_magnitude,repul_force_direction_deg,num_obstacles_in_range,closest_obstacle_dist_mm,closest_obstacle_angle_deg,total_force_x,total_force_y,total_force_magnitude,total_force_direction_deg,expected_direction_to_person_deg,force_direction_deg,direction_error_deg,direction_mismatch_flag,commanded_direction,commanded_speed,motor_1_speed,motor_2_speed,nav_state,nav_state_changed,goal_reached,stuck_detected,time_in_current_state_s,anomaly_detected,anomaly_type,calculation_time_ms,obstacles_filtered_for_person
1764575325.6767397,37.649,1,TEST2_OBSTACLE_BYPASS,False,0.0,0.0,0.0,0.00,0.000,0.0,0.0,0.0,164.79,164.79,164.79,147.65,87.50,-0.0085,10.0,0.000,-0.9356,4.5203,4.6161,-11.69,-7.9962,0.2453,8.0000,-88.24,0,800.0,1.0,-7.0582,3.7659,8.0000,-61.92,0.00,-61.92,0.00,False,NONE,0.000,0,0,SEARCHING,True,False,False,0,False,,0.00,0
1764575325.7171438,37.690,2,TEST2_OBSTACLE_BYPASS,False,0.0,0.0,0.0,0.00,0.000,0.0,0.0,0.0,164.79,164.79,164.79,147.65,87.50,0.0064,10.0,0.000,-0.9356,4.5203,4.6161,-11.69,-7.9962,0.2453,8.0000,-88.24,0,800.0,1.0,-7.0582,3.7659,8.0000,-61.92,0.00,-61.92,0.00,False,NONE,0.000,0,0,SEARCHING,False,False,False,0,False,,0.00,0
1764575325.7643495,37.737,3,TEST2_OBSTACLE_BYPASS,True,-526.9,2545.7,2599.6,348.31,0.877,0.0,0.0,0.0,164.78,164.72,164.78,147.55,87.39,0.0128,10.0,0.000,-0.9356,4.5203,4.6161,-11.69,-7.9983,0.1650,8.0000,-88.82,0,800.0,1.0,-7.0848,3.7155,8.0000,-62.33,-11.69,-62.33,-50.63,False,FORWARDS_LEFT,1.000,0,0,NAVIGATING,True,False,False,0,False,,0.00,0
1764575325.8035688,37.776,4,TEST2_OBSTACLE_BYPASS,True,-530.3,2535.2,2590.1,348.19,0.911,0.0,-8.7,2.4,164.78,164.72,164.78,147.55,87.39,-0.0053,10.0,0.000,-0.9360,4.5449,4.6403,-11.64,-7.9973,0.2077,8.0000,-88.51,0,800.0,1.0,-7.0627,3.7574,8.0000,-61.99,-11.81,-61.99,-50.17,False,FORWARDS_LEFT,1.000,0,0,NAVIGATING,False,False,False,0,False,,0.00,0
1764575325.845612,37.818,5,TEST2_OBSTACLE_BYPASS,True,-530.3,2535.2,2590.1,348.19,0.911,0.0,-16.6,4.5,164.77,164.72,164.77,147.55,87.39,0.0064,10.0,0.000,-0.9245,4.5540,4.6469,-11.48,-7.9973,0.2077,8.0000,-88.51,0,800.0,1.0,-7.0577,3.7669,8.0000,-61.91,-11.81,-61.91,-50.10,False,FORWARDS_LEFT,1.000,0,0,NAVIGATING,False,False,False,0,False,,0.00,0
1764575325.8857665,37.858,6,TEST2_OBSTACLE_BYPASS,True,-529.0,2538.7,2593.3,348.23,0.896,0.0,-24.9,6.8,164.76,164.72,164.76,147.55,87.39,0.0170,10.0,0.000,-0.9076,4.5587,4.6482,-11.26,-7.9980,0.1780,8.0000,-88.73,0,800.0,1.0,-7.0631,3.7567,8.0000,-61.99,-11.77,-61.99,-50.22,False,FORWARDS_LEFT,1.000,0,0,NAVIGATING,False,False,False,0,False,,0.00,0
1764575325.9246936,37.897,7,TEST2_OBSTACLE_BYPASS,True,-529.0,2538.7,2593.3,348.23,0.896,0.0,-32.7,8.9,164.76,164.72,164.76,147.55,87.39,0.0032,10.0,0.000,-0.8961,4.5676,4.6547,-11.10,-7.9980,0.1780,8.0000,-88.73,0,800.0,1.0,-7.0581,3.7660,8.0000,-61.92,-11.77,-61.92,-50.15,False,FORWARDS_LEFT,1.000,0,0,NAVIGATING,False,False,False,0,False,,0.00,0
1764575325.9661212,37.939,8,TEST2_OBSTACLE_BYPASS,True,-528.0,2542.2,2596.5,348.27,0.908,0.0,-41.1,11.2,164.75,164.72,164.75,147.55,87.39,0.0107,10.0,0.000,-0.8795,4.5720,4.6558,-10.89,-7.9973,0.2077,8.0000,-88.51,0,800.0,1.0,-7.0438,3.7928,8.0000,-61.70,-11.73,-61.70,-49.97,False,FORWARDS_LEFT,1.000,0,0,NAVIGATING,False,False,False,0,False,,0.00,0
1764575326.0081837,37.981,9,TEST2_OBSTACLE_BYPASS,True,-528.0,2542.2,2596.5,348.27,0.908,0.0,-49.7,13.5,164.74,164.72,164.74,147.55,87.39,0.0000,10.0,0.000,-0.8666,4.5816,4.6629,-10.71,-7.9973,0.2077,8.0000,-88.51,0,800.0,1.0,-7.0383,3.8029,8.0000,-61.62,-11.73,-61.62,-49.88,False,FORWARDS_LEFT,1.000,0,0,NAVIGATING,False,False,False,0,False,,0.00,0
1764575326.0468063,38.019,10,TEST2_OBSTACLE_BYPASS,True,-528.0,2542.2,2596.5,348.27,0.908,0.0,-57.6,15.7,164.73,164.72,164.73,147.55,87.39,0.0053,10.0,0.000,-0.8546,4.5905,4.6694,-10.55,-7.9972,0.2126,8.0000,-88.48,0,800.0,1.0,-7.0315,3.8154,8.0000,-61.52,-11.73,-61.52,-49.78,False,FORWARDS_LEFT,1.000,0,0,STUCK,True,False,True,0,True,STUCK_DETECTED,0.00,0
1764575326.0892863,38.062,11,TEST2_OBSTACLE_BYPASS,True,-528.0,2542.2,2596.5,348.27,0.908,0.0,-65.4,17.8,164.73,164.72,164.73,147.55,87.39,0.0032,10.0,0.000,-0.8428,4.5992,4.6758,-10.38,-7.9972,0.2126,8.0000,-88.48,0,800.0,1.0,-7.0265,3.8247,8.0000,-61.44,-11.73,-61.44,-49.71,False,FORWARDS_LEFT,1.000,0,0,STUCK,False,False,True,0,True,STUCK_DETECTED,0.00,0
1764575326.1279442,38.100,12,TEST2_OBSTACLE_BYPASS,True,-528.0,2542.2,2596.5,348.27,0.908,0.0,-73.9,20.2,164.72,164.72,164.72,147.55,87.39,0.0192,10.0,-0.037,-0.8297,4.6087,4.6827,-10.21,-7.9987,0.1445,8.0000,-88.97,0,800.0,1.0,-7.0440,3.7924,8.0000,-61.70,-11.73,-61.70,-49.97,False,FORWARDS_LEFT,1.000,0,0,STUCK,False,False,True,0,True,STUCK_DETECTED,0.00,0
1764575326.1679688,38.140,13,TEST2_OBSTACLE_BYPASS,True,-528.0,2542.2,2596.5,348.27,0.908,0.0,-81.5,22.2,164.71,164.59,164.71,147.42,87.38,0.0170,10.0,-0.041,-0.8180,4.6170,4.6889,-10.05,-7.9987,0.1445,8.0000,-88.97,0,800.0,1.0,-7.0391,3.8015,8.0000,-61.63,-11.73,-61.63,-49.90,False,FORWARDS_LEFT,1.000,0,0,STUCK,False,False,True,0,True,STUCK_DETECTED,0.00,0
1764575326.211508,38.184,14,TEST2_OBSTACLE_BYPASS,True,-528.0,2542.2,2596.5,348.27,0.908,0.0,-90.7,24.8,164.59,163.60,164.59,146.48,87.30,0.0405,10.0,-0.053,-0.8036,4.6272,4.6964,-9.85,-7.9924,0.3494,8.0000,-87.50,5,750.0,1.0,-6.9628,3.9394,8.0000,-60.50,-11.73,-60.50,-48.77,False,FORWARDS_LEFT,1.000,0,0,STUCK,False,False,True,0,True,STUCK_DETECTED,0.00,0
1764575326.2461472,38.219,15,TEST2_OBSTACLE_BYPASS,True,-528.0,2542.2,2596.5,348.27,0.908,0.0,-98.0,26.8,164.54,164.18,164.54,147.09,87.09,0.0735,10.0,-0.067,-0.7922,4.6352,4.7024,-9.70,-7.9882,0.4336,8.0000,-86.89,5,300.0,1.0,-6.9284,3.9996,8.0000,-60.00,-11.73,-60.00,-48.27,False,FORWARDS_LEFT,1.000,0,0,STUCK,False,False,True,0,True,STUCK_DETECTED,0.00,0
1764575326.2902274,38.263,16,TEST2_OBSTACLE_BYPASS,True,-526.3,2536.9,2590.9,348.28,0.873,0.0,-106.8,29.2,164.76,166.94,164.76,149.75,86.72,0.0256,10.0,-0.065,-0.7787,4.6550,4.7197,-9.50,-7.9838,0.5091,8.0000,-86.35,18,750.0,1.0,-6.8921,4.0618,8.0000,-59.49,-11.72,-59.49,-47.77,False,FORWARDS_LEFT,1.000,0,0,STUCK,False,False,True,0,True,STUCK_DETECTED,0.00,0
1764575326.331166,38.304,17,TEST2_OBSTACLE_BYPASS,True,-526.3,2536.9,2590.9,348.28,0.873,0.0,-114.4,31.2,165.12,168.31,165.12,150.95,86.43,0.0277,10.0,-0.040,-0.7667,4.6631,4.7257,-9.34,-7.9838,0.5091,8.0000,-86.35,18,750.0,1.0,-6.8869,4.0707,8.0000,-59.41,-11.72,-59.41,-47.69,False,FORWARDS_LEFT,1.000,0,0,STUCK,False,False,True,0,True,STUCK_DETECTED,0.00,0
1764575326.3703997,38.343,18,TEST2_OBSTACLE_BYPASS,True,-526.3,2536.9,2590.9,348.28,0.873,0.0,-122.9,33.4,165.40,167.51,165.40,149.98,86.35,0.0607,10.0,-0.002,-0.7529,4.6721,4.7323,-9.15,-7.9901,0.3980,8.0000,-87.15,41,700.0,1.0,-6.9206,4.0132,8.0000,-59.89,-11.72,-59.89,-48.17,False,FORWARDS_LEFT,1.000,0,0,STUCK,False,False,True,0,True,STUCK_DETECTED,0.00,0
1764575326.4083881,38.381,19,TEST2_OBSTACLE_BYPASS,True,-526.3,2536.9,2590.9,348.28,0.873,0.0,-130.9,35.5,165.49,165.65,165.49,147.84,86.30,0.0522,10.0,0.037,-0.7398,4.6804,4.7385,-8.98,-7.9901,0.3980,8.0000,-87.15,41,700.0,1.0,-6.9151,4.0226,8.0000,-59.81,-11.72,-59.81,-48.09,False,FORWARDS_LEFT,1.000,0,0,STUCK,False,False,True,0,True,STUCK_DETECTED,0.00,0
1764575326.4567013,38.429,20,TEST2_OBSTACLE_BYPASS,True,-526.4,2530.7,2584.8,348.25,0.901,0.0,-139.8,37.8,165.42,164.02,165.42,145.82,86.34,-0.0064,10.0,0.069,-0.7290,4.7007,4.7569,-8.82,-7.9948,0.2894,8.0000,-87.93,52,650.0,1.0,-6.9442,3.9722,8.0000,-60.23,-11.75,-60.23,-48.48,False,FORWARDS_LEFT,1.000,0,0,STUCK,False,False,True,0,True,STUCK_DETECTED,0.00,0
1764575326.4875672,38.460,21,TEST2_OBSTACLE_BYPASS,True,-526.4,2530.7,2584.8,348.25,0.901,0.0,-147.1,39.7,165.46,165.09,165.46,146.63,86.23,-0.0415,10.0,0.099,-0.7170,4.7082,4.7625,-8.66,-7.9948,0.2894,8.0000,-87.93,52,650.0,1.0,-6.9392,3.9808,8.0000,-60.16,-11.75,-60.16,-48.41,False,FORWARDS_LEFT,1.000,0,0,STUCK,False,False,True,0,True,STUCK_DETECTED,0.00,0
1764575326.5324788,38.505,22,TEST2_OBSTACLE_BYPASS,True,-524.1,2537.5,2591.1,348.33,0.893,0.0,-155.7,41.9,165.81,168.18,165.81,149.34,86.07,-0.0575,10.0,0.142,-0.6946,4.7059,4.7568,-8.40,-7.9997,0.0670,8.0000,-89.52,75,650.0,11.0,-7.0128,3.8498,8.0000,-61.23,-11.67,-61.23,-49.57,False,FORWARDS_LEFT,1.000,0,0,STUCK,False,False,True,0,True,STUCK_DETECTED,0.00,0
1764575326.5764482,38.549,23,TEST2_OBSTACLE_BYPASS,True,-524.1,2537.5,2591.1,348.33,0.893,0.0,-163.5,43.8,166.42,170.76,166.42,151.60,86.06,-0.0256,10.0,0.210,-0.6814,4.7135,4.7625,-8.23,-7.9997,0.0670,8.0000,-89.52,75,650.0,11.0,-7.0077,3.8590,8.0000,-61.16,-11.67,-61.16,-49.49,False,FORWARDS_LEFT,1.000,0,0,STUCK,False,False,True,0,True,STUCK_DETECTED,0.00,0
1764575326.614467,38.587,24,TEST2_OBSTACLE_BYPASS,True,-525.3,2533.9,2587.8,348.29,0.933,0.0,-172.1,45.7,167.18,171.14,167.18,151.68,86.12,0.0277,10.0,0.305,-0.6710,4.7275,4.7749,-8.08,-7.9998,-0.0515,8.0000,-90.37,92,600.0,11.0,-7.0413,3.7973,8.0000,-61.66,-11.71,-61.66,-49.95,False,FORWARDS_LEFT,1.000,0,0,STUCK,False,False,True,0,True,STUCK_DETECTED,0.00,0
1764575326.6534102,38.626,25,TEST2_OBSTACLE_BYPASS,True,-525.3,2533.9,2587.8,348.29,0.933,0.0,-179.9,47.4,167.67,169.08,167.67,149.29,86.16,0.0362,10.0,0.412,-0.6577,4.7348,4.7802,-7.91,-7.9998,-0.0515,8.0000,-90.37,92,600.0,11.0,-7.0364,3.8064,8.0000,-61.59,-11.71,-61.59,-49.88,False,FORWARDS_LEFT,1.000,0,0,STUCK,False,False,True,0,True,STUCK_DETECTED,0.00,0
1764575326.694366,38.667,26,TEST2_OBSTACLE_BYPASS,True,-525.3,2533.9,2587.8,348.29,0.933,0.0,-188.6,49.3,167.68,167.03,167.68,146.79,86.24,-0.0170,10.0,0.511,-0.6427,4.7427,4.7860,-7.72,-7.9995,0.0927,8.0000,-89.34,79,550.0,115.0,-6.9815,3.9062,8.0000,-60.77,-11.71,-60.77,-49.06,False,FORWARDS_LEFT,1.000,0,0,STUCK,False,False,True,0,True,STUCK_DETECTED,0.00,0
1764575326.7311838,38.704,27,TEST2_OBSTACLE_BYPASS,True,-525.3,2533.9,2587.8,348.29,0.933,0.0,-196.5,51.0,167.64,167.97,167.64,147.31,86.26,-0.0352,10.0,0.601,-0.6290,4.7499,4.7913,-7.54,-7.9938,-0.3149,8.0000,-92.26,89,350.0,115.0,-7.1142,3.6591,8.0000,-62.78,-11.71,-62.78,-51.07,False,FORWARDS_LEFT,1.000,0,0,STUCK,False,False,True,0,True,STUCK_DETECTED,0.00,0
1764575326.774749,38.747,28,TEST2_OBSTACLE_BYPASS,True,-525.3,2533.9,2587.8,348.29,0.933,0.0,-205.2,52.9,168.03,171.40,168.03,150.22,86.14,-0.0362,10.0,0.699,-0.6138,4.7575,4.7970,-7.35,-7.9938,-0.3149,8.0000,-92.26,89,350.0,115.0,-7.1090,3.6692,8.0000,-62.70,-11.71,-62.70,-50.99,False,FORWARDS_LEFT,1.000,0,0,STUCK,False,False,True,0,True,STUCK_DETECTED,0.00,0
1764575326.8164036,38.789,29,TEST2_OBSTACLE_BYPASS,True,-525.3,2533.9,2587.8,348.29,0.933,0.0,-213.4,54.5,168.76,172.97,168.76,151.38,86.03,-0.0107,10.0,0.815,-0.5993,4.7645,4.8021,-7.17,-7.9928,-0.3388,8.0000,-92.43,109,500.0,115.0,-7.1120,3.6633,8.0000,-62.75,-11.71,-62.75,-51.04,False,FORWARDS_LEFT,1.000,0,0,STUCK,False,False,True,0,True,STUCK_DETECTED,0.00,0
1764575326.8544693,38.827,30,TEST2_OBSTACLE_BYPASS,True,-525.3,2533.9,2587.8,348.29,0.933,0.0,-221.4,56.0,169.62,172.62,169.62,150.66,86.10,-0.0021,10.0,0.954,-0.5852,4.7710,4.8068,-6.99,-7.9928,-0.3388,8.0000,-92.43,109,500.0,115.0,-7.1073,3.6723,8.0000,-62.68,-11.71,-62.68,-50.96,False,FORWARDS_LEFT,1.000,0,0,STUCK,False,False,True,0,True,STUCK_DETECTED,0.00,0
1764575326.894054,38.866,31,TEST2_OBSTACLE_BYPASS,True,-525.3,2533.9,2587.8,348.29,0.933,0.0,-229.9,57.4,170.24,171.26,170.24,148.84,86.18,-0.0032,10.0,1.104,-0.5699,4.7777,4.8116,-6.80,-7.9830,-0.5209,8.0000,-93.73,111,450.0,115.0,-7.1620,3.5645,8.0000,-63.54,-11.71,-63.54,-51.83,False,FORWARDS_LEFT,1.000,0,0,STUCK,False,False,True,0,True,STUCK_DETECTED,0.00,0
1764575326.926945,38.899,32,TEST2_OBSTACLE_BYPASS,False,0.0,0.0,0.0,0.00,0.000,0.0,-237.8,58.8,170.55,171.26,170.55,148.36,86.18,-0.0138,10.0,1.254,-0.5556,4.7837,4.8159,-6.63,-7.9830,-0.5209,8.0000,-93.73,111,450.0,115.0,-7.1576,3.5733,8.0000,-63.47,0.00,-63.47,0.00,False,NONE,0.000,0,0,STUCK,False,False,True,0,True,STUCK_DETECTED,0.00,0
1764575326.9719963,38.944,33,TEST2_OBSTACLE_BYPASS,False,0.0,0.0,0.0,0.00,0.000,0.0,-246.7,60.2,170.75,172.83,170.75,149.38,85.66,-0.0192,10.0,1.401,-0.5394,4.7903,4.8206,-6.43,-7.9266,-1.0813,8.0000,-97.77,101,450.0,115.0,-7.3276,3.2103,8.0000,-66.34,0.00,-66.34,0.00,False,NONE,0.000,0,0,STUCK,False,False,True,0,True,STUCK_DETECTED,0.00,0
1764575327.008375,38.981,34,TEST2_OBSTACLE_BYPASS,False,0.0,0.0,0.0,0.00,0.000,0.0,-254.5,61.4,171.04,173.97,171.04,150.04,85.64,-0.0234,10.0,1.548,-0.5252,4.7960,4.8246,-6.25,-7.9266,-1.0813,8.0000,-97.77,101,450.0,115.0,-7.3238,3.2189,8.0000,-66.27,0.00,-66.27,0.00,False,NONE,0.000,0,0,STUCK,False,False,True,0,True,STUCK_DETECTED,0.00,0
1764575327.0551922,39.028,35,TEST2_OBSTACLE_BYPASS,False,0.0,0.0,0.0,0.00,0.000,0.0,-263.6,62.8,171.63,175.03,171.63,150.48,85.56,-0.0288,10.0,1.703,-0.5086,4.8022,4.8291,-6.05,-7.9317,-1.0433,8.0000,-97.49,122,400.0,115.0,-7.3080,3.2547,8.0000,-65.99,0.00,-65.99,0.00,False,NONE,0.000,0,0,STUCK,False,False,True,0,True,STUCK_DETECTED,0.00,0
1764575327.0898628,39.062,36,TEST2_OBSTACLE_BYPASS,False,0.0,0.0,0.0,0.00,0.000,0.0,-271.5,63.8,172.48,175.46,172.48,150.64,85.60,-0.0053,10.0,1.874,-0.4940,4.8074,4.8327,-5.87,-7.9317,-1.0433,8.0000,-97.49,122,400.0,115.0,-7.3042,3.2631,8.0000,-65.93,0.00,-65.93,0.00,False,NONE,0.000,0,0,STUCK,False,False,True,0,True,STUCK_DETECTED,0.00,0
1764575327.1373253,39.110,37,TEST2_OBSTACLE_BYPASS,True,-517.3,2425.3,2479.8,347.96,0.928,0.0,-280.6,64.9,173.23,175.51,173.23,150.40,85.61,-0.0107,10.0,2.057,-0.5046,5.0334,5.0586,-5.73,-7.9232,-1.1058,8.0000,-97.94,136,350.0,115.0,-7.2512,3.3793,8.0000,-65.01,-12.04,-65.01,-52.97,False,FORWARDS_LEFT,1.000,0,0,STUCK,False,False,True,0,True,STUCK_DETECTED,0.00,0
1764575327.1802568,39.153,38,TEST2_OBSTACLE_BYPASS,True,-517.3,2425.3,2479.8,347.96,0.928,0.0,-288.5,65.8,173.57,174.84,173.57,149.63,85.61,0.0565,10.0,2.238,-0.4886,5.0385,5.0621,-5.54,-7.9232,-1.1058,8.0000,-97.94,136,350.0,115.0,-7.2471,3.3882,8.0000,-64.94,-12.04,-64.94,-52.90,False,FORWARDS_LEFT,1.000,0,0,STUCK,False,False,True,0,True,STUCK_DETECTED,0.00,0
1764575327.2190495,39.191,39,TEST2_OBSTACLE_BYPASS,True,-517.3,2425.3,2479.8,347.96,0.928,0.0,-297.4,66.9,172.92,166.39,172.92,141.48,85.86,0.2131,10.0,2.393,-0.4704,5.0444,5.0663,-5.33,-7.8104,-1.7315,8.0000,-102.50,122,300.0,326.0,-7.4276,2.9716,8.0000,-68.20,-12.04,-68.20,-56.16,False,LEFT,0.700,0,0,STUCK,False,False,True,0,True,STUCK_DETECTED,0.00,0
1764575327.25893,39.231,40,TEST2_OBSTACLE_BYPASS,True,-362.6,2356.9,2384.7,351.25,0.864,0.0,-297.4,66.9,171.72,160.64,171.72,135.85,85.86,0.2333,10.0,2.510,-0.1492,5.2358,5.2379,-1.63,-7.8104,-1.7315,8.0000,-102.50,122,300.0,326.0,-7.3218,3.2235,8.0000,-66.24,-8.75,-66.24,-57.49,False,FORWARDS_LEFT,1.000,0,0,STUCK,False,False,True,0,True,STUCK_DETECTED,0.00,0
1764575327.3024828,39.275,41,TEST2_OBSTACLE_BYPASS,True,-362.6,2356.9,2384.7,351.25,0.864,0.0,-306.3,68.5,169.88,152.83,169.88,127.67,85.75,0.1353,10.0,2.574,-0.1290,5.2405,5.2421,-1.41,-7.5489,-2.6483,8.0000,-109.33,136,300.0,326.0,-7.5797,2.5590,8.0000,-71.34,-8.75,-71.34,-62.60,False,LEFT,0.700,0,0,STUCK,False,False,True,0,True,STUCK_DETECTED,0.00,0
1764575327.340711,39.313,42,TEST2_OBSTACLE_BYPASS,True,-362.6,2356.9,2384.7,351.25,0.864,0.0,-306.3,68.5,168.00,152.53,168.00,126.39,85.56,-0.0458,10.0,2.590,-0.1290,5.2405,5.2421,-1.41,-7.5489,-2.6483,8.0000,-109.33,136,300.0,326.0,-7.5797,2.5590,8.0000,-71.34,-8.75,-71.34,-62.60,False,LEFT,0.700,0,0,STUCK,False,False,True,0,True,STUCK_DETECTED,0.00,0
1764575327.379548,39.352,43,TEST2_OBSTACLE_BYPASS,True,-362.6,2356.9,2384.7,351.25,0.864,0.0,-306.3,68.5,166.64,159.18,166.64,131.19,85.58,-0.1683,10.0,2.572,-0.1290,5.2405,5.2421,-1.41,-7.4457,-2.9259,8.0000,-111.45,155,250.0,326.0,-7.5748,2.3146,7.9205,-73.01,-8.75,-73.01,-64.26,False,LEFT,0.700,0,0,STUCK,False,False,True,0,True,STUCK_DETECTED,0.00,0
1764575327.4209814,39.393,44,TEST2_OBSTACLE_BYPASS,True,-362.6,2356.9,2384.7,351.25,0.864,0.0,-306.3,68.5,165.69,164.48,165.69,135.20,85.85,-0.1683,10.0,2.533,-0.1290,5.2405,5.2421,-1.41,-7.3144,-3.2403,8.0000,-113.89,171,200.0,326.0,-7.4434,2.0002,7.7075,-74.96,-8.75,-74.96,-66.21,False,LEFT,0.700,0,0,STUCK,False,False,True,0,True,STUCK_DETECTED,0.00,0
1764575327.463469,39.436,45,TEST2_OBSTACLE_BYPASS,True,-362.6,2356.9,2384.7,351.25,0.864,0.0,-306.3,68.5,164.80,166.17,164.80,136.02,86.02,0.0170,10.0,2.476,-0.1290,5.2405,5.2421,-1.41,-7.3144,-3.2403,8.0000,-113.89,171,200.0,326.0,-7.4434,2.0002,7.7075,-74.96,-8.75,-74.96,-66.21,False,LEFT,0.700,0,0,STUCK,False,False,True,0,True,STUCK_DETECTED,0.00,0
1764575327.5049489,39.477,46,TEST2_OBSTACLE_BYPASS,True,-362.6,2356.9,2384.7,351.25,0.864,0.0,-306.3,68.5,163.68,164.19,163.68,133.59,86.10,0.0021,10.0,2.396,-0.1290,5.2405,5.2421,-1.41,-7.3144,-3.2403,8.0000,-113.89,171,200.0,326.0,-7.4434,2.0002,7.7075,-74.96,-8.75,-74.96,-66.21,False,LEFT,0.700,0,0,STUCK,False,False,True,0,True,STUCK_DETECTED,0.00,0
1764575327.5423245,39.515,47,TEST2_OBSTACLE_BYPASS,True,-362.6,2356.9,2384.7,351.25,0.864,0.0,-306.3,68.5,162.73,166.08,162.73,134.29,86.46,-0.2131,10.0,2.299,-0.1290,5.2405,5.2421,-1.41,-7.0963,-3.6937,8.0000,-117.50,173,200.0,237.0,-7.2253,1.5469,7.3890,-77.92,-8.75,-77.92,-69.17,False,LEFT,0.700,0,0,STUCK,False,False,True,0,True,STUCK_DETECTED,0.00,0
1764575327.582711,39.555,48,TEST2_OBSTACLE_BYPASS,False,0.0,0.0,0.0,0.00,0.000,0.0,-306.3,68.5,162.79,175.41,162.79,142.58,86.94,-0.2035,10.0,2.207,-0.1290,5.2405,5.2421,-1.41,-6.6190,-4.4932,8.0000,-124.17,149,200.0,237.0,-6.7480,0.7474,6.7893,-83.68,0.00,-83.68,0.00,False,NONE,0.000,0,0,STUCK,False,False,True,0,True,STUCK_DETECTED,0.00,0
1764575327.6208138,39.593,49,TEST2_OBSTACLE_BYPASS,False,0.0,0.0,0.0,0.00,0.000,0.0,-306.3,68.5,164.14,179.92,164.14,146.91,87.10,-0.0011,10.0,2.148,-0.1290,5.2405,5.2421,-1.41,-6.6190,-4.4932,8.0000,-124.17,149,200.0,237.0,-6.7480,0.7474,6.7893,-83.68,0.00,-83.68,0.00,False,NONE,0.000,0,0,STUCK,False,False,True,0,True,STUCK_DETECTED,0.00,0
1764575327.6653678,39.638,50,TEST2_OBSTACLE_BYPASS,False,0.0,0.0,0.0,0.00,0.000,0.0,-306.3,68.5,165.70,176.22,165.70,143.29,86.98,0.1140,10.0,2.123,-0.1290,5.2405,5.2421,-1.41,-5.8320,-5.4762,8.0000,-133.20,119,200.0,237.0,-5.9610,-0.2356,5.9656,-92.26,0.00,-92.26,0.00,False,NONE,0.000,0,0,STUCK,False,False,True,0,True,STUCK_DETECTED,0.00,0
1764575327.7037861,39.676,51,TEST2_OBSTACLE_BYPASS,False,0.0,0.0,0.0,0.00,0.000,0.0,-306.3,68.5,167.43,170.07,167.43,137.17,87.10,0.0394,10.0,2.133,-0.1290,5.2405,5.2421,-1.41,-5.8320,-5.4762,8.0000,-133.20,119,200.0,237.0,-5.9610,-0.2356,5.9656,-92.26,0.00,-92.26,0.00,False,NONE,0.000,0,0,STUCK,False,False,True,0,True,STUCK_DETECTED,0.00,0
1764575327.750648,39.723,52,TEST2_OBSTACLE_BYPASS,True,-97.6,2209.6,2211.7,357.47,0.846,0.0,-306.3,68.5,169.08,169.08,169.08,135.76,87.08,-0.0043,10.0,2.175,0.5410,5.5519,5.5782,5.57,-5.0711,-6.1874,8.0000,-140.66,94,200.0,268.0,-4.5301,-0.6355,4.5744,-97.99,-2.53,-97.99,-95.46,True,LEFT,0.700,0,0,STUCK,False,False,True,0,True,FORCE_AWAY_FROM_PERSON|STUCK_DETECTED,0.00,0
1764575327.7866135,39.759,53,TEST2_OBSTACLE_BYPASS,True,-54.2,2211.1,2211.7,358.60,0.846,0.0,-306.3,68.5,170.21,170.48,170.21,136.83,87.07,-0.0288,10.0,2.238,0.6499,5.5243,5.5624,6.71,-5.0711,-6.1874,8.0000,-140.66,94,200.0,268.0,-4.4212,-0.6631,4.4707,-98.53,-1.40,-98.53,-97.12,True,LEFT,0.700,0,0,STUCK,False,False,True,0,True,FORCE_AWAY_FROM_PERSON|STUCK_DETECTED,0.00,0
1764575327.8295853,39.802,54,TEST2_OBSTACLE_BYPASS,True,-8.1,2056.7,2056.7,359.78,0.978,0.0,-306.3,68.5,171.11,173.50,171.11,139.48,86.97,-0.0543,10.0,2.315,0.8854,5.9029,5.9689,8.53,-4.5192,-6.6013,8.0000,-145.60,73,200.0,139.0,-3.6338,-0.6984,3.7003,-100.88,-0.22,-100.88,-100.65,True,LEFT,0.700,0,0,STUCK,False,False,True,0,True,FORCE_AWAY_FROM_PERSON|STUCK_DETECTED,0.00,0
1764575327.8672273,39.840,55,TEST2_OBSTACLE_BYPASS,True,-8.1,2056.7,2056.7,359.78,0.978,0.0,-306.3,68.5,172.01,175.15,172.01,140.88,86.96,-0.0128,10.0,2.405,0.8854,5.9029,5.9689,8.53,-4.5192,-6.6013,8.0000,-145.60,73,200.0,139.0,-3.6338,-0.6984,3.7003,-100.88,-0.22,-100.88,-100.65,True,LEFT,0.700,0,0,STUCK,False,False,True,0,True,FORCE_AWAY_FROM_PERSON|STUCK_DETECTED,0.00,0
1764575327.9160876,39.889,56,TEST2_OBSTACLE_BYPASS,True,12.0,1954.1,1954.1,0.35,0.994,0.0,-306.3,68.5,173.28,176.83,173.28,142.04,87.08,-0.0671,10.0,2.516,0.9470,5.6110,5.6904,9.58,-3.7134,-7.0860,8.0000,-152.34,56,200.0,143.0,-2.7664,-1.4749,3.1350,-118.06,0.35,-118.06,-118.42,True,BACKWARDS_LEFT,0.470,0,0,STUCK,False,False,True,0,True,FORCE_AWAY_FROM_PERSON|STUCK_DETECTED,0.00,0
1764575327.9496217,39.922,57,TEST2_OBSTACLE_BYPASS,True,12.0,1954.1,1954.1,0.35,0.994,0.0,-302.6,68.1,174.16,174.93,174.16,139.75,87.30,-0.0415,10.0,2.638,0.9359,5.6120,5.6895,9.47,-3.7134,-7.0860,8.0000,-152.34,56,200.0,143.0,-2.7775,-1.4739,3.1443,-117.95,0.35,-117.95,-118.30,True,BACKWARDS_LEFT,0.472,0,0,STUCK,False,False,True,0,True,FORCE_AWAY_FROM_PERSON|STUCK_DETECTED,0.00,0
1764575327.9932518,39.966,58,TEST2_OBSTACLE_BYPASS,True,12.0,1954.1,1954.1,0.35,0.994,0.0,-298.4,67.7,173.86,172.40,173.86,136.80,87.50,0.0298,10.0,2.751,0.9236,5.6132,5.6887,9.34,-3.4628,-7.2117,8.0000,-154.35,45,200.0,143.0,-2.5393,-1.5985,3.0005,-122.19,0.35,-122.19,-122.54,True,BACKWARDS_LEFT,0.450,0,0,STUCK,False,False,True,0,True,FORCE_AWAY_FROM_PERSON|STUCK_DETECTED,0.00,0
1764575328.0327864,40.005,59,TEST2_OBSTACLE_BYPASS,True,50.3,1953.5,1954.1,1.48,0.994,0.0,-294.6,67.2,173.05,171.80,173.05,135.98,87.31,0.0160,10.0,2.846,1.0269,5.6160,5.7091,10.36,-3.4628,-7.2117,8.0000,-154.35,45,200.0,143.0,-2.4360,-1.5958,2.9121,-123.23,1.48,-123.23,-124.70,True,BACKWARDS_LEFT,0.437,0,0,STUCK,False,False,True,0,True,FORCE_AWAY_FROM_PERSON|STUCK_DETECTED,0.00,0
1764575328.0735497,40.046,60,TEST2_OBSTACLE_BYPASS,True,50.3,1953.5,1954.1,1.48,0.994,0.0,-290.9,66.8,173.30,178.80,173.30,142.30,86.73,0.0756,10.0,2.942,1.0159,5.6171,5.7082,10.25,-3.3436,-7.2678,8.0000,-155.29,49,200.0,143.0,-2.3277,-1.6507,2.8536,-125.34,1.48,-125.34,-126.82,True,BACKWARDS_LEFT,0.428,0,0,STUCK,False,False,True,0,True,FORCE_AWAY_FROM_PERSON|STUCK_DETECTED,0.00,0
1764575328.1159832,40.088,61,TEST2_OBSTACLE_BYPASS,True,50.3,1953.5,1954.1,1.48,0.994,0.0,-288.1,64.3,138.46,-178.40,138.46,143.92,86.17,0.0362,10.0,2.454,1.0078,5.6255,5.7151,10.16,-3.3436,-7.2678,8.0000,-155.29,49,200.0,143.0,-2.3358,-1.6423,2.8553,-125.11,1.48,-125.11,-126.59,True,BACKWARDS_LEFT,0.428,0,0,STUCK,False,False,True,0,True,FORCE_AWAY_FROM_PERSON|STUCK_DETECTED,0.00,0
1764575328.1563559,40.129,62,TEST2_OBSTACLE_BYPASS,True,50.3,1953.5,1954.1,1.48,0.994,0.0,-285.3,61.9,139.44,178.91,139.44,140.23,86.40,-0.0437,10.0,1.998,0.9997,5.6336,5.7216,10.06,-3.4766,-7.2051,8.0000,-154.24,50,200.0,143.0,-2.4769,-1.5715,2.9334,-122.39,1.48,-122.39,-123.87,True,BACKWARDS_LEFT,0.440,0,0,STUCK,False,False,True,0,True,FORCE_AWAY_FROM_PERSON|STUCK_DETECTED,0.00,0
1764575328.2021353,40.175,63,TEST2_OBSTACLE_BYPASS,True,50.3,1953.5,1954.1,1.48,0.994,0.0,-282.3,59.4,140.06,176.63,140.06,137.24,86.74,-0.0575,10.0,1.567,0.9909,5.6422,5.7286,9.96,-3.4766,-7.2051,8.0000,-154.24,50,200.0,143.0,-2.4857,-1.5628,2.9362,-122.16,1.48,-122.16,-123.63,True,BACKWARDS_LEFT,0.440,0,0,STUCK,False,False,True,0,True,FORCE_AWAY_FROM_PERSON|STUCK_DETECTED,0.00,0
1764575328.2325435,40.205,64,TEST2_OBSTACLE_BYPASS,False,0.0,0.0,0.0,0.00,0.000,0.0,-279.6,57.2,140.50,178.00,140.50,137.69,86.75,0.0341,10.0,1.157,0.9831,5.6497,5.7346,9.87,-3.1758,-7.3426,8.0000,-156.61,50,200.0,143.0,-2.1928,-1.6929,2.7702,-127.67,0.00,-127.67,0.00,False,NONE,0.000,0,0,STUCK,False,False,True,0,True,STUCK_DETECTED,0.00,0
1764575328.2750325,40.247,65,TEST2_OBSTACLE_BYPASS,False,0.0,0.0,0.0,0.00,0.000,0.0,-276.6,54.7,140.87,178.78,140.87,137.65,86.47,0.0874,10.0,0.765,0.9741,5.6582,5.7415,9.77,-3.1758,-7.3426,8.0000,-156.61,50,200.0,143.0,-2.2018,-1.6844,2.7722,-127.42,0.00,-127.42,0.00,False,NONE,0.000,0,0,STUCK,False,False,True,0,True,STUCK_DETECTED,0.00,0
1764575328.3110049,40.283,66,TEST2_OBSTACLE_BYPASS,False,0.0,0.0,0.0,0.00,0.000,0.0,-273.9,52.5,140.89,177.06,140.89,135.13,86.27,0.0618,10.0,0.385,0.9663,5.6656,5.7474,9.68,-2.7669,-7.5063,8.0000,-159.77,49,200.0,143.0,-1.8005,-1.8407,2.5749,-135.63,0.00,-135.63,0.00,False,NONE,0.000,0,0,STUCK,False,False,True,0,True,STUCK_DETECTED,0.00,0
1764575328.3547604,40.327,67,TEST2_OBSTACLE_BYPASS,False,0.0,0.0,0.0,0.00,0.000,0.0,-270.8,50.0,140.75,173.54,140.75,130.71,86.34,0.0075,10.0,0.015,0.9574,5.6741,5.7543,9.58,-2.7669,-7.5063,8.0000,-159.77,49,200.0,143.0,-1.8095,-1.8322,2.5751,-135.36,0.00,-135.36,0.00,False,NONE,0.000,0,0,STUCK,False,False,True,0,True,STUCK_DETECTED,0.00,0
1764575328.3936644,40.366,68,TEST2_OBSTACLE_BYPASS,False,0.0,0.0,0.0,0.00,0.000,0.0,-268.1,47.8,140.82,173.03,140.82,130.01,86.46,-0.0629,10.0,-0.343,0.9493,5.6817,5.7605,9.49,-2.5355,-7.5876,8.0000,-161.52,44,200.0,143.0,-1.5862,-1.9058,2.4796,-140.23,0.00,-140.23,0.00,False,NONE,0.000,0,0,STUCK,False,False,True,0,True,STUCK_DETECTED,0.00,0
1764575328.4363635,40.409,69,TEST2_OBSTACLE_BYPASS,False,0.0,0.0,0.0,0.00,0.000,0.0,-264.9,45.2,141.33,176.94,141.33,133.90,86.54,-0.0639,10.0,-0.683,0.9400,5.6904,5.7676,9.38,-2.4867,-7.6037,8.0000,-161.89,44,200.0,143.0,-1.5467,-1.9133,2.4603,-141.05,0.00,-141.05,0.00,False,NONE,0.000,0,0,STUCK,False,False,True,0,True,STUCK_DETECTED,0.00,0
1764575328.4768238,40.449,70,TEST2_OBSTACLE_BYPASS,False,0.0,0.0,0.0,0.00,0.000,0.0,-262.1,42.9,141.33,178.83,141.33,135.93,86.57,-0.0383,10.0,-1.013,0.9317,5.6982,5.7738,9.29,-2.4867,-7.6037,8.0000,-161.89,44,200.0,143.0,-1.5550,-1.9055,2.4595,-140.78,0.00,-140.78,0.00,False,NONE,0.000,0,0,STUCK,False,False,True,0,True,STUCK_DETECTED,0.00,0
1764575328.5278678,40.500,71,TEST2_OBSTACLE_BYPASS,True,140.0,1824.0,1829.4,4.39,0.999,0.0,-258.9,40.4,141.17,-180.00,141.17,137.59,86.68,-0.0202,10.0,-1.336,1.1766,5.2619,5.3918,12.60,-2.6399,-7.5519,8.0000,-160.73,46,200.0,143.0,-1.4633,-2.2900,2.7176,-147.42,4.39,-147.42,-151.81,True,BACKWARDS_LEFT,0.408,0,0,STUCK,False,False,True,0,True,FORCE_AWAY_FROM_PERSON|STUCK_DETECTED,0.00,0
1764575328.5621924,40.535,72,TEST2_OBSTACLE_BYPASS,True,140.0,1824.0,1829.4,4.39,0.999,0.0,-256.4,38.3,141.08,178.03,141.08,136.00,86.81,0.0128,10.0,-1.651,1.1694,5.2687,5.3969,12.51,-2.6494,-7.5485,8.0000,-160.66,46,200.0,143.0,-1.4801,-2.2799,2.7182,-147.01,4.39,-147.01,-151.40,True,BACKWARDS_LEFT,0.408,0,0,STUCK,False,False,True,0,True,FORCE_AWAY_FROM_PERSON|STUCK_DETECTED,0.00,0
1764575328.6007657,40.573,73,TEST2_OBSTACLE_BYPASS,True,244.2,1737.8,1754.8,8.00,0.891,0.0,-253.8,36.2,141.02,176.00,141.02,134.44,86.88,0.0181,10.0,-1.958,1.4602,4.9891,5.1984,16.31,-2.7643,-7.5073,8.0000,-159.79,51,200.0,143.0,-1.3041,-2.5181,2.8358,-152.62,8.00,-152.62,-160.62,True,BACKWARDS_LEFT,0.425,0,0,STUCK,False,False,True,0,True,FORCE_AWAY_FROM_PERSON|STUCK_DETECTED,0.00,0
1764575328.643404,40.616,74,TEST2_OBSTACLE_BYPASS,True,244.2,1737.8,1754.8,8.00,0.891,0.0,-251.0,34.0,140.80,175.83,140.80,134.39,86.82,0.0181,10.0,-2.260,1.4523,4.9965,5.2033,16.21,-2.7643,-7.5073,8.0000,-159.79,51,200.0,143.0,-1.3119,-2.5108,2.8328,-152.41,8.00,-152.41,-160.41,True,BACKWARDS_LEFT,0.425,0,0,STUCK,False,False,True,0,True,FORCE_AWAY_FROM_PERSON|STUCK_DETECTED,0.00,0
1764575328.6856132,40.658,75,TEST2_OBSTACLE_BYPASS,True,278.3,1732.6,1754.8,9.12,0.891,0.0,-248.1,31.6,140.51,175.85,140.51,134.70,87.23,0.0330,10.0,-2.558,1.5448,4.9922,5.2257,17.19,-3.4389,-7.2232,8.0000,-154.54,66,200.0,143.0,-1.8941,-2.2310,2.9266,-139.67,9.12,-139.67,-148.79,True,BACKWARDS_LEFT,0.439,0,0,STUCK,False,False,True,0,True,FORCE_AWAY_FROM_PERSON|STUCK_DETECTED,0.00,0
1764575328.7253394,40.698,76,TEST2_OBSTACLE_BYPASS,True,278.3,1732.6,1754.8,9.12,0.891,0.0,-245.2,29.2,140.34,175.37,140.34,134.63,87.34,0.0011,10.0,-2.849,1.5365,5.0000,5.2308,17.08,-3.4389,-7.2232,8.0000,-154.54,66,200.0,143.0,-1.9024,-2.2231,2.9260,-139.45,9.12,-139.45,-148.57,True,BACKWARDS_LEFT,0.439,0,0,STUCK,False,False,True,0,True,FORCE_AWAY_FROM_PERSON|STUCK_DETECTED,0.00,0
1764575328.7825866,40.755,77,TEST2_OBSTACLE_BYPASS,True,278.3,1732.6,1754.8,9.12,0.891,0.0,-241.4,26.1,140.61,176.26,140.61,136.00,87.35,-0.0224,10.0,-3.130,1.5257,5.0102,5.2374,16.94,-4.1262,-6.8538,8.0000,-148.95,75,200.0,143.0,-2.6005,-1.8436,3.1877,-125.33,9.12,-125.33,-134.46,True,BACKWARDS_LEFT,0.478,0,0,STUCK,False,False,True,0,True,FORCE_AWAY_FROM_PERSON|STUCK_DETECTED,0.00,0
1764575328.820197,40.793,78,TEST2_OBSTACLE_BYPASS,True,278.3,1732.6,1754.8,9.12,0.891,0.0,-238.1,23.4,141.11,177.95,141.11,137.93,87.33,-0.0032,10.0,-3.397,1.5163,5.0189,5.2430,16.81,-4.8403,-6.3695,8.0000,-142.77,85,200.0,143.0,-3.3240,-1.3506,3.5879,-112.11,9.12,-112.11,-121.24,True,LEFT,0.700,0,0,STUCK,False,False,True,0,True,FORCE_AWAY_FROM_PERSON|STUCK_DETECTED,0.00,0
1764575328.8552568,40.828,79,TEST2_OBSTACLE_BYPASS,True,278.3,1732.6,1754.8,9.12,0.891,0.0,-238.1,23.4,141.33,179.21,141.33,139.71,87.30,-0.0181,10.0,-3.654,1.5163,5.0189,5.2430,16.81,-4.8403,-6.3695,8.0000,-142.77,85,200.0,143.0,-3.3240,-1.3506,3.5879,-112.11,9.12,-112.11,-121.24,True,LEFT,0.700,0,0,STUCK,False,False,True,0,True,FORCE_AWAY_FROM_PERSON|STUCK_DETECTED,0.00,0
1764575328.90037,40.873,80,TEST2_OBSTACLE_BYPASS,True,312.3,1726.8,1754.8,10.25,0.891,0.0,-238.1,23.4,141.34,178.94,141.34,140.67,87.24,0.0202,10.0,-3.905,1.6169,5.0045,5.2592,17.91,-5.4559,-5.8510,8.0000,-137.00,104,200.0,143.0,-3.8389,-0.8465,3.9312,-102.43,10.25,-102.43,-112.68,True,LEFT,0.700,0,0,STUCK,False,False,True,0,True,FORCE_AWAY_FROM_PERSON|STUCK_DETECTED,0.00,0
1764575328.9363387,40.909,81,TEST2_OBSTACLE_BYPASS,False,0.0,0.0,0.0,0.00,0.000,0.0,-238.1,23.4,176.97,176.25,176.97,139.80,87.35,0.0075,10.0,-3.704,1.6169,5.0045,5.2592,17.91,-5.4559,-5.8510,8.0000,-137.00,104,200.0,143.0,-3.8389,-0.8465,3.9312,-102.43,0.00,-102.43,0.00,False,NONE,0.000,0,0,STUCK,False,False,True,0,True,STUCK_DETECTED,0.00,0
1764575328.974306,40.947,82,TEST2_OBSTACLE_BYPASS,False,0.0,0.0,0.0,0.00,0.000,0.0,-238.1,23.4,176.66,174.89,176.66,139.62,87.54,-0.0213,10.0,-3.512,1.6169,5.0045,5.2592,17.91,-5.7653,-5.5463,8.0000,-133.89,117,200.0,143.0,-4.1484,-0.5418,4.1836,-97.44,0.00,-97.44,0.00,False,NONE,0.000,0,0,STUCK,False,False,True,0,True,STUCK_DETECTED,0.00,0
1764575329.0194535,40.992,83,TEST2_OBSTACLE_BYPASS,True,329.7,1546.4,1581.1,12.04,0.937,0.0,-238.1,23.4,176.61,175.52,176.61,140.95,87.56,-0.0128,10.0,-3.325,1.6341,4.3831,4.6778,20.45,-5.7653,-5.5463,8.0000,-133.89,117,200.0,143.0,-4.1312,-1.1632,4.2918,-105.73,12.04,-105.73,-117.76,True,LEFT,0.700,0,0,STUCK,False,False,True,0,True,FORCE_AWAY_FROM_PERSON|STUCK_DETECTED,0.00,0
1764575329.0553598,41.028,84,TEST2_OBSTACLE_BYPASS,True,329.7,1546.4,1581.1,12.04,0.937,0.0,-238.1,23.4,176.67,176.44,176.67,142.28,87.57,-0.0053,10.0,-3.141,1.6341,4.3831,4.6778,20.45,-6.0462,-5.2387,8.0000,-130.91,125,200.0,143.0,-4.4120,-0.8556,4.4942,-100.97,12.04,-100.97,-113.01,True,LEFT,0.700,0,0,STUCK,False,False,True,0,True,FORCE_AWAY_FROM_PERSON|STUCK_DETECTED,0.00,0
1764575329.0998542,41.072,85,TEST2_OBSTACLE_BYPASS,True,329.7,1546.4,1581.1,12.04,0.937,0.0,-238.1,23.4,176.66,175.80,176.66,142.81,87.59,-0.0032,10.0,-2.963,1.6341,4.3831,4.6778,20.45,-6.0462,-5.2387,8.0000,-130.91,125,200.0,143.0,-4.4120,-0.8556,4.4942,-100.97,12.04,-100.97,-113.01,True,LEFT,0.700,0,0,STUCK,False,False,True,0,True,FORCE_AWAY_FROM_PERSON|STUCK_DETECTED,0.00,0
1764575329.13902,41.111,86,TEST2_OBSTACLE_BYPASS,True,360.0,1539.6,1581.1,13.16,0.937,0.0,-238.1,23.4,176.65,175.28,176.65,142.67,87.56,-0.0245,10.0,-2.788,1.7224,4.3664,4.6938,21.53,-5.9441,-5.3543,8.0000,-132.01,124,200.0,137.0,-4.2216,-0.9879,4.3357,-103.17,13.16,-103.17,-116.33,True,LEFT,0.700,0,0,STUCK,False,False,True,0,True,FORCE_AWAY_FROM_PERSON|STUCK_DETECTED,0.00,0
1764575329.180112,41.153,87,TEST2_OBSTACLE_BYPASS,True,347.1,1445.3,1486.4,13.50,0.835,0.0,-238.1,23.4,176.72,176.97,176.72,144.79,87.70,-0.0373,10.0,-2.617,1.6624,4.0394,4.3681,22.37,-5.9441,-5.3543,8.0000,-132.01,124,200.0,137.0,-4.2817,-1.3149,4.4790,-107.07,13.50,-107.07,-120.57,True,LEFT,0.700,0,0,STUCK,False,False,True,0,True,FORCE_AWAY_FROM_PERSON|STUCK_DETECTED,0.00,0
1764575329.2171443,41.190,88,TEST2_OBSTACLE_BYPASS,True,347.1,1445.3,1486.4,13.50,0.835,0.0,-238.1,23.4,176.73,177.97,176.73,146.02,87.92,0.0213,10.0,-2.450,1.6624,4.0394,4.3681,22.37,-5.9726,-5.3224,8.0000,-131.71,114,200.0,137.0,-4.3102,-1.2831,4.4971,-106.58,13.50,-106.58,-120.08,True,LEFT,0.700,0,0,STUCK,False,False,True,0,True,FORCE_AWAY_FROM_PERSON|STUCK_DETECTED,0.00,0
1764575329.2623153,41.235,89,TEST2_OBSTACLE_BYPASS,True,331.8,1404.9,1443.5,13.29,0.812,0.0,-238.1,23.4,176.59,177.83,176.59,146.31,87.71,0.0554,10.0,-2.288,1.6075,3.8970,4.2155,22.42,-5.9726,-5.3224,8.0000,-131.71,114,200.0,137.0,-4.3651,-1.4254,4.5919,-108.08,13.29,-108.08,-121.37,True,LEFT,0.700,0,0,STUCK,False,False,True,0,True,FORCE_AWAY_FROM_PERSON|STUCK_DETECTED,0.00,0
1764575329.2972279,41.270,90,TEST2_OBSTACLE_BYPASS,True,331.8,1404.9,1443.5,13.29,0.812,0.0,-238.1,23.4,176.25,175.55,176.25,144.51,87.74,0.0629,10.0,-2.134,1.6075,3.8970,4.2155,22.42,-5.5535,-5.7584,8.0000,-136.04,106,250.0,241.0,-3.9460,-1.8614,4.3630,-115.25,13.29,-115.25,-128.54,True,BACKWARDS_LEFT,0.500,0,0,STUCK,False,False,True,0,True,FORCE_AWAY_FROM_PERSON|STUCK_DETECTED,0.00,0
1764575329.3425653,41.315,91,TEST2_OBSTACLE_BYPASS,True,269.2,1414.2,1439.5,10.78,0.836,0.0,-233.6,23.1,175.84,172.16,175.84,141.33,87.72,0.0373,10.0,-1.987,1.4146,3.9139,4.1617,19.87,-5.5255,-5.7852,8.0000,-136.32,106,250.0,241.0,-4.1109,-1.8713,4.5168,-114.48,10.78,-114.48,-125.25,True,BACKWARDS_LEFT,0.500,0,0,STUCK,False,False,True,0,True,FORCE_AWAY_FROM_PERSON|STUCK_DETECTED,0.00,0
1764575329.38425,41.357,92,TEST2_OBSTACLE_BYPASS,True,296.9,1408.6,1439.5,11.90,0.836,0.0,-229.3,22.7,175.35,169.94,175.35,138.89,87.67,0.0075,10.0,-1.849,1.4815,3.9014,4.1732,20.79,-5.5527,-5.7592,8.0000,-136.05,106,250.0,241.0,-4.0712,-1.8578,4.4750,-114.53,11.90,-114.53,-126.43,True,BACKWARDS_LEFT,0.500,0,0,STUCK,False,False,True,0,True,FORCE_AWAY_FROM_PERSON|STUCK_DETECTED,0.00,0
1764575329.4304888,41.403,93,TEST2_OBSTACLE_BYPASS,True,296.9,1408.6,1439.5,11.90,0.836,0.0,-225.0,22.4,174.87,170.81,174.87,139.18,87.64,0.0394,10.0,-1.720,1.4690,3.9017,4.1691,20.63,-5.5527,-5.7592,8.0000,-136.05,106,250.0,241.0,-4.0837,-1.8574,4.4862,-114.46,11.90,-114.46,-126.36,True,BACKWARDS_LEFT,0.500,0,0,STUCK,False,False,True,0,True,FORCE_AWAY_FROM_PERSON|STUCK_DETECTED,0.00,0
1764575329.4607654,41.433,94,TEST2_OBSTACLE_BYPASS,True,296.9,1408.6,1439.5,11.90,0.836,0.0,-221.1,22.0,174.51,172.76,174.51,140.53,87.40,0.0746,10.0,-1.597,1.4577,3.9021,4.1655,20.48,-5.4704,-5.8374,8.0000,-136.86,99,250.0,137.0,-4.0127,-1.9353,4.4550,-115.75,11.90,-115.75,-127.65,True,BACKWARDS_LEFT,0.500,0,0,STUCK,False,False,True,0,True,FORCE_AWAY_FROM_PERSON|STUCK_DETECTED,0.00,4
1764575329.5083833,41.481,95,TEST2_OBSTACLE_BYPASS,True,296.9,1408.6,1439.5,11.90,0.836,0.0,-216.6,21.5,174.36,174.32,174.36,141.24,87.11,0.0916,10.0,-1.478,1.4448,3.9026,4.1614,20.31,-5.4704,-5.8374,8.0000,-136.86,99,250.0,137.0,-4.0256,-1.9348,4.4664,-115.67,11.90,-115.67,-127.57,True,BACKWARDS_LEFT,0.500,0,0,STUCK,False,False,True,0,True,FORCE_AWAY_FROM_PERSON|STUCK_DETECTED,0.00,4
1764575329.546593,41.519,96,TEST2_OBSTACLE_BYPASS,True,296.9,1408.6,1439.5,11.90,0.836,0.0,-212.4,21.1,173.91,170.77,173.91,136.28,86.82,0.1108,10.0,-1.366,1.4327,3.9031,4.1578,20.16,-5.2650,-6.0233,8.0000,-138.84,87,250.0,137.0,-3.8322,-2.1201,4.3796,-118.95,11.90,-118.95,-130.86,True,BACKWARDS_LEFT,0.500,0,0,STUCK,False,False,True,0,True,FORCE_AWAY_FROM_PERSON|STUCK_DETECTED,0.00,10
1764575329.5867612,41.559,97,TEST2_OBSTACLE_BYPASS,True,324.5,1402.5,1439.5,13.03,0.836,0.0,-208.5,20.6,172.98,167.71,172.98,132.10,86.67,0.0874,10.0,-1.267,1.5002,3.8894,4.1687,21.09,-5.2650,-6.0233,8.0000,-138.84,87,250.0,137.0,-3.7647,-2.1339,4.3275,-119.55,13.03,-119.55,-132.57,True,BACKWARDS_LEFT,0.500,0,0,STUCK,False,False,True,0,True,FORCE_AWAY_FROM_PERSON|STUCK_DETECTED,0.00,9
1764575329.628427,41.601,98,TEST2_OBSTACLE_BYPASS,True,208.2,1436.1,1451.1,8.25,0.997,0.0,-203.8,19.9,171.99,168.08,171.99,129.79,86.41,-0.0021,10.0,-1.179,1.1581,3.9814,4.1464,16.22,-5.0441,-6.2094,8.0000,-140.91,74,300.0,137.0,-3.8860,-2.2280,4.4794,-119.83,8.25,-119.83,-128.07,True,BACKWARDS_LEFT,0.500,0,0,STUCK,False,False,True,0,True,FORCE_AWAY_FROM_PERSON|STUCK_DETECTED,0.00,11
1764575329.6673965,41.640,99,TEST2_OBSTACLE_BYPASS,True,208.2,1436.1,1451.1,8.25,0.997,0.0,-199.7,19.3,171.19,169.76,171.19,129.70,86.39,-0.0309,10.0,-1.102,1.1466,3.9828,4.1446,16.06,-4.8401,-6.3697,8.0000,-142.77,71,300.0,137.0,-3.6935,-2.3869,4.3976,-122.87,8.25,-122.87,-131.12,True,BACKWARDS_LEFT,0.500,0,0,STUCK,False,False,True,0,True,FORCE_AWAY_FROM_PERSON|STUCK_DETECTED,0.00,12
1764575329.711078,41.683,100,TEST2_OBSTACLE_BYPASS,True,208.2,1436.1,1451.1,8.25,0.997,0.0,-195.3,18.6,170.60,169.67,170.60,127.68,86.49,-0.0021,10.0,-1.032,1.1342,3.9845,4.1428,15.89,-4.8401,-6.3697,8.0000,-142.77,71,300.0,137.0,-3.7059,-2.3852,4.4071,-122.77,8.25,-122.77,-131.01,True,BACKWARDS_LEFT,0.500,0,0,STUCK,False,False,True,0,True,FORCE_AWAY_FROM_PERSON|STUCK_DETECTED,0.00,12
1764575329.7457824,41.718,101,TEST2_OBSTACLE_BYPASS,True,208.2,1436.1,1451.1,8.25,0.997,0.0,-191.4,17.9,170.17,167.91,170.17,124.74,86.51,0.0288,10.0,-0.968,1.1232,3.9861,4.1414,15.74,-4.5627,-6.5713,8.0000,-145.23,62,300.0,137.0,-3.4395,-2.5852,4.3027,-126.93,8.25,-126.93,-135.18,True,BACKWARDS_LEFT,0.500,0,0,STUCK,False,False,True,0,True,FORCE_AWAY_FROM_PERSON|STUCK_DETECTED,0.00,11
1764575329.7941477,41.767,102,TEST2_OBSTACLE_BYPASS,True,241.9,1478.9,1498.6,9.29,0.995,0.0,-186.9,17.1,169.98,167.98,169.98,124.59,86.46,-0.0298,10.0,-0.916,1.2155,4.1433,4.3179,16.35,-4.5627,-6.5713,8.0000,-145.23,62,300.0,137.0,-3.3472,-2.4280,4.1351,-125.96,9.29,-125.96,-135.25,True,BACKWARDS_LEFT,0.500,0,0,STUCK,False,False,True,0,True,FORCE_AWAY_FROM_PERSON|STUCK_DETECTED,0.00,10
1764575329.8295038,41.802,103,TEST2_OBSTACLE_BYPASS,True,270.9,1473.9,1498.6,10.42,0.995,0.0,-183.1,16.4,169.91,170.12,169.91,126.59,86.58,-0.1065,10.0,-0.865,1.2876,4.1330,4.3289,17.30,-4.3829,-6.6926,8.0000,-146.78,59,350.0,137.0,-3.0952,-2.5596,4.0165,-129.59,10.42,-129.59,-140.00,True,BACKWARDS_LEFT,0.500,0,0,STUCK,False,False,True,0,True,FORCE_AWAY_FROM_PERSON|STUCK_DETECTED,0.00,11
1764575329.8728943,41.845,104,TEST2_OBSTACLE_BYPASS,True,319.5,1499.4,1533.1,12.03,0.990,0.0,-178.4,15.6,170.02,173.85,170.02,130.36,86.72,-0.0650,10.0,-0.813,1.4207,4.2332,4.4653,18.55,-4.3829,-6.6926,8.0000,-146.78,59,350.0,137.0,-2.9622,-2.4593,3.8501,-129.70,12.03,-129.70,-141.73,True,BACKWARDS_LEFT,0.500,0,0,STUCK,False,False,True,0,True,FORCE_AWAY_FROM_PERSON|STUCK_DETECTED,0.00,11
1764575329.9101985,41.883,105,TEST2_OBSTACLE_BYPASS,True,319.5,1499.4,1533.1,12.03,0.990,0.0,-174.6,14.9,170.07,174.84,170.07,131.70,86.66,-0.0011,10.0,-0.760,1.4095,4.2348,4.4632,18.41,-4.4411,-6.6540,8.0000,-146.28,69,350.0,137.0,-3.0316,-2.4193,3.8786,-128.59,12.03,-128.59,-140.62,True,BACKWARDS_LEFT,0.500,0,0,STUCK,False,False,True,0,True,FORCE_AWAY_FROM_PERSON|STUCK_DETECTED,0.00,14
1764575329.9533749,41.926,106,TEST2_OBSTACLE_BYPASS,True,352.2,1509.0,1549.5,13.14,0.979,0.0,-170.1,14.2,170.34,173.47,170.34,131.65,86.71,0.0362,10.0,-0.704,1.4942,4.2761,4.5297,19.26,-4.4411,-6.6540,8.0000,-146.28,69,350.0,137.0,-2.9470,-2.3779,3.7867,-128.90,13.14,-128.90,-142.04,True,BACKWARDS_LEFT,0.500,0,0,STUCK,False,False,True,0,True,FORCE_AWAY_FROM_PERSON|STUCK_DETECTED,0.00,10
1764575329.994771,41.967,107,TEST2_OBSTACLE_BYPASS,True,352.2,1509.0,1549.5,13.14,0.979,0.0,-165.8,13.5,170.80,172.30,170.80,131.35,86.71,0.0277,10.0,-0.644,1.4818,4.2776,4.5270,19.11,-4.5619,-6.5718,8.0000,-145.23,78,350.0,137.0,-3.0801,-2.2942,3.8406,-126.68,13.14,-126.68,-139.82,True,BACKWARDS_LEFT,0.500,0,0,STUCK,False,False,True,0,True,FORCE_AWAY_FROM_PERSON|STUCK_DETECTED,0.00,12
1764575330.039144,42.012,108,TEST2_OBSTACLE_BYPASS,True,381.7,1501.7,1549.5,14.26,0.979,0.0,-161.4,12.8,170.91,169.18,170.91,129.27,86.93,-0.0053,10.0,-0.582,1.5542,4.2605,4.5351,20.04,-4.5619,-6.5718,8.0000,-145.23,78,350.0,137.0,-3.0077,-2.3113,3.7932,-127.54,14.26,-127.54,-141.80,True,BACKWARDS_LEFT,0.500,0,0,STUCK,False,False,True,0,True,FORCE_AWAY_FROM_PERSON|STUCK_DETECTED,0.00,12
1764575330.0791113,42.052,109,TEST2_OBSTACLE_BYPASS,True,381.7,1501.7,1549.5,14.26,0.979,0.0,-157.3,12.1,170.71,167.82,170.71,128.00,86.89,-0.0181,10.0,-0.522,1.5423,4.2619,4.5324,19.89,-4.7747,-6.4189,8.0000,-143.36,87,350.0,137.0,-3.2324,-2.1570,3.8860,-123.72,14.26,-123.72,-137.98,True,BACKWARDS_LEFT,0.500,0,0,STUCK,False,False,True,0,True,FORCE_AWAY_FROM_PERSON|STUCK_DETECTED,0.00,17
1764575330.1158226,42.088,110,TEST2_OBSTACLE_BYPASS,True,381.7,1501.7,1549.5,14.26,0.979,0.0,-153.2,11.4,170.55,168.03,170.55,128.39,86.94,0.0085,10.0,-0.464,1.5304,4.2634,4.5298,19.75,-4.7747,-6.4189,8.0000,-143.36,87,350.0,137.0,-3.2443,-2.1555,3.8951,-123.60,14.26,-123.60,-137.86,True,BACKWARDS_LEFT,0.500,0,0,STUCK,False,False,True,0,True,FORCE_AWAY_FROM_PERSON|STUCK_DETECTED,0.00,17
1764575330.1612167,42.134,111,TEST2_OBSTACLE_BYPASS,True,381.7,1501.7,1549.5,14.26,0.979,0.0,-148.8,10.7,170.75,169.90,170.75,130.55,86.78,-0.0053,10.0,-0.404,1.5177,4.2650,4.5269,19.59,-4.9719,-6.2674,8.0000,-141.58,93,350.0,137.0,-3.4542,-2.0025,3.9927,-120.10,14.26,-120.10,-134.36,True,BACKWARDS_LEFT,0.500,0,0,STUCK,False,False,True,0,True,FORCE_AWAY_FROM_PERSON|STUCK_DETECTED,0.00,20
1764575330.2026176,42.175,112,TEST2_OBSTACLE_BYPASS,True,381.7,1501.7,1549.5,14.26,0.979,0.0,-144.8,10.1,171.12,171.74,171.12,132.65,86.82,-0.0138,10.0,-0.340,1.5061,4.2663,4.5243,19.44,-4.9719,-6.2674,8.0000,-141.58,93,350.0,137.0,-3.4657,-2.0012,4.0020,-120.00,14.26,-120.00,-134.27,True,BACKWARDS_LEFT,0.500,0,0,STUCK,False,False,True,0,True,FORCE_AWAY_FROM_PERSON|STUCK_DETECTED,0.00,20
1764575330.2430897,42.216,113,TEST2_OBSTACLE_BYPASS,True,411.2,1494.0,1549.5,15.39,0.979,0.0,-140.1,9.4,171.36,172.48,171.36,133.78,86.86,-0.0160,10.0,-0.273,1.5772,4.2472,4.5305,20.37,-5.1950,-6.0838,8.0000,-139.51,91,350.0,119.0,-3.6178,-1.8366,4.0573,-116.92,15.39,-116.92,-132.30,True,BACKWARDS_LEFT,0.500,0,0,STUCK,False,False,True,0,True,FORCE_AWAY_FROM_PERSON|STUCK_DETECTED,0.00,12
1764575330.2815995,42.254,114,TEST2_OBSTACLE_BYPASS,False,0.0,0.0,0.0,0.00,0.000,0.0,-135.8,8.7,171.10,171.28,171.10,133.23,86.90,0.0032,10.0,-0.208,1.5646,4.2486,4.5275,20.22,-5.3275,-5.9681,8.0000,-138.25,88,350.0,119.0,-3.7629,-1.7195,4.1372,-114.56,0.00,-114.56,0.00,False,NONE,0.000,0,0,STUCK,False,False,True,0,True,STUCK_DETECTED,0.00,0
1764575330.3248127,42.297,115,TEST2_OBSTACLE_BYPASS,False,0.0,0.0,0.0,0.00,0.000,0.0,-131.5,8.0,170.38,167.62,170.38,130.58,86.96,0.0234,10.0,-0.150,1.5520,4.2501,4.5247,20.06,-5.3275,-5.9681,8.0000,-138.25,88,350.0,119.0,-3.7755,-1.7179,4.1479,-114.47,0.00,-114.47,0.00,False,NONE,0.000,0,0,STUCK,False,False,True,0,True,STUCK_DETECTED,0.00,0
1764575330.3609579,42.333,116,TEST2_OBSTACLE_BYPASS,False,0.0,0.0,0.0,0.00,0.000,0.0,-127.6,7.3,169.78,167.44,169.78,131.01,87.10,-0.0085,10.0,-0.100,1.5408,4.2517,4.5223,19.92,-5.5021,-5.8074,8.0000,-136.55,86,350.0,119.0,-3.9614,-1.5557,4.2559,-111.44,0.00,-111.44,0.00,False,NONE,0.000,0,0,STUCK,False,False,True,0,True,STUCK_DETECTED,0.00,0
1764575330.4051318,42.378,117,TEST2_OBSTACLE_BYPASS,False,0.0,0.0,0.0,0.00,0.000,0.0,-123.1,6.4,169.49,169.38,169.49,133.63,86.99,-0.0064,10.0,-0.056,1.5276,4.2537,4.5197,19.75,-5.5021,-5.8074,8.0000,-136.55,86,350.0,119.0,-3.9745,-1.5538,4.2674,-111.35,0.00,-111.35,0.00,False,NONE,0.000,0,0,STUCK,False,False,True,0,True,STUCK_DETECTED,0.00,0
1764575330.4414592,42.414,118,TEST2_OBSTACLE_BYPASS,False,0.0,0.0,0.0,0.00,0.000,0.0,-119.3,5.7,169.53,169.59,169.53,134.58,86.97,-0.0138,10.0,-0.015,1.5167,4.2553,4.5175,19.62,-5.6537,-5.6601,8.0000,-135.03,86,400.0,119.0,-4.1370,-1.4048,4.3690,-108.76,0.00,-108.76,0.00,False,NONE,0.000,0,0,STUCK,False,False,True,0,True,STUCK_DETECTED,0.00,0
1764575330.4828496,42.455,119,TEST2_OBSTACLE_BYPASS,False,0.0,0.0,0.0,0.00,0.000,0.0,-115.0,4.9,169.63,168.88,169.63,135.69,87.21,-0.0352,10.0,0.027,1.5044,4.2571,4.5151,19.46,-5.6537,-5.6601,8.0000,-135.03,86,400.0,119.0,-4.1493,-1.4030,4.3800,-108.68,0.00,-108.68,0.00,False,NONE,0.000,0,0,STUCK,False,False,True,0,True,STUCK_DETECTED,0.00,0
1764575330.5221045,42.495,120,TEST2_OBSTACLE_BYPASS,False,0.0,0.0,0.0,0.00,0.000,0.0,-111.0,4.2,169.73,169.00,169.73,136.42,87.19,-0.0213,10.0,0.070,1.4926,4.2587,4.5127,19.32,-5.9525,-5.3448,8.0000,-131.92,92,400.0,119.0,-4.4599,-1.0861,4.5902,-103.69,0.00,-103.69,0.00,False,NONE,0.000,0,0,STUCK,False,False,True,0,True,STUCK_DETECTED,0.00,0
1764575330.5646868,42.537,121,TEST2_OBSTACLE_BYPASS,False,0.0,0.0,0.0,0.00,0.000,0.0,-106.6,3.4,169.72,169.82,169.72,138.06,87.22,0.0213,10.0,0.112,1.4800,4.2606,4.5103,19.16,-5.9525,-5.3448,8.0000,-131.92,92,400.0,119.0,-4.4726,-1.0843,4.6021,-103.63,0.00,-103.63,0.00,False,NONE,0.000,0,0,STUCK,False,False,True,0,True,STUCK_DETECTED,0.00,0
1764575330.6034312,42.576,122,TEST2_OBSTACLE_BYPASS,False,0.0,0.0,0.0,0.00,0.000,0.0,-102.5,2.7,169.55,170.01,169.55,138.81,87.13,0.0277,10.0,0.150,1.4682,4.2623,4.5081,19.01,-6.0652,-5.2166,8.0000,-130.70,89,400.0,119.0,-4.5970,-0.9543,4.6950,-101.73,0.00,-101.73,0.00,False,NONE,0.000,0,0,STUCK,False,False,True,0,True,STUCK_DETECTED,0.00,0
1764575330.6422596,42.615,123,TEST2_OBSTACLE_BYPASS,False,0.0,0.0,0.0,0.00,0.000,0.0,-98.6,1.9,169.29,169.87,169.29,139.42,87.07,-0.0032,10.0,0.178,1.4568,4.2641,4.5061,18.86,-6.0652,-5.2166,8.0000,-130.70,89,400.0,119.0,-4.6085,-0.9525,4.7059,-101.68,0.00,-101.68,0.00,False,NONE,0.000,0,0,STUCK,False,False,True,0,True,STUCK_DETECTED,0.00,0
1764575330.689218,42.662,124,TEST2_OBSTACLE_BYPASS,True,654.6,1546.9,1679.8,22.94,0.921,0.0,-94.2,1.1,169.17,170.12,169.17,140.27,87.21,-0.0426,10.0,0.198,2.1812,4.5031,5.0036,25.84,-6.2009,-5.0545,8.0000,-129.18,84,400.0,119.0,-4.0197,-0.5514,4.0574,-97.81,22.94,-97.81,-120.75,True,LEFT,0.700,0,0,STUCK,False,False,True,0,True,FORCE_AWAY_FROM_PERSON|STUCK_DETECTED,0.00,0
1764575330.7274961,42.700,125,TEST2_OBSTACLE_BYPASS,True,654.6,1546.9,1679.8,22.94,0.921,0.0,-94.2,1.1,169.52,171.11,169.52,141.44,87.23,-0.0415,10.0,0.217,2.1812,4.5031,5.0036,25.84,-6.2009,-5.0545,8.0000,-129.18,84,400.0,119.0,-4.0197,-0.5514,4.0574,-97.81,22.94,-97.81,-120.75,True,LEFT,0.700,0,0,STUCK,False,False,True,0,True,FORCE_AWAY_FROM_PERSON|STUCK_DETECTED,0.00,0
1764575330.7688537,42.741,126,TEST2_OBSTACLE_BYPASS,True,654.6,1546.9,1679.8,22.94,0.921,0.0,-94.2,1.1,169.97,171.97,169.97,142.51,87.21,-0.0320,10.0,0.240,2.1812,4.5031,5.0036,25.84,-6.2927,-4.9398,8.0000,-128.13,86,450.0,254.0,-4.1115,-0.4367,4.1346,-96.06,22.94,-96.06,-119.00,True,LEFT,0.700,0,0,STUCK,False,False,True,0,True,FORCE_AWAY_FROM_PERSON|STUCK_DETECTED,0.00,0
1764575330.8053703,42.778,127,TEST2_OBSTACLE_BYPASS,True,654.6,1546.9,1679.8,22.94,0.921,0.0,-94.2,1.1,170.35,173.08,170.35,143.97,87.26,0.0000,10.0,0.267,2.1812,4.5031,5.0036,25.84,-6.2927,-4.9398,8.0000,-128.13,86,450.0,254.0,-4.1115,-0.4367,4.1346,-96.06,22.94,-96.06,-119.00,True,LEFT,0.700,0,0,STUCK,False,False,True,0,True,FORCE_AWAY_FROM_PERSON|STUCK_DETECTED,0.00,0
1764575330.8495963,42.822,128,TEST2_OBSTACLE_BYPASS,True,654.6,1546.9,1679.8,22.94,0.921,0.0,-94.2,1.1,170.75,173.67,170.75,144.95,87.26,-0.0160,10.0,0.294,2.1812,4.5031,5.0036,25.84,-6.5066,-4.6545,8.0000,-125.58,88,450.0,254.0,-4.3254,-0.1513,4.3280,-92.00,22.94,-92.00,-114.94,True,LEFT,0.700,0,0,STUCK,False,False,True,0,True,FORCE_AWAY_FROM_PERSON|STUCK_DETECTED,0.00,0
1764575330.8886483,42.861,129,TEST2_OBSTACLE_BYPASS,True,684.9,1533.8,1679.8,24.06,0.921,0.0,-94.2,1.1,171.41,175.46,171.41,147.55,87.20,-0.0479,10.0,0.321,2.2698,4.4657,5.0095,26.94,-6.5066,-4.6545,8.0000,-125.58,88,450.0,254.0,-4.2368,-0.1887,4.2410,-92.55,24.06,-92.55,-116.61,True,LEFT,0.700,0,0,STUCK,False,False,True,0,True,FORCE_AWAY_FROM_PERSON|STUCK_DETECTED,0.00,0
1764575330.929598,42.902,130,TEST2_OBSTACLE_BYPASS,True,684.9,1533.8,1679.8,24.06,0.921,0.0,-94.2,1.1,172.34,178.25,172.34,151.16,87.25,-0.0831,10.0,0.348,2.2698,4.4657,5.0095,26.94,-6.6753,-4.4092,8.0000,-123.45,89,450.0,254.0,-4.4055,0.0565,4.4058,-89.26,24.06,-89.26,-113.33,True,LEFT,0.700,0,0,STUCK,False,False,True,0,True,FORCE_AWAY_FROM_PERSON|STUCK_DETECTED,0.00,0
1764575330.9663997,42.939,131,TEST2_OBSTACLE_BYPASS,True,684.9,1533.8,1679.8,24.06,0.921,0.0,-94.2,1.1,137.56,-177.98,137.56,155.51,87.25,-0.0724,10.0,0.021,2.2698,4.4657,5.0095,26.94,-6.6753,-4.4092,8.0000,-123.45,89,450.0,254.0,-4.4055,0.0565,4.4058,-89.26,24.06,-89.26,-113.33,True,LEFT,0.700,0,0,STUCK,False,False,True,0,True,FORCE_AWAY_FROM_PERSON|STUCK_DETECTED,0.00,0
1764575331.0069435,42.979,132,TEST2_OBSTACLE_BYPASS,False,0.0,0.0,0.0,0.00,0.000,0.0,-94.2,1.1,103.05,-175.08,103.05,158.90,87.36,-0.0245,10.0,-0.654,2.2698,4.4657,5.0095,26.94,-6.7529,-4.2893,8.0000,-122.42,79,450.0,254.0,-4.4832,0.1765,4.4866,-87.75,0.00,-87.75,0.00,False,NONE,0.000,0,0,STUCK,False,False,True,0,True,STUCK_DETECTED,0.00,0
1764575331.044416,43.017,133,TEST2_OBSTACLE_BYPASS,False,0.0,0.0,0.0,0.00,0.000,0.0,-94.2,1.1,68.66,-173.98,68.66,160.53,87.18,-0.0032,10.0,-1.675,2.2698,4.4657,5.0095,26.94,-6.7529,-4.2893,8.0000,-122.42,79,450.0,254.0,-4.4832,0.1765,4.4866,-87.75,0.00,-87.75,0.00,False,NONE,0.000,0,0,RECOVERING,True,False,True,0,True,STUCK_DETECTED,0.00,0
1764575331.0959713,43.068,134,TEST2_OBSTACLE_BYPASS,True,371.7,1734.4,1773.7,12.10,0.996,0.0,-94.2,1.1,34.41,-172.42,34.41,163.73,87.03,-0.0373,10.0,-3.041,1.3693,5.0950,5.2758,15.04,-6.8131,-4.1931,8.0000,-121.61,73,500.0,254.0,-5.4438,0.9019,5.5180,-80.59,12.10,-80.59,-92.69,True,LEFT,0.700,0,0,RECOVERING,False,False,True,0,True,FORCE_AWAY_FROM_PERSON|STUCK_DETECTED,0.00,0
1764575331.140457,43.113,135,TEST2_OBSTACLE_BYPASS,True,405.7,1726.7,1773.7,13.22,0.996,0.0,-94.2,1.1,0.16,-171.32,0.16,165.69,87.15,-0.0138,10.0,-4.756,1.4695,5.0735,5.2821,16.15,-6.9325,-3.9925,8.0000,-119.94,70,500.0,255.0,-5.4630,1.0811,5.5690,-78.81,13.22,-78.81,-92.03,True,LEFT,0.700,0,0,RECOVERING,False,False,True,0,True,FORCE_AWAY_FROM_PERSON|STUCK_DETECTED,0.00,0
1764575331.1745725,43.147,136,TEST2_OBSTACLE_BYPASS,True,405.7,1726.7,1773.7,13.22,0.996,0.0,-94.2,1.1,-34.15,-171.13,-34.15,166.23,87.24,-0.0181,10.0,-6.822,1.4695,5.0735,5.2821,16.15,-6.9325,-3.9925,8.0000,-119.94,70,500.0,255.0,-5.4630,1.0811,5.5690,-78.81,13.22,-78.81,-92.03,True,LEFT,0.700,0,0,RECOVERING,False,False,True,0,True,FORCE_AWAY_FROM_PERSON|STUCK_DETECTED,0.00,0
1764575331.21683,43.189,137,TEST2_OBSTACLE_BYPASS,True,360.2,1884.0,1918.1,10.83,0.995,0.0,-94.2,1.1,-68.49,-170.40,-68.49,166.99,87.18,-0.0192,10.0,-9.240,1.3554,5.6163,5.7776,13.57,-6.9052,-4.0395,8.0000,-120.33,63,500.0,255.0,-5.5499,1.5768,5.7695,-74.14,10.83,-74.14,-84.96,False,LEFT,0.700,0,0,RECOVERING,False,False,True,0,True,STUCK_DETECTED,0.00,0
1764575331.2543917,43.227,138,TEST2_OBSTACLE_BYPASS,True,360.2,1884.0,1918.1,10.83,0.995,0.0,-94.2,1.1,-102.82,-169.56,-102.82,167.81,87.08,-0.0202,10.0,-12.003,1.3554,5.6163,5.7776,13.57,-6.9052,-4.0395,8.0000,-120.33,63,500.0,255.0,-5.5499,1.5768,5.7695,-74.14,10.83,-74.14,-84.96,False,LEFT,0.700,0,0,RECOVERING,False,False,True,0,True,STUCK_DETECTED,0.00,0
1764575331.2989516,43.271,139,TEST2_OBSTACLE_BYPASS,True,352.3,1973.8,2005.0,10.12,0.994,0.0,-94.2,1.1,-137.30,-169.41,-137.30,168.05,87.09,0.0202,10.0,-15.106,1.3096,5.7867,5.9330,12.75,-6.8203,-4.1813,8.0000,-121.51,62,500.0,261.0,-5.5108,1.6054,5.7399,-73.76,10.12,-73.76,-83.88,False,LEFT,0.700,0,0,RECOVERING,False,False,True,0,True,STUCK_DETECTED,0.00,0
1764575331.3362463,43.309,140,TEST2_OBSTACLE_BYPASS,True,352.3,1973.8,2005.0,10.12,0.994,0.0,-94.2,1.1,-172.14,-170.15,-172.14,167.23,87.08,0.0075,10.0,-18.544,1.3096,5.7867,5.9330,12.75,-6.8203,-4.1813,8.0000,-121.51,62,500.0,261.0,-5.5108,1.6054,5.7399,-73.76,10.12,-73.76,-83.88,False,LEFT,0.700,0,0,RECOVERING,False,False,True,0,True,STUCK_DETECTED,0.00,0
1764575331.3770134,43.349,141,TEST2_OBSTACLE_BYPASS,True,352.3,1973.8,2005.0,10.12,0.994,0.0,-94.2,1.1,-171.42,-170.71,-171.42,166.34,87.06,0.0043,10.0,-21.957,1.3096,5.7867,5.9330,12.75,-6.4951,-4.6705,8.0000,-125.72,56,550.0,261.0,-5.1855,1.1162,5.3043,-77.85,10.12,-77.85,-87.97,False,LEFT,0.700,0,0,RECOVERING,False,False,True,0,True,STUCK_DETECTED,0.00,0
1764575331.420379,43.393,142,TEST2_OBSTACLE_BYPASS,True,336.6,2016.6,2044.5,9.48,0.994,0.0,-94.2,1.1,-170.99,-170.82,-170.99,165.69,87.21,-0.0202,10.0,-25.347,1.2168,5.6937,5.8222,12.06,-6.4951,-4.6705,8.0000,-125.72,56,550.0,261.0,-5.2784,1.0232,5.3766,-79.03,9.48,-79.03,-88.50,False,LEFT,0.700,0,0,RECOVERING,False,False,True,0,True,STUCK_DETECTED,0.00,0
1764575331.4610307,43.433,143,TEST2_OBSTACLE_BYPASS,True,336.6,2016.6,2044.5,9.48,0.994,0.0,-94.2,1.1,-170.48,-168.88,-170.48,166.66,87.17,-0.0330,10.0,-28.718,1.2168,5.6937,5.8222,12.06,-6.4982,-4.6662,8.0000,-125.68,53,550.0,261.0,-5.2814,1.0275,5.3804,-78.99,9.48,-78.99,-88.47,False,LEFT,0.700,0,0,RECOVERING,False,False,True,0,True,STUCK_DETECTED,0.00,1
1764575331.5001154,43.473,144,TEST2_OBSTACLE_BYPASS,True,336.6,2016.6,2044.5,9.48,0.994,0.0,-94.2,1.1,-169.95,-167.12,-169.95,167.52,87.13,-0.0117,10.0,-32.075,1.2168,5.6937,5.8222,12.06,-6.4982,-4.6662,8.0000,-125.68,53,550.0,261.0,-5.2814,1.0275,5.3804,-78.99,9.48,-78.99,-88.47,False,LEFT,0.700,0,0,RECOVERING,False,False,True,0,True,STUCK_DETECTED,0.00,1
1764575331.5420475,43.514,145,TEST2_OBSTACLE_BYPASS,True,336.6,2016.6,2044.5,9.48,0.994,0.0,-94.2,1.1,-169.47,-166.55,-169.47,167.51,87.02,0.0224,10.0,-35.417,1.2168,5.6937,5.8222,12.06,-6.2642,-4.9759,8.0000,-128.46,56,550.0,262.0,-5.0475,0.7178,5.0983,-81.91,9.48,-81.91,-91.38,True,LEFT,0.700,0,0,RECOVERING,False,False,True,0,True,FORCE_AWAY_FROM_PERSON|STUCK_DETECTED,0.00,0
1764575331.5806053,43.553,146,TEST2_OBSTACLE_BYPASS,True,336.6,2016.6,2044.5,9.48,0.994,0.0,-94.2,1.1,-169.09,-167.33,-169.09,166.37,87.08,0.0192,10.0,-38.745,1.2168,5.6937,5.8222,12.06,-6.2642,-4.9759,8.0000,-128.46,56,550.0,262.0,-5.0475,0.7178,5.0983,-81.91,9.48,-81.91,-91.38,True,LEFT,0.700,0,0,RECOVERING,False,False,True,0,True,FORCE_AWAY_FROM_PERSON|STUCK_DETECTED,0.00,0
1764575331.6238081,43.596,147,TEST2_OBSTACLE_BYPASS,True,336.6,2016.6,2044.5,9.48,0.994,0.0,-94.2,1.1,-168.96,-169.04,-168.96,163.89,87.16,0.0107,10.0,-42.062,1.2168,5.6937,5.8222,12.06,-5.9637,-5.3324,8.0000,-131.80,61,550.0,110.0,-4.7469,0.3612,4.7606,-85.65,9.48,-85.65,-95.12,True,LEFT,0.700,0,0,RECOVERING,False,False,True,0,True,FORCE_AWAY_FROM_PERSON|STUCK_DETECTED,0.00,0
1764575331.6612203,43.634,148,TEST2_OBSTACLE_BYPASS,True,336.6,2016.6,2044.5,9.48,0.994,0.0,-94.2,1.1,-168.86,-168.63,-168.86,163.30,87.20,-0.0405,10.0,-45.379,1.2168,5.6937,5.8222,12.06,-5.9637,-5.3324,8.0000,-131.80,61,550.0,110.0,-4.7469,0.3612,4.7606,-85.65,9.48,-85.65,-95.12,True,LEFT,0.700,0,0,RECOVERING,False,False,True,0,True,FORCE_AWAY_FROM_PERSON|STUCK_DETECTED,0.00,0
1764575331.7048986,43.677,149,TEST2_OBSTACLE_BYPASS,True,336.6,2016.6,2044.5,9.48,0.994,0.0,-94.2,1.1,-168.59,-166.70,-168.59,164.01,87.02,-0.0330,10.0,-48.706,1.2168,5.6937,5.8222,12.06,-5.7110,-5.6022,8.0000,-134.45,60,550.0,110.0,-4.4942,0.0915,4.4952,-88.83,9.48,-88.83,-98.31,True,LEFT,0.700,0,0,RECOVERING,False,False,True,0,True,FORCE_AWAY_FROM_PERSON|STUCK_DETECTED,0.00,0
1764575331.7401283,43.713,150,TEST2_OBSTACLE_BYPASS,False,0.0,0.0,0.0,0.00,0.000,0.0,-94.2,1.1,-168.14,-165.59,-168.14,164.10,86.95,0.0107,10.0,-52.044,1.2168,5.6937,5.8222,12.06,-5.7110,-5.6022,8.0000,-134.45,60,550.0,110.0,-4.4942,0.0915,4.4952,-88.83,0.00,-88.83,0.00,False,NONE,0.000,0,0,RECOVERING,False,False,True,0,True,STUCK_DETECTED,0.00,0
1764575331.7839391,43.756,151,TEST2_OBSTACLE_BYPASS,False,0.0,0.0,0.0,0.00,0.000,0.0,-94.2,1.1,-167.65,-165.85,-167.65,162.91,86.94,0.0309,10.0,-55.395,1.2168,5.6937,5.8222,12.06,-5.4165,-5.8874,8.0000,-137.39,56,550.0,112.0,-4.1997,-0.1937,4.2042,-92.64,0.00,-92.64,0.00,False,NONE,0.000,0,0,RECOVERING,False,False,True,0,True,STUCK_DETECTED,0.00,0
1764575331.8284903,43.801,152,TEST2_OBSTACLE_BYPASS,False,0.0,0.0,0.0,0.00,0.000,0.0,-94.2,1.1,-167.26,-166.92,-167.26,160.85,86.92,0.0192,10.0,-58.759,1.2168,5.6937,5.8222,12.06,-5.1350,-6.1345,8.0000,-140.07,53,550.0,140.0,-3.9182,-0.4408,3.9429,-96.42,0.00,-96.42,0.00,False,NONE,0.000,0,0,RECOVERING,False,False,True,0,True,STUCK_DETECTED,0.00,0
1764575331.8642848,43.837,153,TEST2_OBSTACLE_BYPASS,False,0.0,0.0,0.0,0.00,0.000,0.0,-94.2,1.1,-167.21,-168.33,-167.21,158.47,87.04,0.0202,10.0,-62.133,1.2168,5.6937,5.8222,12.06,-5.1350,-6.1345,8.0000,-140.07,53,550.0,140.0,-3.9182,-0.4408,3.9429,-96.42,0.00,-96.42,0.00,False,NONE,0.000,0,0,RECOVERING,False,False,True,0,True,STUCK_DETECTED,0.00,0
1764575331.9074073,43.880,154,TEST2_OBSTACLE_BYPASS,False,0.0,0.0,0.0,0.00,0.000,0.0,-94.2,1.1,-167.40,-169.07,-167.40,156.63,86.95,-0.0032,10.0,-65.518,1.2168,5.6937,5.8222,12.06,-4.8679,-6.3485,8.0000,-142.52,53,600.0,140.0,-3.6511,-0.6548,3.7094,-100.17,0.00,-100.17,0.00,False,NONE,0.000,0,0,RECOVERING,False,False,True,0,True,STUCK_DETECTED,0.00,0
1764575331.9593995,43.932,155,TEST2_OBSTACLE_BYPASS,False,0.0,0.0,0.0,0.00,0.000,0.0,-94.2,1.1,-167.53,-167.87,-167.53,156.47,86.92,-0.0107,10.0,-68.913,1.2168,5.6937,5.8222,12.06,-4.8679,-6.3485,8.0000,-142.52,53,600.0,140.0,-3.6511,-0.6548,3.7094,-100.17,0.00,-100.17,0.00,False,NONE,0.000,0,0,RECOVERING,False,False,True,0,True,STUCK_DETECTED,0.00,0
1764575332.0023754,43.975,156,TEST2_OBSTACLE_BYPASS,True,242.2,2121.1,2134.9,6.51,0.990,0.0,-94.2,1.1,-167.50,-166.94,-167.50,156.53,86.83,0.0075,10.0,-72.321,0.8759,5.5214,5.5904,9.01,-4.6291,-6.5247,8.0000,-144.65,54,600.0,140.0,-3.7532,-1.0033,3.8850,-104.97,6.51,-104.97,-111.48,True,LEFT,0.700,0,0,RECOVERING,False,False,True,0,True,FORCE_AWAY_FROM_PERSON|STUCK_DETECTED,0.00,0
1764575332.0397298,44.012,157,TEST2_OBSTACLE_BYPASS,True,242.2,2121.1,2134.9,6.51,0.990,0.0,-94.2,1.1,-167.28,-166.85,-167.28,155.56,86.84,0.0224,10.0,-75.735,0.8759,5.5214,5.5904,9.01,-4.6291,-6.5247,8.0000,-144.65,54,600.0,140.0,-3.7532,-1.0033,3.8850,-104.97,6.51,-104.97,-111.48,True,LEFT,0.700,0,0,RECOVERING,False,False,True,0,True,FORCE_AWAY_FROM_PERSON|STUCK_DETECTED,0.00,0
1764575332.0879884,44.060,158,TEST2_OBSTACLE_BYPASS,True,242.2,2121.1,2134.9,6.51,0.990,0.0,-94.2,1.1,-167.21,-168.01,-167.21,153.13,86.78,0.0128,10.0,-79.146,0.8759,5.5214,5.5904,9.01,-4.5165,-6.6031,8.0000,-145.63,49,600.0,148.0,-3.6406,-1.0817,3.7979,-106.55,6.51,-106.55,-113.06,True,LEFT,0.700,0,0,RECOVERING,False,False,True,0,True,FORCE_AWAY_FROM_PERSON|STUCK_DETECTED,0.00,0
1764575332.1189506,44.091,159,TEST2_OBSTACLE_BYPASS,True,242.2,2121.1,2134.9,6.51,0.990,0.0,-94.2,1.1,-167.41,-168.64,-167.41,151.30,86.88,-0.0085,10.0,-82.551,0.8759,5.5214,5.5904,9.01,-4.5165,-6.6031,8.0000,-145.63,49,600.0,148.0,-3.6406,-1.0817,3.7979,-106.55,6.51,-106.55,-113.06,True,LEFT,0.700,0,0,RECOVERING,False,False,True,0,True,FORCE_AWAY_FROM_PERSON|STUCK_DETECTED,0.00,0
1764575332.1649845,44.137,160,TEST2_OBSTACLE_BYPASS,True,242.2,2121.1,2134.9,6.51,0.990,0.0,-94.2,1.1,-167.62,-167.76,-167.62,151.18,86.81,-0.0011,10.0,-85.960,0.8759,5.5214,5.5904,9.01,-4.5587,-6.5740,8.0000,-145.26,44,600.0,148.0,-3.6828,-1.0527,3.8303,-105.95,6.51,-105.95,-112.47,True,LEFT,0.700,0,0,RECOVERING,False,False,True,0,True,FORCE_AWAY_FROM_PERSON|STUCK_DETECTED,0.00,0
