timestamp,elapsed_time,log_number,test_mode,person_detected,person_x_mm,person_y_mm,person_distance_mm,person_angle_deg,person_confidence,time_since_person_update_ms,robot_x_mm,robot_y_mm,robot_orientation_deg,imu_yaw_raw,imu_yaw_smoothed,imu_roll,imu_pitch,imu_angular_vel_z,imu_update_rate,imu_drift_estimate,attr_force_x,attr_force_y,attr_force_magnitude,attr_force_direction_deg,repul_force_x,repul_force_y,repul_force_magnitude,repul_force_direction_deg,num_obstacles_in_range,closest_obstacle_dist_mm,closest_obstacle_angle_deg,total_force_x,total_force_y,total_force_magnitude,total_force_direction_deg,expected_direction_to_person_deg,force_direction_deg,direction_error_deg,direction_mismatch_flag,commanded_direction,commanded_speed,motor_1_speed,motor_2_speed,nav_state,nav_state_changed,goal_reached,stuck_detected,time_in_current_state_s,anomaly_detected,anomaly_type,calculation_time_ms,obstacles_filtered_for_person
1764574023.825063,213.870,1,TEST2_OBSTACLE_BYPASS,False,0.0,0.0,0.0,0.00,0.000,0.0,2060.5,-595.0,122.48,122.48,122.48,159.93,88.09,0.0064,10.0,0.000,-1.9704,2.5554,3.2269,-37.63,3.8317,-1.5384,4.1290,111.88,0,850.0,256.0,1.8613,1.0170,2.1210,61.35,0.00,61.35,0.00,False,FORWARDS_RIGHT,0.636,0,0,SEARCHING,True,False,False,0,False,,0.00,0
1764574023.8652616,213.910,2,TEST2_OBSTACLE_BYPASS,False,0.0,0.0,0.0,0.00,0.000,0.0,2057.8,-590.7,122.48,122.48,122.48,159.93,88.09,-0.0128,10.0,0.000,-1.9734,2.5586,3.2312,-37.64,3.8317,-1.5384,4.1290,111.88,0,850.0,256.0,1.8583,1.0202,2.1200,61.23,0.00,61.23,0.00,False,FORWARDS_RIGHT,0.636,0,0,SEARCHING,False,False,False,0,False,,0.00,0
1764574023.9076228,213.952,3,TEST2_OBSTACLE_BYPASS,True,-200.5,2351.4,2359.9,355.13,0.924,0.0,2054.6,-585.7,122.48,122.48,122.48,159.93,88.09,0.0000,10.0,0.000,-1.9735,2.5703,3.2406,-37.52,3.8317,-1.5384,4.1290,111.88,0,850.0,256.0,1.8582,1.0319,2.1255,60.96,-4.87,60.96,65.83,False,FORWARDS_RIGHT,0.638,0,0,NAVIGATING,True,False,False,0,False,,0.00,0
1764574023.9455688,213.990,4,TEST2_OBSTACLE_BYPASS,True,-200.5,2351.4,2359.9,355.13,0.924,0.0,2052.0,-581.6,122.48,122.48,122.48,159.93,88.09,-0.0021,10.0,0.000,-1.9765,2.5735,3.2449,-37.52,4.0827,-1.8596,4.4863,114.49,0,850.0,256.0,2.1062,0.7139,2.2239,71.28,-4.87,71.28,76.15,False,RIGHT,0.467,0,0,NAVIGATING,False,False,False,0,False,,0.00,0
1764574023.989516,214.034,5,TEST2_OBSTACLE_BYPASS,True,-200.5,2351.4,2359.9,355.13,0.924,0.0,2052.0,-581.6,122.48,122.48,122.48,159.93,88.09,-0.0149,10.0,0.000,-1.9765,2.5735,3.2449,-37.52,4.0827,-1.8596,4.4863,114.49,0,850.0,256.0,2.1062,0.7139,2.2239,71.28,-4.87,71.28,76.15,False,RIGHT,0.467,0,0,NAVIGATING,False,False,False,0,False,,0.00,0
1764574024.0294428,214.074,6,TEST2_OBSTACLE_BYPASS,True,-206.4,2350.6,2359.6,354.98,0.925,0.0,2052.0,-581.6,122.48,122.48,122.48,159.93,88.09,0.0011,10.0,0.000,-1.9785,2.5688,3.2424,-37.60,4.0473,-1.4755,4.3079,110.03,0,850.0,256.0,2.0688,1.0932,2.3399,62.15,-5.02,62.15,67.16,False,FORWARDS_RIGHT,0.702,0,0,NAVIGATING,False,False,False,0,False,,0.00,0
1764574024.0723248,214.117,7,TEST2_OBSTACLE_BYPASS,True,-206.4,2350.6,2359.6,354.98,0.925,0.0,2048.5,-576.1,122.48,122.48,122.48,159.93,88.09,0.0128,10.0,0.000,-1.9823,2.5729,3.2480,-37.61,4.0473,-1.4755,4.3079,110.03,0,850.0,256.0,2.0650,1.0974,2.3384,62.01,-5.02,62.01,67.03,False,FORWARDS_RIGHT,0.702,0,0,NAVIGATING,False,False,False,0,False,,0.00,0
1764574024.1143403,214.159,8,TEST2_OBSTACLE_BYPASS,True,-206.4,2350.6,2359.6,354.98,0.925,0.0,2045.2,-571.0,122.48,122.48,122.48,159.93,88.09,0.0064,10.0,0.000,-1.9860,2.5769,3.2533,-37.62,4.4645,-1.3853,4.6745,107.24,0,850.0,256.0,2.4785,1.1916,2.7501,64.32,-5.02,64.32,69.34,False,FORWARDS_RIGHT,0.825,0,0,NAVIGATING,False,False,False,0,False,,0.00,0
1764574024.158551,214.203,9,TEST2_OBSTACLE_BYPASS,True,-206.4,2350.6,2359.6,354.98,0.925,0.0,2041.2,-564.6,122.48,122.48,122.48,159.93,88.09,-0.0021,10.0,0.000,-1.9905,2.5817,3.2600,-37.63,4.4645,-1.3853,4.6745,107.24,0,850.0,256.0,2.4740,1.1965,2.7482,64.19,-5.02,64.19,69.21,False,FORWARDS_RIGHT,0.824,0,0,NAVIGATING,False,False,False,0,False,,0.00,0
1764574024.1975234,214.242,10,TEST2_OBSTACLE_BYPASS,True,-206.4,2350.6,2359.6,354.98,0.925,0.0,2037.8,-559.3,122.47,122.38,122.47,159.88,87.99,0.0021,10.0,0.000,-1.9943,2.5859,3.2656,-37.64,4.5595,-1.5512,4.8161,108.79,0,850.0,256.0,2.5652,1.0347,2.7660,68.03,-5.02,68.03,73.05,False,RIGHT,0.581,0,0,STUCK,True,False,True,0,True,STUCK_DETECTED,0.00,0
1764574024.2408166,214.285,11,TEST2_OBSTACLE_BYPASS,True,-206.4,2350.6,2359.6,354.98,0.925,0.0,2037.8,-559.3,122.38,121.55,122.38,159.13,87.95,0.0373,10.0,0.000,-1.9943,2.5859,3.2656,-37.64,4.5595,-1.5512,4.8161,108.79,0,850.0,256.0,2.5652,1.0347,2.7660,68.03,-5.02,68.03,73.05,False,RIGHT,0.581,0,0,STUCK,False,False,True,0,True,STUCK_DETECTED,0.00,0
1764574024.2777228,214.322,12,TEST2_OBSTACLE_BYPASS,True,-206.4,2350.6,2359.6,354.98,0.925,0.0,2037.8,-559.3,122.15,120.23,122.15,157.98,87.90,-0.0043,10.0,-0.040,-1.9943,2.5859,3.2656,-37.64,3.6396,-1.9344,4.1217,117.99,0,850.0,256.0,1.6453,0.6515,1.7696,68.40,-5.02,68.40,73.42,False,RIGHT,0.372,0,0,STUCK,False,False,True,0,True,STUCK_DETECTED,0.00,0
1764574024.3178234,214.362,13,TEST2_OBSTACLE_BYPASS,True,-206.4,2350.6,2359.6,354.98,0.925,0.0,2037.8,-559.3,121.97,120.63,121.97,158.52,87.76,-0.0085,10.0,-0.080,-1.9943,2.5859,3.2656,-37.64,3.6396,-1.9344,4.1217,117.99,0,850.0,256.0,1.6453,0.6515,1.7696,68.40,-5.02,68.40,73.42,False,RIGHT,0.372,0,0,STUCK,False,False,True,0,True,STUCK_DETECTED,0.00,0
1764574024.3596938,214.404,14,TEST2_OBSTACLE_BYPASS,False,0.0,0.0,0.0,0.00,0.000,0.0,2037.8,-559.3,121.81,120.91,121.81,158.87,88.00,-0.0011,10.0,-0.125,-1.9943,2.5859,3.2656,-37.64,3.4158,-2.6615,4.3303,127.93,0,850.0,256.0,1.4215,-0.0756,1.4235,93.05,0.00,93.05,0.00,False,RIGHT,0.299,0,0,STUCK,False,False,True,0,True,STUCK_DETECTED,0.00,0
1764574024.3968189,214.441,15,TEST2_OBSTACLE_BYPASS,False,0.0,0.0,0.0,0.00,0.000,0.0,2037.8,-559.3,121.70,121.36,121.70,159.59,88.05,-0.0053,10.0,-0.172,-1.9943,2.5859,3.2656,-37.64,3.4158,-2.6615,4.3303,127.93,0,850.0,256.0,1.4215,-0.0756,1.4235,93.05,0.00,93.05,0.00,False,RIGHT,0.299,0,0,STUCK,False,False,True,0,True,STUCK_DETECTED,0.00,0
1764574024.4391365,214.484,16,TEST2_OBSTACLE_BYPASS,False,0.0,0.0,0.0,0.00,0.000,0.0,2037.8,-559.3,121.63,121.85,121.63,160.49,87.83,0.0383,10.0,-0.217,-1.9943,2.5859,3.2656,-37.64,-0.5784,-1.2146,1.3453,-154.54,0,850.0,256.0,-2.5727,1.3713,2.9153,-61.94,0.00,-61.94,0.00,False,FORWARDS_LEFT,0.875,0,0,STUCK,False,False,True,0,True,STUCK_DETECTED,0.00,0
1764574024.4824617,214.527,17,TEST2_OBSTACLE_BYPASS,False,0.0,0.0,0.0,0.00,0.000,0.0,2033.9,-552.9,121.50,121.11,121.50,160.12,87.47,0.0618,10.0,-0.265,-1.9989,2.5907,3.2722,-37.65,-2.1743,-1.8442,2.8510,-130.30,0,850.0,255.0,-4.1731,0.7465,4.2394,-79.86,0.00,-79.86,0.00,False,LEFT,0.700,0,0,STUCK,False,False,True,0,True,STUCK_DETECTED,0.00,0
1764574024.5237923,214.568,18,TEST2_OBSTACLE_BYPASS,True,-192.8,2352.5,2360.3,355.32,0.933,0.0,2033.9,-552.9,121.26,120.12,121.26,159.40,87.34,0.0362,10.0,-0.321,-1.9941,2.6020,3.2782,-37.47,-2.1743,-1.8442,2.8510,-130.30,0,850.0,255.0,-4.1684,0.7578,4.2367,-79.70,-4.68,-79.70,-75.01,False,LEFT,0.700,0,0,STUCK,False,False,True,0,True,STUCK_DETECTED,0.00,0
1764574024.5629826,214.608,19,TEST2_OBSTACLE_BYPASS,True,-192.8,2352.5,2360.3,355.32,0.933,0.0,2033.9,-552.9,120.95,119.40,120.95,158.84,87.26,-0.0170,10.0,-0.388,-1.9941,2.6020,3.2782,-37.47,-4.1190,-2.2451,4.6911,-118.59,0,900.0,4.0,-6.1131,0.3568,6.1235,-86.66,-4.68,-86.66,-81.97,False,LEFT,0.700,0,0,STUCK,False,False,True,0,True,STUCK_DETECTED,0.00,0
1764574024.608925,214.654,20,TEST2_OBSTACLE_BYPASS,True,-192.8,2352.5,2360.3,355.32,0.933,0.0,2033.9,-552.9,120.35,116.31,120.35,156.02,87.77,-0.0383,10.0,-0.480,-1.9941,2.6020,3.2782,-37.47,-4.1190,-2.2451,4.6911,-118.59,0,900.0,4.0,-6.1131,0.3568,6.1235,-86.66,-4.68,-86.66,-81.97,False,LEFT,0.700,0,0,STUCK,False,False,True,0,True,STUCK_DETECTED,0.00,0
1764574024.6475215,214.692,21,TEST2_OBSTACLE_BYPASS,True,-192.8,2352.5,2360.3,355.32,0.933,0.0,2033.9,-552.9,119.57,113.73,119.57,153.66,88.17,-0.0746,10.0,-0.601,-1.9941,2.6020,3.2782,-37.47,-3.6922,-3.4041,5.0219,-132.68,0,850.0,4.0,-5.6863,-0.8021,5.7426,-98.03,-4.68,-98.03,-93.34,True,LEFT,0.700,0,0,STUCK,False,False,True,0,True,FORCE_AWAY_FROM_PERSON|STUCK_DETECTED,0.00,0
1764574024.6893063,214.734,22,TEST2_OBSTACLE_BYPASS,True,-192.8,2352.5,2360.3,355.32,0.933,0.0,2033.9,-552.9,118.69,111.46,118.69,152.05,88.70,-0.0639,10.0,-0.753,-1.9941,2.6020,3.2782,-37.47,-3.6922,-3.4041,5.0219,-132.68,0,850.0,4.0,-5.6863,-0.8021,5.7426,-98.03,-4.68,-98.03,-93.34,True,LEFT,0.700,0,0,STUCK,False,False,True,0,True,FORCE_AWAY_FROM_PERSON|STUCK_DETECTED,0.00,0
1764574024.7316897,214.776,23,TEST2_OBSTACLE_BYPASS,True,-192.8,2352.5,2360.3,355.32,0.933,0.0,2033.9,-552.9,118.26,116.39,118.26,157.47,88.69,-0.0266,10.0,-0.911,-1.9941,2.6020,3.2782,-37.47,-6.1170,-2.4712,6.5973,-112.00,0,900.0,2.0,-7.9990,0.1289,8.0000,-89.08,-4.68,-89.08,-84.39,False,LEFT,0.700,0,0,STUCK,False,False,True,0,True,STUCK_DETECTED,0.00,0
1764574024.7723594,214.817,24,TEST2_OBSTACLE_BYPASS,True,-192.8,2352.5,2360.3,355.32,0.933,0.0,2033.9,-552.9,118.15,119.78,118.15,161.45,88.24,0.0224,10.0,-1.060,-1.9941,2.6020,3.2782,-37.47,-6.1170,-2.4712,6.5973,-112.00,0,900.0,2.0,-7.9990,0.1289,8.0000,-89.08,-4.68,-89.08,-84.39,False,LEFT,0.700,0,0,STUCK,False,False,True,0,True,STUCK_DETECTED,0.00,0
1764574024.8137357,214.858,25,TEST2_OBSTACLE_BYPASS,True,-192.8,2352.5,2360.3,355.32,0.933,0.0,2033.9,-552.9,118.13,121.19,118.13,163.52,88.16,0.0032,10.0,-1.196,-1.9941,2.6020,3.2782,-37.47,-7.0017,-2.7817,7.5341,-111.67,0,900.0,111.0,-7.9984,-0.1598,8.0000,-91.14,-4.68,-91.14,-86.46,False,LEFT,0.700,0,0,STUCK,False,False,True,0,True,STUCK_DETECTED,0.00,0
1764574024.851489,214.896,26,TEST2_OBSTACLE_BYPASS,False,0.0,0.0,0.0,0.00,0.000,0.0,2033.9,-552.9,118.15,122.00,118.15,165.05,88.22,-0.0234,10.0,-1.322,-1.9941,2.6020,3.2782,-37.47,-7.0017,-2.7817,7.5341,-111.67,0,900.0,111.0,-7.9984,-0.1598,8.0000,-91.14,0.00,-91.14,0.00,False,LEFT,0.700,0,0,STUCK,False,False,True,0,True,STUCK_DETECTED,0.00,0
1764574024.895387,214.940,27,TEST2_OBSTACLE_BYPASS,False,0.0,0.0,0.0,0.00,0.000,0.0,2033.9,-552.9,118.40,123.59,118.40,166.97,88.22,-0.0043,10.0,-1.428,-1.9941,2.6020,3.2782,-37.47,-7.7572,-1.9560,8.0000,-104.15,0,900.0,252.0,-7.9825,0.5288,8.0000,-86.21,0.00,-86.21,0.00,False,LEFT,0.700,0,0,STUCK,False,False,True,0,True,STUCK_DETECTED,0.00,0
1764574024.9314036,214.976,28,TEST2_OBSTACLE_BYPASS,False,0.0,0.0,0.0,0.00,0.000,0.0,2033.9,-552.9,118.76,123.73,118.76,167.04,88.14,-0.0085,10.0,-1.513,-1.9941,2.6020,3.2782,-37.47,-7.7572,-1.9560,8.0000,-104.15,0,900.0,252.0,-7.9825,0.5288,8.0000,-86.21,0.00,-86.21,0.00,False,LEFT,0.700,0,0,STUCK,False,False,True,0,True,STUCK_DETECTED,0.00,0
1764574024.9751155,215.020,29,TEST2_OBSTACLE_BYPASS,False,0.0,0.0,0.0,0.00,0.000,0.0,2033.9,-552.9,119.03,122.09,119.03,164.76,88.23,0.0511,10.0,-1.583,-1.9941,2.6020,3.2782,-37.47,-7.9344,-1.0223,8.0000,-97.34,0,900.0,252.0,-7.9006,1.2570,8.0000,-80.96,0.00,-80.96,0.00,False,LEFT,0.700,0,0,STUCK,False,False,True,0,True,STUCK_DETECTED,0.00,0
1764574025.025376,215.070,30,TEST2_OBSTACLE_BYPASS,False,0.0,0.0,0.0,0.00,0.000,0.0,2033.9,-552.9,119.09,116.95,119.09,158.50,88.17,0.0075,10.0,-1.645,-1.9941,2.6020,3.2782,-37.47,-7.9344,-1.0223,8.0000,-97.34,0,900.0,252.0,-7.9006,1.2570,8.0000,-80.96,0.00,-80.96,0.00,False,LEFT,0.700,0,0,STUCK,False,False,True,0,True,STUCK_DETECTED,0.00,0
1764574025.0538893,215.098,31,TEST2_OBSTACLE_BYPASS,False,0.0,0.0,0.0,0.00,0.000,0.0,2033.9,-552.9,119.42,117.05,119.42,157.83,88.22,-0.0202,10.0,-1.692,-1.9941,2.6020,3.2782,-37.47,-7.9923,0.3510,8.0000,-87.49,0,900.0,252.0,-7.6716,2.2685,8.0000,-73.53,0.00,-73.53,0.00,False,LEFT,0.700,0,0,STUCK,False,False,True,0,True,STUCK_DETECTED,0.00,0
1764574025.1005692,215.145,32,TEST2_OBSTACLE_BYPASS,False,0.0,0.0,0.0,0.00,0.000,0.0,2033.9,-552.9,120.48,122.00,120.48,161.75,88.17,-0.0383,10.0,-1.702,-1.9941,2.6020,3.2782,-37.47,-7.8477,1.5536,8.0000,-78.80,0,900.0,252.0,-7.3700,3.1119,8.0000,-67.11,0.00,-67.11,0.00,False,FORWARDS_LEFT,1.000,0,0,STUCK,False,False,True,0,True,STUCK_DETECTED,0.00,0
1764574025.1370368,215.182,33,TEST2_OBSTACLE_BYPASS,False,0.0,0.0,0.0,0.00,0.000,0.0,2029.7,-546.1,121.44,126.01,121.44,164.89,88.13,-0.0117,10.0,-1.681,-1.9991,2.6072,3.2854,-37.48,-7.8477,1.5536,8.0000,-78.80,0,900.0,252.0,-7.3691,3.1138,8.0000,-67.09,0.00,-67.09,0.00,False,FORWARDS_LEFT,1.000,0,0,STUCK,False,False,True,0,True,STUCK_DETECTED,0.00,0
1764574025.178448,215.223,34,TEST2_OBSTACLE_BYPASS,False,0.0,0.0,0.0,0.00,0.000,0.0,2025.1,-538.8,122.03,125.69,122.03,163.90,88.18,0.0565,10.0,-1.644,-2.0044,2.6129,3.2931,-37.49,-7.8606,1.4869,8.0000,-79.29,0,900.0,252.0,-7.3874,3.0701,8.0000,-67.43,0.00,-67.43,0.00,False,FORWARDS_LEFT,1.000,0,0,STUCK,False,False,True,0,True,STUCK_DETECTED,0.00,0
1764574025.2177825,215.262,35,TEST2_OBSTACLE_BYPASS,False,0.0,0.0,0.0,0.00,0.000,0.0,2020.9,-531.9,122.14,122.25,122.14,159.27,88.04,0.1023,10.0,-1.606,-2.0094,2.6182,3.3004,-37.50,-7.8606,1.4869,8.0000,-79.29,0,900.0,252.0,-7.3866,3.0722,8.0000,-67.42,0.00,-67.42,0.00,False,FORWARDS_LEFT,1.000,0,0,STUCK,False,False,True,0,True,STUCK_DETECTED,0.00,0
1764574025.2586298,215.303,36,TEST2_OBSTACLE_BYPASS,True,-196.1,2330.6,2338.8,355.19,0.936,0.0,2016.2,-524.4,121.93,119.96,121.93,156.03,87.89,0.0533,10.0,-1.576,-2.0351,2.6262,3.3224,-37.77,-7.6372,2.3818,8.0000,-72.68,0,900.0,252.0,-7.1042,3.6784,8.0000,-62.63,-4.81,-62.63,-57.82,False,FORWARDS_LEFT,1.000,0,0,STUCK,False,False,True,0,True,STUCK_DETECTED,0.00,0
1764574025.2987013,215.343,37,TEST2_OBSTACLE_BYPASS,True,-196.1,2330.6,2338.8,355.19,0.936,0.0,2011.9,-517.5,121.50,119.23,121.50,153.95,87.73,0.0128,10.0,-1.559,-2.0402,2.6316,3.3298,-37.79,-7.6372,2.3818,8.0000,-72.68,0,900.0,252.0,-7.1034,3.6799,8.0000,-62.61,-4.81,-62.61,-57.80,False,FORWARDS_LEFT,1.000,0,0,STUCK,False,False,True,0,True,STUCK_DETECTED,0.00,0
1764574025.3417587,215.386,38,TEST2_OBSTACLE_BYPASS,True,-196.1,2330.6,2338.8,355.19,0.936,0.0,2007.5,-510.1,121.09,119.69,121.09,153.30,87.72,-0.0138,10.0,-1.555,-2.0459,2.6373,3.3378,-37.80,-6.8146,4.1905,8.0000,-58.41,0,850.0,252.0,-6.3368,4.8831,8.0000,-52.38,-4.81,-52.38,-47.57,False,FORWARDS_LEFT,1.000,0,0,STUCK,False,False,True,0,True,STUCK_DETECTED,0.00,2
1764574025.3792686,215.424,39,TEST2_OBSTACLE_BYPASS,True,-436.4,2275.9,2317.4,349.15,0.979,0.0,2003.2,-503.1,121.07,121.83,121.07,153.98,87.69,-0.0426,10.0,-1.551,-2.1409,2.4387,3.2451,-41.28,-6.8146,4.1905,8.0000,-58.41,0,850.0,252.0,-6.4300,4.7597,8.0000,-53.49,-10.85,-53.49,-42.64,False,FORWARDS_LEFT,1.000,0,0,STUCK,False,False,True,0,True,STUCK_DETECTED,0.00,0
1764574025.4193375,215.464,40,TEST2_OBSTACLE_BYPASS,True,-436.4,2275.9,2317.4,349.15,0.979,0.0,1998.5,-495.5,121.81,124.41,121.81,155.26,87.76,-0.0213,10.0,-1.528,-2.1469,2.4437,3.2528,-41.30,-7.0730,3.7380,8.0000,-62.14,0,850.0,252.0,-6.6447,4.4551,8.0000,-56.16,-10.85,-56.16,-45.31,False,FORWARDS_LEFT,1.000,0,0,STUCK,False,False,True,0,True,STUCK_DETECTED,0.00,0
1764574025.4608984,215.505,41,TEST2_OBSTACLE_BYPASS,True,-481.0,2266.9,2317.4,348.02,0.979,0.0,1994.2,-488.7,122.67,125.65,122.67,155.38,87.72,0.0032,10.0,-1.485,-2.1649,2.4102,3.2397,-41.93,-7.0730,3.7380,8.0000,-62.14,0,850.0,252.0,-6.6599,4.4324,8.0000,-56.35,-11.98,-56.35,-44.38,False,FORWARDS_LEFT,1.000,0,0,STUCK,False,False,True,0,True,STUCK_DETECTED,0.00,0
1764574025.5006008,215.545,42,TEST2_OBSTACLE_BYPASS,True,-481.0,2266.9,2317.4,348.02,0.979,0.0,1989.3,-481.2,123.12,126.47,123.12,154.96,87.66,0.0021,10.0,-1.434,-2.1710,2.4152,3.2475,-41.95,-7.2634,3.3531,8.0000,-65.22,0,800.0,252.0,-6.8254,4.1731,8.0000,-58.56,-11.98,-58.56,-46.58,False,FORWARDS_LEFT,1.000,0,0,STUCK,False,False,True,0,True,STUCK_DETECTED,0.00,0
1764574025.5397491,215.584,43,TEST2_OBSTACLE_BYPASS,True,-481.0,2266.9,2317.4,348.02,0.979,0.0,1985.0,-474.6,123.34,128.25,123.34,155.53,87.43,0.0011,10.0,-1.379,-2.1763,2.4196,3.2543,-41.97,-7.2634,3.3531,8.0000,-65.22,0,800.0,252.0,-6.8250,4.1737,8.0000,-58.55,-11.98,-58.55,-46.57,False,FORWARDS_LEFT,1.000,0,0,STUCK,False,False,True,0,True,STUCK_DETECTED,0.00,0
1764574025.5830438,215.628,44,TEST2_OBSTACLE_BYPASS,True,-481.0,2266.9,2317.4,348.02,0.979,0.0,1979.9,-467.1,123.84,130.68,123.84,156.45,87.29,-0.0117,10.0,-1.315,-2.1825,2.4247,3.2623,-41.99,-7.1120,3.6634,8.0000,-62.75,0,800.0,252.0,-6.6921,4.3835,8.0000,-56.77,-11.98,-56.77,-44.80,False,FORWARDS_LEFT,1.000,0,0,STUCK,False,False,True,0,True,STUCK_DETECTED,0.00,0
1764574025.621328,215.666,45,TEST2_OBSTACLE_BYPASS,True,-481.0,2266.9,2317.4,348.02,0.979,0.0,1975.5,-460.7,124.83,132.18,124.83,156.77,87.30,-0.0298,10.0,-1.232,-2.1877,2.4292,3.2691,-42.01,-7.1120,3.6634,8.0000,-62.75,0,800.0,252.0,-6.6918,4.3841,8.0000,-56.77,-11.98,-56.77,-44.79,False,FORWARDS_LEFT,1.000,0,0,STUCK,False,False,True,0,True,STUCK_DETECTED,0.00,0
1764574025.661575,215.706,46,TEST2_OBSTACLE_BYPASS,True,-525.4,2257.0,2317.4,346.90,0.979,0.0,1970.3,-453.6,126.25,134.10,126.25,156.18,87.27,-0.0181,10.0,-1.121,-2.2060,2.3960,3.2568,-42.64,-6.6020,4.5181,8.0000,-55.61,4,750.0,155.0,-6.2928,4.9397,8.0000,-51.87,-13.10,-51.87,-38.77,False,FORWARDS_LEFT,1.000,0,0,STUCK,False,False,True,0,True,STUCK_DETECTED,0.00,0
1764574025.7002182,215.745,47,TEST2_OBSTACLE_BYPASS,False,0.0,0.0,0.0,0.00,0.000,0.0,1965.3,-447.2,127.77,134.45,127.77,155.07,87.28,-0.0117,10.0,-0.981,-2.2113,2.4009,3.2640,-42.65,-6.6020,4.5181,8.0000,-55.61,4,750.0,155.0,-6.2925,4.9400,8.0000,-51.87,0.00,-51.87,0.00,False,FORWARDS_LEFT,1.000,0,0,STUCK,False,False,True,0,True,STUCK_DETECTED,0.00,0
1764574025.7426963,215.787,48,TEST2_OBSTACLE_BYPASS,False,0.0,0.0,0.0,0.00,0.000,0.0,1959.5,-440.1,129.19,133.85,129.19,151.68,87.40,0.0128,10.0,-0.818,-2.2171,2.4065,3.2721,-42.65,-6.1310,5.1392,8.0000,-50.03,8,750.0,156.0,-5.9349,5.3644,8.0000,-47.89,0.00,-47.89,0.00,False,FORWARDS_LEFT,1.000,0,0,STUCK,False,False,True,0,True,STUCK_DETECTED,0.00,0
1764574025.7889404,215.834,49,TEST2_OBSTACLE_BYPASS,False,0.0,0.0,0.0,0.00,0.000,0.0,1953.8,-433.4,130.34,133.32,130.34,148.53,87.40,0.0170,10.0,-0.637,-2.2227,2.4121,3.2800,-42.66,-6.1310,5.1392,8.0000,-50.03,8,750.0,156.0,-5.9347,5.3646,8.0000,-47.89,0.00,-47.89,0.00,False,FORWARDS_LEFT,1.000,0,0,STUCK,False,False,True,0,True,STUCK_DETECTED,0.00,0
1764574025.8240235,215.869,50,TEST2_OBSTACLE_BYPASS,False,0.0,0.0,0.0,0.00,0.000,0.0,1948.0,-426.8,131.40,135.01,131.40,147.31,87.19,0.0554,10.0,-0.442,-2.2281,2.4177,3.2879,-42.66,-7.0048,3.8644,8.0000,-61.12,9,750.0,158.0,-6.6142,4.5003,8.0000,-55.77,0.00,-55.77,0.00,False,FORWARDS_LEFT,1.000,0,0,STUCK,False,False,True,0,True,STUCK_DETECTED,0.00,0
1764574025.8747675,215.919,51,TEST2_OBSTACLE_BYPASS,True,88.0,2331.4,2333.0,2.16,0.986,0.0,1941.5,-419.7,132.52,136.92,132.52,147.57,86.92,0.0362,10.0,-0.233,-2.0213,3.0001,3.6175,-33.97,-7.7369,2.0348,8.0000,-75.26,13,700.0,156.0,-7.1094,3.6682,8.0000,-62.71,2.16,-62.71,-64.87,False,FORWARDS_LEFT,1.000,0,0,STUCK,False,False,True,0,True,STUCK_DETECTED,0.00,0
1764574025.9130213,215.958,52,TEST2_OBSTACLE_BYPASS,True,88.0,2331.4,2333.0,2.16,0.986,0.0,1936.1,-414.0,133.61,137.36,133.61,146.91,86.60,0.1268,10.0,-0.010,-2.0248,3.0079,3.6260,-33.95,-7.7369,2.0348,8.0000,-75.26,13,700.0,156.0,-7.1077,3.6717,8.0000,-62.68,2.16,-62.68,-64.84,False,FORWARDS_LEFT,1.000,0,0,STUCK,False,False,True,0,True,STUCK_DETECTED,0.00,0
1764574025.9523635,215.997,53,TEST2_OBSTACLE_BYPASS,True,143.0,2311.7,2316.1,3.54,0.949,0.0,1929.9,-407.8,134.69,139.03,134.69,147.45,86.16,0.1023,10.0,0.225,-2.0251,3.0819,3.6877,-33.31,-7.4661,2.8735,8.0000,-68.95,18,700.0,156.0,-6.7765,4.2520,8.0000,-57.89,3.54,-57.89,-61.43,False,FORWARDS_LEFT,1.000,0,0,STUCK,False,False,True,0,True,STUCK_DETECTED,0.00,0
1764574025.992487,216.037,54,TEST2_OBSTACLE_BYPASS,True,143.0,2311.7,2316.1,3.54,0.949,0.0,1924.0,-402.0,135.57,139.53,135.57,146.46,85.48,0.1246,10.0,0.468,-2.0284,3.0907,3.6969,-33.28,-7.4661,2.8735,8.0000,-68.95,18,700.0,156.0,-6.7743,4.2554,8.0000,-57.86,3.54,-57.86,-61.40,False,FORWARDS_LEFT,1.000,0,0,STUCK,False,False,True,0,True,STUCK_DETECTED,0.00,0
1764574026.034786,216.079,55,TEST2_OBSTACLE_BYPASS,True,209.2,2309.1,2318.6,5.18,0.937,0.0,1917.7,-396.0,136.31,139.51,136.31,144.41,85.19,-0.0288,10.0,0.715,-2.0028,3.1711,3.7506,-32.28,-7.5383,2.6785,8.0000,-70.44,24,700.0,156.0,-6.8202,4.1815,8.0000,-58.49,5.18,-58.49,-63.67,False,FORWARDS_LEFT,1.000,0,0,STUCK,False,False,True,0,True,STUCK_DETECTED,0.00,0
1764574026.0767395,216.121,56,TEST2_OBSTACLE_BYPASS,True,254.5,2304.6,2318.6,6.30,0.937,0.0,1911.5,-390.1,136.92,140.27,136.92,143.46,85.43,-0.1981,10.0,0.965,-1.9869,3.2314,3.7934,-31.59,-7.5383,2.6785,8.0000,-70.44,24,700.0,156.0,-6.7978,4.2178,8.0000,-58.18,6.30,-58.18,-64.48,False,FORWARDS_LEFT,1.000,0,0,STUCK,False,False,True,0,True,STUCK_DETECTED,0.00,0
1764574026.1170852,216.162,57,TEST2_OBSTACLE_BYPASS,True,254.5,2304.6,2318.6,6.30,0.937,0.0,1904.9,-384.2,137.87,143.89,137.87,145.05,86.10,-0.2333,10.0,1.223,-1.9897,3.2417,3.8036,-31.54,-7.2833,3.3096,8.0000,-65.56,27,700.0,158.0,-6.5339,4.6161,8.0000,-54.76,6.30,-54.76,-61.06,False,FORWARDS_LEFT,1.000,0,0,STUCK,False,False,True,0,True,STUCK_DETECTED,0.00,0
1764574026.156395,216.201,58,TEST2_OBSTACLE_BYPASS,True,254.5,2304.6,2318.6,6.30,0.937,0.0,1898.6,-378.7,139.11,146.23,139.11,146.72,86.53,-0.1939,10.0,1.493,-1.9922,3.2515,3.8133,-31.50,-7.2833,3.3096,8.0000,-65.56,27,700.0,158.0,-6.5312,4.6199,8.0000,-54.73,6.30,-54.73,-61.03,False,FORWARDS_LEFT,1.000,0,0,STUCK,False,False,True,0,True,STUCK_DETECTED,0.00,0
1764574026.2009037,216.245,59,TEST2_OBSTACLE_BYPASS,True,254.5,2304.6,2318.6,6.30,0.937,0.0,1891.8,-373.1,140.55,147.79,140.55,148.11,86.93,0.0096,10.0,1.779,-1.9945,3.2620,3.8234,-31.44,-7.9155,1.1599,8.0000,-81.66,33,700.0,158.0,-7.3057,3.2598,8.0000,-65.95,6.30,-65.95,-72.26,False,FORWARDS_LEFT,1.000,0,0,STUCK,False,False,True,0,True,STUCK_DETECTED,0.00,0
1764574026.2379382,216.283,60,TEST2_OBSTACLE_BYPASS,True,254.5,2304.6,2318.6,6.30,0.937,0.0,1885.4,-368.0,141.53,144.82,141.53,145.37,86.79,0.0969,10.0,2.072,-1.9964,3.2718,3.8328,-31.39,-7.9155,1.1599,8.0000,-81.66,33,700.0,158.0,-7.3033,3.2653,8.0000,-65.91,6.30,-65.91,-72.21,False,FORWARDS_LEFT,1.000,0,0,STUCK,False,False,True,0,True,STUCK_DETECTED,0.00,0
1764574026.2765253,216.321,61,TEST2_OBSTACLE_BYPASS,True,299.7,2299.1,2318.6,7.43,0.937,0.0,1878.9,-363.1,142.36,145.13,142.36,145.21,86.50,0.0735,10.0,2.368,-1.9779,3.3343,3.8768,-30.68,-7.9673,0.7222,8.0000,-84.82,40,700.0,161.0,-7.4075,3.0214,8.0000,-67.81,7.43,-67.81,-75.24,False,LEFT,0.700,0,0,STUCK,False,False,True,0,True,STUCK_DETECTED,0.00,0
1764574026.327447,216.372,62,TEST2_OBSTACLE_BYPASS,True,299.7,2299.1,2318.6,7.43,0.937,0.0,1878.9,-363.1,143.23,146.13,143.23,145.37,86.05,0.0756,10.0,2.670,-1.9779,3.3343,3.8768,-30.68,-7.9673,0.7222,8.0000,-84.82,40,700.0,161.0,-7.4075,3.0214,8.0000,-67.81,7.43,-67.81,-75.24,False,LEFT,0.700,0,0,STUCK,False,False,True,0,True,STUCK_DETECTED,0.00,0
1764574026.3553994,216.400,63,TEST2_OBSTACLE_BYPASS,False,0.0,0.0,0.0,0.00,0.000,0.0,1878.9,-363.1,143.92,145.95,143.92,144.03,85.85,0.0490,10.0,2.972,-1.9779,3.3343,3.8768,-30.68,-7.9785,0.5858,8.0000,-85.80,46,700.0,162.0,-7.4438,2.9308,8.0000,-68.51,0.00,-68.51,0.00,False,LEFT,0.700,0,0,STUCK,False,False,True,0,True,STUCK_DETECTED,0.00,0
1764574026.3949854,216.440,64,TEST2_OBSTACLE_BYPASS,False,0.0,0.0,0.0,0.00,0.000,0.0,1878.9,-363.1,144.46,144.93,144.46,141.37,85.89,-0.0533,10.0,3.274,-1.9779,3.3343,3.8768,-30.68,-7.9785,0.5858,8.0000,-85.80,46,700.0,162.0,-7.4438,2.9308,8.0000,-68.51,0.00,-68.51,0.00,False,LEFT,0.700,0,0,STUCK,False,False,True,0,True,STUCK_DETECTED,0.00,0
1764574026.4357345,216.480,65,TEST2_OBSTACLE_BYPASS,False,0.0,0.0,0.0,0.00,0.000,0.0,1878.9,-363.1,145.18,146.64,145.18,142.00,86.10,-0.0671,10.0,3.578,-1.9779,3.3343,3.8768,-30.68,-7.6648,2.2915,8.0000,-73.36,47,700.0,244.0,-6.9100,4.0314,8.0000,-59.74,0.00,-59.74,0.00,False,FORWARDS_LEFT,1.000,0,0,STUCK,False,False,True,0,True,STUCK_DETECTED,0.00,0
1764574026.4825215,216.527,66,TEST2_OBSTACLE_BYPASS,False,0.0,0.0,0.0,0.00,0.000,0.0,1871.7,-358.2,145.97,148.21,145.97,143.13,86.19,-0.0075,10.0,3.884,-1.9789,3.3452,3.8867,-30.61,-7.6648,2.2915,8.0000,-73.36,47,700.0,244.0,-6.9067,4.0369,8.0000,-59.69,0.00,-59.69,0.00,False,FORWARDS_LEFT,1.000,0,0,STUCK,False,False,True,0,True,STUCK_DETECTED,0.00,0
1764574026.5170336,216.562,67,TEST2_OBSTACLE_BYPASS,False,0.0,0.0,0.0,0.00,0.000,0.0,1864.8,-353.6,146.41,148.25,146.41,142.96,86.17,0.0032,10.0,4.188,-1.9797,3.3555,3.8960,-30.54,-4.1833,6.8191,8.0000,-31.53,47,700.0,244.0,-4.1447,6.8426,8.0000,-31.20,0.00,-31.20,0.00,False,FORWARDS_LEFT,1.000,0,0,STUCK,False,False,True,0,True,STUCK_DETECTED,0.00,0
1764574026.5658727,216.610,68,TEST2_OBSTACLE_BYPASS,False,0.0,0.0,0.0,0.00,0.000,0.0,1857.3,-348.6,146.53,147.42,146.53,141.60,86.21,-0.0149,10.0,4.484,-1.9806,3.3670,3.9063,-30.47,-4.1833,6.8191,8.0000,-31.53,47,700.0,244.0,-4.1417,6.8444,8.0000,-31.18,0.00,-31.18,0.00,False,FORWARDS_LEFT,1.000,0,0,STUCK,False,False,True,0,True,STUCK_DETECTED,0.00,0
1764574026.6007845,216.645,69,TEST2_OBSTACLE_BYPASS,False,0.0,0.0,0.0,0.00,0.000,0.0,1850.1,-343.9,146.48,147.35,146.48,141.02,86.27,-0.0117,10.0,4.771,-1.9815,3.3780,3.9162,-30.40,-2.7596,7.5090,8.0000,-20.18,44,650.0,244.0,-3.1942,7.3347,8.0000,-23.53,0.00,-23.53,0.00,False,FORWARDS_LEFT,1.000,0,0,STUCK,False,False,True,0,True,STUCK_DETECTED,0.00,0
1764574026.6415172,216.686,70,TEST2_OBSTACLE_BYPASS,False,0.0,0.0,0.0,0.00,0.000,0.0,1843.1,-339.3,146.75,147.46,146.75,141.17,86.27,0.0138,10.0,5.054,-1.9822,3.3887,3.9258,-30.33,-3.1684,7.3458,8.0000,-23.33,40,650.0,263.0,-3.4608,7.2127,8.0000,-25.63,0.00,-25.63,0.00,False,FORWARDS_LEFT,1.000,0,0,STUCK,False,False,True,0,True,STUCK_DETECTED,0.00,0
1764574026.6831505,216.728,71,TEST2_OBSTACLE_BYPASS,False,0.0,0.0,0.0,0.00,0.000,0.0,1835.6,-334.3,146.58,143.42,146.58,137.68,86.41,0.1246,10.0,5.326,-1.9830,3.4002,3.9362,-30.25,-3.1684,7.3458,8.0000,-23.33,40,650.0,263.0,-3.4582,7.2139,8.0000,-25.61,0.00,-25.61,0.00,False,FORWARDS_LEFT,1.000,0,0,STUCK,False,False,True,0,True,STUCK_DETECTED,0.00,0
1764574026.7212434,216.766,72,TEST2_OBSTACLE_BYPASS,False,0.0,0.0,0.0,0.00,0.000,0.0,1829.1,-329.9,145.62,136.59,145.62,131.40,86.41,0.2035,10.0,5.577,-1.9839,3.4103,3.9454,-30.19,-3.1026,0.4897,3.1410,-81.03,39,650.0,263.0,-5.0865,3.9000,6.4096,-52.52,0.00,-52.52,0.00,False,FORWARDS_LEFT,1.000,0,0,STUCK,False,False,True,0,True,STUCK_DETECTED,0.00,0
1764574026.7672856,216.812,73,TEST2_OBSTACLE_BYPASS,True,1334.5,3346.2,3602.5,21.74,0.829,0.0,1821.7,-324.4,143.58,125.56,143.58,120.91,86.41,0.1300,10.0,5.792,-0.4264,3.2126,3.2408,-7.56,-3.1026,0.4897,3.1410,-81.03,39,650.0,263.0,-3.5290,3.7024,5.1148,-43.63,21.74,-43.63,-65.37,False,FORWARDS_LEFT,1.000,0,0,STUCK,False,False,True,0,True,STUCK_DETECTED,0.00,0
1764574026.8086338,216.853,74,TEST2_OBSTACLE_BYPASS,True,1334.5,3346.2,3602.5,21.74,0.829,0.0,1815.0,-319.1,141.32,122.34,141.32,117.49,86.36,0.0160,10.0,5.971,-0.4220,3.2186,3.2462,-7.47,-1.6450,-1.6405,2.3232,-134.92,35,650.0,263.0,-2.0670,1.5782,2.6006,-52.64,21.74,-52.64,-74.38,False,FORWARDS_LEFT,0.780,0,0,STUCK,False,False,True,0,True,STUCK_DETECTED,0.00,0
1764574026.851668,216.896,75,TEST2_OBSTACLE_BYPASS,True,1334.5,3346.2,3602.5,21.74,0.829,0.0,1809.9,-314.7,139.43,127.66,139.43,121.93,86.25,-0.0756,10.0,6.119,-0.4186,3.2235,3.2506,-7.40,-1.6450,-1.6405,2.3232,-134.92,35,650.0,263.0,-2.0637,1.5831,2.6009,-52.51,21.74,-52.51,-74.25,False,FORWARDS_LEFT,0.780,0,0,STUCK,False,False,True,0,True,STUCK_DETECTED,0.00,0
1764574026.889388,216.934,76,TEST2_OBSTACLE_BYPASS,True,1334.5,3346.2,3602.5,21.74,0.829,0.0,1805.2,-310.5,138.04,134.39,138.04,127.97,86.23,-0.1001,10.0,6.245,-0.4155,3.2282,3.2548,-7.34,3.4518,7.2170,8.0000,25.56,35,650.0,263.0,2.2330,7.6820,8.0000,16.21,21.74,16.21,-5.53,False,FORWARDS,1.000,0,0,STUCK,False,False,True,0,True,STUCK_DETECTED,0.00,0
1764574026.9323657,216.977,77,TEST2_OBSTACLE_BYPASS,True,1399.9,3319.3,3602.5,22.87,0.829,0.0,1795.4,-301.4,137.19,139.70,137.19,132.79,85.98,-0.0096,10.0,6.357,-0.3577,3.2752,3.2947,-6.23,3.4518,7.2170,8.0000,25.56,35,650.0,263.0,2.2628,7.6733,8.0000,16.43,22.87,16.43,-6.44,False,FORWARDS,1.000,0,0,STUCK,False,False,True,0,True,STUCK_DETECTED,0.00,0
1764574026.9729168,217.018,78,TEST2_OBSTACLE_BYPASS,True,1399.9,3319.3,3602.5,22.87,0.829,0.0,1786.8,-293.3,136.72,142.76,136.72,135.33,85.63,0.0607,10.0,6.459,-0.3517,3.2840,3.3028,-6.11,3.5898,7.1494,8.0000,26.66,37,650.0,263.0,2.3713,7.6405,8.0000,17.24,22.87,17.24,-5.62,False,FORWARDS,1.000,0,0,STUCK,False,False,True,0,True,STUCK_DETECTED,0.00,0
1764574027.0156136,217.060,79,TEST2_OBSTACLE_BYPASS,True,1399.9,3319.3,3602.5,22.87,0.829,0.0,1777.4,-284.2,136.04,140.53,136.04,132.31,85.62,0.0085,10.0,6.550,-0.3450,3.2939,3.3119,-5.98,3.5898,7.1494,8.0000,26.66,37,650.0,263.0,2.3737,7.6397,8.0000,17.26,22.87,17.26,-5.61,False,FORWARDS,1.000,0,0,STUCK,False,False,True,0,True,STUCK_DETECTED,0.00,0
1764574027.054545,217.099,80,TEST2_OBSTACLE_BYPASS,True,1399.9,3319.3,3602.5,22.87,0.829,0.0,1768.8,-275.6,134.91,136.14,134.91,127.06,85.92,-0.0533,10.0,6.624,-0.3389,3.3033,3.3206,-5.86,3.7348,7.0747,8.0000,27.83,41,700.0,263.0,2.4880,7.6033,8.0000,18.12,22.87,18.12,-4.75,False,FORWARDS,1.000,0,0,STUCK,False,False,True,0,True,STUCK_DETECTED,0.00,0
1764574027.091839,217.136,81,TEST2_OBSTACLE_BYPASS,False,0.0,0.0,0.0,0.00,0.000,0.0,1760.8,-267.3,133.96,133.98,133.96,124.52,86.22,-0.0597,10.0,6.685,-0.3333,3.3122,3.3289,-5.75,3.7348,7.0747,8.0000,27.83,41,700.0,263.0,2.4898,7.6027,8.0000,18.13,0.00,18.13,0.00,False,FORWARDS,1.000,0,0,STUCK,False,False,True,0,True,STUCK_DETECTED,0.00,0
1764574027.1357005,217.180,82,TEST2_OBSTACLE_BYPASS,False,0.0,0.0,0.0,0.00,0.000,0.0,1751.9,-258.1,134.18,138.76,134.18,129.51,86.02,0.0565,10.0,6.747,-0.3268,3.3222,3.3382,-5.62,3.3290,7.2745,8.0000,24.59,39,700.0,280.0,2.1807,7.6971,8.0000,15.82,0.00,15.82,0.00,False,FORWARDS,1.000,0,0,SEARCHING,True,False,False,0,False,,0.00,0
1764574027.1739595,217.219,83,TEST2_OBSTACLE_BYPASS,False,0.0,0.0,0.0,0.00,0.000,0.0,1743.7,-250.2,135.69,140.64,135.69,131.82,85.71,0.0895,10.0,6.826,-0.3208,3.3309,3.3463,-5.50,3.3290,7.2745,8.0000,24.59,39,700.0,280.0,2.1830,7.6964,8.0000,15.84,0.00,15.84,0.00,False,FORWARDS,1.000,0,0,SEARCHING,False,False,False,0,False,,0.00,0
1764574027.216343,217.261,84,TEST2_OBSTACLE_BYPASS,False,0.0,0.0,0.0,0.00,0.000,0.0,1734.3,-241.6,137.49,140.34,137.49,131.67,85.56,-0.0266,10.0,6.925,-0.3137,3.3405,3.3552,-5.37,2.9396,7.4404,8.0000,21.56,36,700.0,280.0,1.8932,7.7728,8.0000,13.69,0.00,13.69,0.00,False,FORWARDS,1.000,0,0,SEARCHING,False,False,False,0,False,,0.00,0
1764574027.2534947,217.298,85,TEST2_OBSTACLE_BYPASS,False,0.0,0.0,0.0,0.00,0.000,0.0,1725.8,-234.1,139.03,143.05,139.03,134.10,85.39,-0.0266,10.0,7.039,-0.3071,3.3488,3.3629,-5.24,2.9396,7.4404,8.0000,21.56,36,700.0,280.0,1.8963,7.7720,8.0000,13.71,0.00,13.71,0.00,False,FORWARDS,1.000,0,0,SEARCHING,False,False,False,0,False,,0.00,0
1764574027.2964933,217.341,86,TEST2_OBSTACLE_BYPASS,False,0.0,0.0,0.0,0.00,0.000,0.0,1715.3,-225.5,140.28,146.86,140.28,138.18,85.12,0.0138,10.0,7.166,-0.2989,3.3586,3.3719,-5.08,2.9454,7.4380,8.0000,21.60,33,700.0,280.0,1.9046,7.7700,8.0000,13.77,0.00,13.77,0.00,False,FORWARDS,1.000,0,0,SEARCHING,False,False,False,0,False,,0.00,0
1764574027.3397567,217.384,87,TEST2_OBSTACLE_BYPASS,False,0.0,0.0,0.0,0.00,0.000,0.0,1706.2,-218.1,141.24,149.30,141.24,141.04,84.86,-0.0096,10.0,7.300,-0.2915,3.3670,3.3796,-4.95,2.9454,7.4380,8.0000,21.60,33,700.0,280.0,1.9082,7.7691,8.0000,13.80,0.00,13.80,0.00,False,FORWARDS,1.000,0,0,SEARCHING,False,False,False,0,False,,0.00,0
1764574027.3829877,217.428,88,TEST2_OBSTACLE_BYPASS,False,0.0,0.0,0.0,0.00,0.000,0.0,1695.9,-210.1,142.02,150.63,142.02,142.38,84.84,-0.0746,10.0,7.441,-0.2831,3.3762,3.3881,-4.79,3.7890,7.0458,8.0000,28.27,32,700.0,280.0,2.5507,7.5825,8.0000,18.59,0.00,18.59,0.00,False,FORWARDS,1.000,0,0,SEARCHING,False,False,False,0,False,,0.00,0
1764574027.4199555,217.465,89,TEST2_OBSTACLE_BYPASS,False,0.0,0.0,0.0,0.00,0.000,0.0,1686.0,-202.7,143.11,151.42,143.11,142.90,85.06,-0.0415,10.0,7.591,-0.2750,3.3848,3.3959,-4.64,3.5420,7.1731,8.0000,26.28,29,700.0,8.0,2.3649,7.6425,8.0000,17.19,0.00,17.19,0.00,False,FORWARDS,1.000,0,0,SEARCHING,False,False,False,0,False,,0.00,0
1764574027.4671981,217.512,90,TEST2_OBSTACLE_BYPASS,False,0.0,0.0,0.0,0.00,0.000,0.0,1675.4,-195.1,144.59,150.89,144.59,142.44,85.18,0.0234,10.0,7.754,-0.2660,3.3936,3.4040,-4.48,3.5420,7.1731,8.0000,26.28,29,700.0,8.0,2.3690,7.6412,8.0000,17.23,0.00,17.23,0.00,False,FORWARDS,1.000,0,0,SEARCHING,False,False,False,0,False,,0.00,0
1764574027.5026143,217.547,91,TEST2_OBSTACLE_BYPASS,False,0.0,0.0,0.0,0.00,0.000,0.0,1666.2,-188.9,146.10,149.13,146.10,141.32,85.20,0.0415,10.0,7.930,-0.2581,3.4009,3.4107,-4.34,3.6821,7.1023,8.0000,27.40,22,700.0,15.0,2.4795,7.6061,8.0000,18.06,0.00,18.06,0.00,False,FORWARDS,1.000,0,0,SEARCHING,False,False,False,0,False,,0.00,0
1764574027.5464606,217.591,92,TEST2_OBSTACLE_BYPASS,False,0.0,0.0,0.0,0.00,0.000,0.0,1655.5,-182.0,147.03,148.06,147.03,141.11,85.25,0.0000,10.0,8.113,-0.2489,3.4091,3.4181,-4.18,3.6821,7.1023,8.0000,27.40,22,700.0,15.0,2.4838,7.6046,8.0000,18.09,0.00,18.09,0.00,False,FORWARDS,1.000,0,0,SEARCHING,False,False,False,0,False,,0.00,0
1764574027.583407,217.628,93,TEST2_OBSTACLE_BYPASS,False,0.0,0.0,0.0,0.00,0.000,0.0,1645.7,-175.9,147.80,148.32,147.80,141.82,85.25,-0.0362,10.0,8.300,-0.2403,3.4164,3.4248,-4.02,4.3565,6.7098,8.0000,32.99,14,700.0,15.0,3.0125,7.4111,8.0000,22.12,0.00,22.12,0.00,False,FORWARDS,1.000,0,0,SEARCHING,False,False,False,0,False,,0.00,0
1764574027.6264043,217.671,94,TEST2_OBSTACLE_BYPASS,False,0.0,0.0,0.0,0.00,0.000,0.0,1634.8,-169.2,148.68,149.15,148.68,142.94,85.31,-0.0213,10.0,8.493,-0.2305,3.4243,3.4321,-3.85,4.3565,6.7098,8.0000,32.99,14,700.0,15.0,3.0166,7.4094,8.0000,22.15,0.00,22.15,0.00,False,FORWARDS,1.000,0,0,SEARCHING,False,False,False,0,False,,0.00,0
1764574027.6637657,217.708,95,TEST2_OBSTACLE_BYPASS,False,0.0,0.0,0.0,0.00,0.000,0.0,1625.1,-163.4,149.30,149.25,149.30,143.24,85.38,0.0277,10.0,8.688,-0.2218,3.4312,3.4383,-3.70,4.4945,6.6181,8.0000,34.18,11,700.0,17.0,3.1302,7.3622,8.0000,23.03,0.00,23.03,0.00,False,FORWARDS_RIGHT,1.000,0,0,SEARCHING,False,False,False,0,False,,0.00,0
1764574027.706475,217.751,96,TEST2_OBSTACLE_BYPASS,False,0.0,0.0,0.0,0.00,0.000,0.0,1617.5,-158.9,149.38,147.68,149.38,141.98,85.36,0.0309,10.0,8.879,-0.2150,3.4365,3.4433,-3.58,4.4945,6.6181,8.0000,34.18,11,700.0,17.0,3.1331,7.3610,8.0000,23.06,0.00,23.06,0.00,False,FORWARDS_RIGHT,1.000,0,0,SEARCHING,False,False,False,0,False,,0.00,0
1764574027.744571,217.789,97,TEST2_OBSTACLE_BYPASS,False,0.0,0.0,0.0,0.00,0.000,0.0,1610.6,-154.8,149.19,147.33,149.19,141.84,85.37,-0.0341,10.0,9.065,-0.2087,3.4414,3.4477,-3.47,4.2562,6.7739,8.0000,32.14,11,700.0,248.0,2.9469,7.4375,8.0000,21.61,0.00,21.61,0.00,False,FORWARDS,1.000,0,0,SEARCHING,False,False,False,0,False,,0.00,0
1764574027.7851195,217.830,98,TEST2_OBSTACLE_BYPASS,False,0.0,0.0,0.0,0.00,0.000,0.0,1600.1,-148.5,149.00,148.73,149.00,143.18,85.44,-0.0522,10.0,9.245,-0.1991,3.4488,3.4546,-3.30,4.2562,6.7739,8.0000,32.14,11,700.0,248.0,2.9510,7.4358,8.0000,21.65,0.00,21.65,0.00,False,FORWARDS,1.000,0,0,SEARCHING,False,False,False,0,False,,0.00,0
1764574027.8238997,217.868,99,TEST2_OBSTACLE_BYPASS,False,0.0,0.0,0.0,0.00,0.000,0.0,1590.1,-142.5,148.89,150.34,148.89,144.73,85.39,-0.0107,10.0,9.420,-0.1898,3.4560,3.4612,-3.14,3.9172,6.9753,8.0000,29.32,13,650.0,305.0,2.6919,7.5335,8.0000,19.66,0.00,19.66,0.00,False,FORWARDS,1.000,0,0,SEARCHING,False,False,False,0,False,,0.00,0
1764574027.867311,217.912,100,TEST2_OBSTACLE_BYPASS,False,0.0,0.0,0.0,0.00,0.000,0.0,1579.2,-135.9,148.80,150.01,148.80,144.68,85.33,0.0383,10.0,9.591,-0.1798,3.4636,3.4683,-2.97,3.9172,6.9753,8.0000,29.32,13,650.0,305.0,2.6966,7.5318,8.0000,19.70,0.00,19.70,0.00,False,FORWARDS,1.000,0,0,SEARCHING,False,False,False,0,False,,0.00,0
1764574027.9125783,217.957,101,TEST2_OBSTACLE_BYPASS,False,0.0,0.0,0.0,0.00,0.000,0.0,1567.3,-128.7,148.77,148.87,148.77,144.13,85.39,0.0256,10.0,9.758,-0.1686,3.4721,3.4762,-2.78,4.0877,6.8768,8.0000,30.73,12,650.0,36.0,2.8332,7.4815,8.0000,20.74,0.00,20.74,0.00,False,FORWARDS,1.000,0,0,SEARCHING,False,False,False,0,False,,0.00,0
1764574027.9516644,217.996,102,TEST2_OBSTACLE_BYPASS,False,0.0,0.0,0.0,0.00,0.000,0.0,1557.3,-122.6,148.85,148.81,148.85,144.43,85.40,-0.0128,10.0,10.022,-0.1591,3.4791,3.4827,-2.62,4.0877,6.8768,8.0000,30.73,12,650.0,36.0,2.8375,7.4799,8.0000,20.77,0.00,20.77,0.00,False,FORWARDS,1.000,0,0,SEARCHING,False,False,False,0,False,,0.00,0
1764574027.9952295,218.040,103,TEST2_OBSTACLE_BYPASS,False,0.0,0.0,0.0,0.00,0.000,0.0,1546.3,-116.0,148.87,148.51,148.87,144.48,85.48,-0.0107,10.0,10.285,-0.1486,3.4868,3.4899,-2.44,4.0981,6.8706,8.0000,30.81,15,650.0,36.0,2.8504,7.4750,8.0000,20.87,0.00,20.87,0.00,False,FORWARDS,1.000,0,0,SEARCHING,False,False,False,0,False,,0.00,0
1764574028.0381608,218.083,104,TEST2_OBSTACLE_BYPASS,False,0.0,0.0,0.0,0.00,0.000,0.0,1536.5,-110.1,148.70,147.48,148.70,143.79,85.66,-0.0011,10.0,10.548,-0.1392,3.4936,3.4964,-2.28,4.0981,6.8706,8.0000,30.81,15,650.0,36.0,2.8547,7.4733,8.0000,20.91,0.00,20.91,0.00,False,FORWARDS,1.000,0,0,SEARCHING,False,False,False,0,False,,0.00,0
1764574028.0755422,218.120,105,TEST2_OBSTACLE_BYPASS,False,0.0,0.0,0.0,0.00,0.000,0.0,1525.6,-103.3,148.45,146.72,148.45,143.59,85.67,0.0021,10.0,10.807,-0.1286,3.5013,3.5037,-2.10,3.8078,7.0357,8.0000,28.42,11,650.0,36.0,2.6373,7.5528,8.0000,19.25,0.00,19.25,0.00,False,FORWARDS,1.000,0,0,SEARCHING,False,False,False,0,False,,0.00,0
1764574028.1152253,218.160,106,TEST2_OBSTACLE_BYPASS,False,0.0,0.0,0.0,0.00,0.000,0.0,1515.3,-97.0,148.51,148.33,148.51,146.05,85.61,-0.0309,10.0,11.068,-0.1185,3.5085,3.5105,-1.93,3.9703,6.9452,8.0000,29.76,8,650.0,36.0,2.7659,7.5066,8.0000,20.23,0.00,20.23,0.00,False,FORWARDS,1.000,0,0,SEARCHING,False,False,False,0,False,,0.00,0
1764574028.1571634,218.202,107,TEST2_OBSTACLE_BYPASS,False,0.0,0.0,0.0,0.00,0.000,0.0,1504.6,-90.5,148.76,149.80,148.76,148.33,85.50,-0.0064,10.0,11.330,-0.1079,3.5159,3.5175,-1.76,3.9703,6.9452,8.0000,29.76,8,650.0,36.0,2.7709,7.5048,8.0000,20.27,0.00,20.27,0.00,False,FORWARDS,1.000,0,0,SEARCHING,False,False,False,0,False,,0.00,0
1764574028.196032,218.241,108,TEST2_OBSTACLE_BYPASS,False,0.0,0.0,0.0,0.00,0.000,0.0,1494.8,-84.6,148.87,149.79,148.87,149.32,85.46,0.0213,10.0,11.594,-0.0982,3.5226,3.5240,-1.60,4.8768,6.3417,8.0000,37.56,4,650.0,302.0,3.4878,7.1997,8.0000,25.85,0.00,25.85,0.00,False,FORWARDS_RIGHT,1.000,0,0,SEARCHING,False,False,False,0,False,,0.00,0
1764574028.2395961,218.284,109,TEST2_OBSTACLE_BYPASS,False,0.0,0.0,0.0,0.00,0.000,0.0,1487.0,-79.8,148.67,148.35,148.67,148.50,85.58,0.0320,10.0,11.856,-0.0904,3.5279,3.5291,-1.47,4.8768,6.3417,8.0000,37.56,4,650.0,302.0,3.4909,7.1982,8.0000,25.87,0.00,25.87,0.00,False,FORWARDS_RIGHT,1.000,0,0,SEARCHING,False,False,False,0,False,,0.00,0
1764574028.2753594,218.320,110,TEST2_OBSTACLE_BYPASS,False,0.0,0.0,0.0,0.00,0.000,0.0,1480.1,-75.6,148.35,146.88,148.35,147.39,85.72,-0.0011,10.0,12.115,-0.0835,3.5327,3.5336,-1.35,3.6884,7.0990,8.0000,27.46,6,650.0,303.0,2.5690,7.5763,8.0000,18.73,0.00,18.73,0.00,False,FORWARDS,1.000,0,0,SEARCHING,False,False,False,0,False,,0.00,0
1764574028.320895,218.365,111,TEST2_OBSTACLE_BYPASS,False,0.0,0.0,0.0,0.00,0.000,0.0,1469.3,-68.9,148.23,147.58,148.23,148.00,85.80,-0.0543,10.0,12.373,-0.0725,3.5402,3.5409,-1.17,3.6884,7.0990,8.0000,27.46,6,650.0,303.0,2.5744,7.5745,8.0000,18.77,0.00,18.77,0.00,False,FORWARDS,1.000,0,0,SEARCHING,False,False,False,0,False,,0.00,0
1764574028.3569686,218.402,112,TEST2_OBSTACLE_BYPASS,False,0.0,0.0,0.0,0.00,0.000,0.0,1459.7,-63.0,148.23,148.89,148.23,149.16,85.80,-0.0565,10.0,12.634,-0.0627,3.5468,3.5473,-1.01,3.0812,7.3828,8.0000,22.65,6,650.0,303.0,2.1297,7.7113,8.0000,15.44,0.00,15.44,0.00,False,FORWARDS,1.000,0,0,SEARCHING,False,False,False,0,False,,0.00,0
1764574028.4007719,218.445,113,TEST2_OBSTACLE_BYPASS,False,0.0,0.0,0.0,0.00,0.000,0.0,1448.7,-56.2,148.43,150.49,148.43,150.41,85.94,-0.0629,10.0,12.899,-0.0514,3.5542,3.5546,-0.83,3.0812,7.3828,8.0000,22.65,6,650.0,303.0,2.1357,7.7096,8.0000,15.48,0.00,15.48,0.00,False,FORWARDS,1.000,0,0,SEARCHING,False,False,False,0,False,,0.00,0
1764574028.4404333,218.485,114,TEST2_OBSTACLE_BYPASS,False,0.0,0.0,0.0,0.00,0.000,0.0,1438.6,-50.1,148.80,151.20,148.80,150.71,86.25,-0.1055,10.0,13.169,-0.0409,3.5610,3.5612,-0.66,3.4434,7.2210,8.0000,25.49,5,650.0,301.0,2.4076,7.6291,8.0000,17.51,0.00,17.51,0.00,False,FORWARDS,1.000,0,0,SEARCHING,False,False,False,0,False,,0.00,0
1764574028.4782562,218.523,115,TEST2_OBSTACLE_BYPASS,False,0.0,0.0,0.0,0.00,0.000,0.0,1428.7,-44.3,149.43,153.01,149.43,152.09,86.65,-0.1108,10.0,13.446,-0.0306,3.5673,3.5674,-0.49,3.4434,7.2210,8.0000,25.49,5,650.0,301.0,2.4129,7.6275,8.0000,17.55,0.00,17.55,0.00,False,FORWARDS,1.000,0,0,SEARCHING,False,False,False,0,False,,0.00,0
1764574028.5253646,218.570,116,TEST2_OBSTACLE_BYPASS,False,0.0,0.0,0.0,0.00,0.000,0.0,1416.9,-37.5,150.23,156.34,150.23,155.21,86.92,-0.0937,10.0,13.732,-0.0181,3.5747,3.5747,-0.29,2.9398,7.4403,8.0000,21.56,6,650.0,301.0,2.0511,7.7326,8.0000,14.86,0.00,14.86,0.00,False,FORWARDS,1.000,0,0,SEARCHING,False,False,False,0,False,,0.00,0
1764574028.5558228,218.600,117,TEST2_OBSTACLE_BYPASS,False,0.0,0.0,0.0,0.00,0.000,0.0,1407.9,-32.5,151.06,158.10,151.06,156.97,87.10,-0.0447,10.0,14.028,-0.0085,3.5801,3.5801,-0.14,2.9398,7.4403,8.0000,21.56,6,650.0,301.0,2.0564,7.7312,8.0000,14.90,0.00,14.90,0.00,False,FORWARDS,1.000,0,0,SEARCHING,False,False,False,0,False,,0.00,0
1764574028.6003513,218.645,118,TEST2_OBSTACLE_BYPASS,False,0.0,0.0,0.0,0.00,0.000,0.0,1396.6,-26.5,152.00,159.19,152.00,158.21,87.40,-0.0629,10.0,14.335,0.0036,3.5865,3.5865,0.06,1.3820,3.1790,3.4664,23.50,2,700.0,301.0,1.3855,6.7655,6.9059,11.57,0.00,11.57,0.00,False,FORWARDS,1.000,0,0,SEARCHING,False,False,False,0,False,,0.00,0
1764574028.6426232,218.687,119,TEST2_OBSTACLE_BYPASS,False,0.0,0.0,0.0,0.00,0.000,0.0,1385.6,-21.0,153.37,162.06,153.37,161.04,87.32,-0.0511,10.0,14.659,0.0153,3.5923,3.5924,0.24,1.3820,3.1790,3.4664,23.50,2,700.0,301.0,1.3973,6.7713,6.9140,11.66,0.00,11.66,0.00,False,FORWARDS,1.000,0,0,SEARCHING,False,False,False,0,False,,0.00,0
1764574028.6813736,218.726,120,TEST2_OBSTACLE_BYPASS,False,0.0,0.0,0.0,0.00,0.000,0.0,1374.7,-15.9,155.07,163.79,155.07,162.75,87.28,0.0245,10.0,15.007,0.0272,3.5977,3.5978,0.43,2.1616,4.7566,5.2247,24.44,4,700.0,300.0,2.0276,7.7388,8.0000,14.68,0.00,14.68,0.00,False,FORWARDS,1.000,0,0,SEARCHING,False,False,False,0,False,,0.00,0
1764574028.720605,218.765,121,TEST2_OBSTACLE_BYPASS,False,0.0,0.0,0.0,0.00,0.000,0.0,1364.1,-11.4,156.59,162.79,156.59,161.78,87.16,0.0415,10.0,15.377,0.0387,3.6024,3.6026,0.62,2.1616,4.7566,5.2247,24.44,4,700.0,300.0,2.0364,7.7365,8.0000,14.75,0.00,14.75,0.00,False,FORWARDS,1.000,0,0,SEARCHING,False,False,False,0,False,,0.00,0
1764574028.7655656,218.810,122,TEST2_OBSTACLE_BYPASS,False,0.0,0.0,0.0,0.00,0.000,0.0,1351.6,-6.2,157.71,160.10,157.71,159.14,87.26,0.0192,10.0,15.767,0.0524,3.6076,3.6080,0.83,2.3317,6.0212,6.4569,21.17,4,700.0,300.0,1.9227,7.7655,8.0000,13.91,0.00,13.91,0.00,False,FORWARDS,1.000,0,0,SEARCHING,False,False,False,0,False,,0.00,0
1764574028.8105118,218.855,123,TEST2_OBSTACLE_BYPASS,False,0.0,0.0,0.0,0.00,0.000,0.0,1340.3,-1.8,158.58,159.25,158.58,158.30,87.26,-0.0096,10.0,16.170,0.0648,3.6120,3.6126,1.03,2.3317,6.0212,6.4569,21.17,4,700.0,300.0,1.9313,7.7634,8.0000,13.97,0.00,13.97,0.00,False,FORWARDS,1.000,0,0,SEARCHING,False,False,False,0,False,,0.00,0
1764574028.8425157,218.887,124,TEST2_OBSTACLE_BYPASS,False,0.0,0.0,0.0,0.00,0.000,0.0,1329.9,2.1,159.41,159.44,159.41,158.53,87.26,-0.0224,10.0,16.583,0.0763,3.6159,3.6167,1.21,2.0106,4.9204,5.3153,22.23,4,700.0,300.0,1.8998,7.7711,8.0000,13.74,0.00,13.74,0.00,False,FORWARDS,1.000,0,0,SEARCHING,False,False,False,0,False,,0.00,0
1764574028.8902907,218.935,125,TEST2_OBSTACLE_BYPASS,False,0.0,0.0,0.0,0.00,0.000,0.0,1316.4,7.0,160.21,161.06,160.21,160.20,87.33,-0.0053,10.0,17.004,0.0913,3.6205,3.6216,1.44,2.6355,6.0434,6.5931,23.56,5,700.0,294.0,2.1725,7.6994,8.0000,15.76,0.00,15.76,0.00,False,FORWARDS,1.000,0,0,SEARCHING,False,False,False,0,False,,0.00,0
1764574028.929752,218.974,126,TEST2_OBSTACLE_BYPASS,False,0.0,0.0,0.0,0.00,0.000,0.0,1305.4,10.8,160.78,161.99,160.78,161.17,87.16,0.0245,10.0,17.430,0.1035,3.6240,3.6255,1.64,2.6355,6.0434,6.5931,23.56,5,700.0,294.0,2.1808,7.6970,8.0000,15.82,0.00,15.82,0.00,False,FORWARDS,1.000,0,0,SEARCHING,False,False,False,0,False,,0.00,0
1764574028.9702315,219.015,127,TEST2_OBSTACLE_BYPASS,False,0.0,0.0,0.0,0.00,0.000,0.0,1293.5,14.9,161.17,162.06,161.17,161.26,86.89,0.0266,10.0,17.858,0.1168,3.6277,3.6295,1.84,1.6562,3.5588,3.9254,24.96,3,700.0,294.0,1.7730,7.1865,7.4020,13.86,0.00,13.86,0.00,False,FORWARDS,1.000,0,0,SEARCHING,False,False,False,0,False,,0.00,0
1764574029.0115778,219.056,128,TEST2_OBSTACLE_BYPASS,False,0.0,0.0,0.0,0.00,0.000,0.0,1282.5,18.5,161.42,161.62,161.42,160.83,86.87,0.0160,10.0,18.284,0.1291,3.6309,3.6332,2.04,1.6562,3.5588,3.9254,24.96,3,700.0,294.0,1.7853,7.1897,7.4081,13.95,0.00,13.95,0.00,False,FORWARDS,1.000,0,0,SEARCHING,False,False,False,0,False,,0.00,0
1764574029.0491388,219.094,129,TEST2_OBSTACLE_BYPASS,False,0.0,0.0,0.0,0.00,0.000,0.0,1270.7,22.5,161.33,161.22,161.33,160.42,87.00,-0.0053,10.0,18.707,0.1424,3.6343,3.6371,2.24,1.5922,3.0529,3.4431,27.54,3,750.0,294.0,1.7346,6.6872,6.9085,14.54,0.00,14.54,0.00,False,FORWARDS,1.000,0,0,SEARCHING,False,False,False,0,False,,0.00,0
1764574029.090118,219.135,130,TEST2_OBSTACLE_BYPASS,False,0.0,0.0,0.0,0.00,0.000,0.0,1259.7,26.3,161.08,161.26,161.08,160.52,87.15,-0.0096,10.0,19.127,0.1549,3.6375,3.6408,2.44,1.5922,3.0529,3.4431,27.54,3,750.0,294.0,1.7471,6.6904,6.9147,14.64,0.00,14.64,0.00,False,FORWARDS,1.000,0,0,SEARCHING,False,False,False,0,False,,0.00,0
1764574029.1319618,219.177,131,TEST2_OBSTACLE_BYPASS,False,0.0,0.0,0.0,0.00,0.000,0.0,1247.8,30.4,160.98,161.83,160.98,161.17,87.28,-0.0096,10.0,19.543,0.1684,3.6408,3.6447,2.65,0.4196,0.7418,0.8522,29.50,0,900.0,293.0,0.5880,4.3826,4.4218,7.64,0.00,7.64,0.00,False,FORWARDS,1.000,0,0,SEARCHING,False,False,False,0,False,,0.00,0
1764574029.1680045,219.213,132,TEST2_OBSTACLE_BYPASS,False,0.0,0.0,0.0,0.00,0.000,0.0,1237.2,34.0,161.22,162.44,161.22,161.82,87.12,0.0266,10.0,19.950,0.1805,3.6437,3.6481,2.84,0.4196,0.7418,0.8522,29.50,0,900.0,293.0,0.6001,4.3854,4.4263,7.79,0.00,7.79,0.00,False,FORWARDS,1.000,0,0,SEARCHING,False,False,False,0,False,,0.00,0
1764574029.212546,219.257,133,TEST2_OBSTACLE_BYPASS,False,0.0,0.0,0.0,0.00,0.000,0.0,1224.9,38.1,161.47,161.83,161.47,161.26,86.94,0.0309,10.0,20.350,0.1945,3.6468,3.6520,3.05,1.0987,1.8002,2.1090,31.40,0,800.0,293.0,1.2932,5.4471,5.5985,13.36,0.00,13.36,0.00,False,FORWARDS,1.000,0,0,SEARCHING,False,False,False,0,False,,0.00,0
1764574029.251622,219.296,134,TEST2_OBSTACLE_BYPASS,False,0.0,0.0,0.0,0.00,0.000,0.0,1213.6,41.9,161.62,160.92,161.62,160.34,86.92,0.0096,10.0,20.746,0.2074,3.6496,3.6555,3.25,1.0987,1.8002,2.1090,31.40,0,800.0,293.0,1.3061,5.4498,5.6042,13.48,0.00,13.48,0.00,False,FORWARDS,1.000,0,0,SEARCHING,False,False,False,0,False,,0.00,0
1764574029.2946777,219.339,135,TEST2_OBSTACLE_BYPASS,False,0.0,0.0,0.0,0.00,0.000,0.0,1201.5,45.9,161.52,160.06,161.52,159.47,87.10,-0.0234,10.0,21.140,0.2214,3.6525,3.6592,3.47,1.1365,1.7569,2.0924,32.90,0,800.0,295.0,1.3578,5.4094,5.5772,14.09,0.00,14.09,0.00,False,FORWARDS,1.000,0,0,SEARCHING,False,False,False,0,False,,0.00,0
1764574029.3347683,219.379,136,TEST2_OBSTACLE_BYPASS,False,0.0,0.0,0.0,0.00,0.000,0.0,1190.2,49.8,161.36,160.32,161.36,159.80,87.16,-0.0256,10.0,21.535,0.2345,3.6552,3.6627,3.67,1.1365,1.7569,2.0924,32.90,0,800.0,295.0,1.3709,5.4121,5.5830,14.21,0.00,14.21,0.00,False,FORWARDS,1.000,0,0,SEARCHING,False,False,False,0,False,,0.00,0
1764574029.3708332,219.415,137,TEST2_OBSTACLE_BYPASS,False,0.0,0.0,0.0,0.00,0.000,0.0,1179.3,53.5,161.29,161.38,161.29,160.98,87.24,0.0234,10.0,21.932,0.2471,3.6576,3.6660,3.86,1.0469,1.5523,1.8724,34.00,0,850.0,295.0,1.2940,5.2100,5.3683,13.95,0.00,13.95,0.00,False,FORWARDS,1.000,0,0,SEARCHING,False,False,False,0,False,,0.00,0
1764574029.4157968,219.460,138,TEST2_OBSTACLE_BYPASS,False,0.0,0.0,0.0,0.00,0.000,0.0,1167.1,57.6,161.16,160.35,161.16,160.10,87.06,0.0778,10.0,22.333,0.2612,3.6604,3.6697,4.08,1.0469,1.5523,1.8724,34.00,0,850.0,295.0,1.3081,5.2127,5.3743,14.09,0.00,14.09,0.00,False,FORWARDS,1.000,0,0,SEARCHING,False,False,False,0,False,,0.00,0
1764574029.4553828,219.500,139,TEST2_OBSTACLE_BYPASS,False,0.0,0.0,0.0,0.00,0.000,0.0,1155.9,61.5,160.81,157.74,160.81,157.62,86.90,0.0554,10.0,22.731,0.2744,3.6629,3.6731,4.28,0.9423,1.3651,1.6587,34.62,0,850.0,289.0,1.2166,5.0280,5.1731,13.60,0.00,13.60,0.00,False,FORWARDS,1.000,0,0,SEARCHING,False,False,False,0,False,,0.00,0
1764574029.502844,219.547,140,TEST2_OBSTACLE_BYPASS,False,0.0,0.0,0.0,0.00,0.000,0.0,1144.3,65.7,160.32,156.36,160.32,156.21,86.80,-0.0021,10.0,23.116,0.2880,3.6655,3.6768,4.49,0.9423,1.3651,1.6587,34.62,0,850.0,289.0,1.2303,5.0306,5.1789,13.74,0.00,13.74,0.00,False,FORWARDS,1.000,0,0,SEARCHING,False,False,False,0,False,,0.00,0
1764574029.5365126,219.581,141,TEST2_OBSTACLE_BYPASS,False,0.0,0.0,0.0,0.00,0.000,0.0,1133.2,69.7,159.78,156.44,159.78,156.22,86.93,-0.0309,10.0,23.487,0.3010,3.6680,3.6804,4.69,0.4976,0.6485,0.8173,37.50,0,900.0,287.0,0.7986,4.3165,4.3898,10.48,0.00,10.48,0.00,False,FORWARDS,1.000,0,0,SEARCHING,False,False,False,0,False,,0.00,0
1764574029.5798807,219.624,142,TEST2_OBSTACLE_BYPASS,False,0.0,0.0,0.0,0.00,0.000,0.0,1121.6,74.1,159.26,157.25,159.26,157.05,87.10,-0.0639,10.0,23.848,0.3148,3.6708,3.6842,4.90,0.4976,0.6485,0.8173,37.50,0,900.0,287.0,0.8123,4.3192,4.3949,10.65,0.00,10.65,0.00,False,FORWARDS,1.000,0,0,SEARCHING,False,False,False,0,False,,0.00,0
1764574029.6166573,219.661,143,TEST2_OBSTACLE_BYPASS,False,0.0,0.0,0.0,0.00,0.000,0.0,1110.7,78.3,158.96,158.76,158.96,158.61,87.14,-0.0501,10.0,24.204,0.3278,3.6733,3.6879,5.10,0.7528,0.9637,1.2229,38.00,0,900.0,287.0,1.0806,4.6370,4.7612,13.12,0.00,13.12,0.00,False,FORWARDS,1.000,0,0,SEARCHING,False,False,False,0,False,,0.00,0
1764574029.6623273,219.707,144,TEST2_OBSTACLE_BYPASS,False,0.0,0.0,0.0,0.00,0.000,0.0,1098.9,82.9,158.94,160.71,158.94,160.58,87.15,-0.0149,10.0,24.555,0.3419,3.6759,3.6918,5.31,0.7528,0.9637,1.2229,38.00,0,900.0,287.0,1.0947,4.6396,4.7670,13.28,0.00,13.28,0.00,False,FORWARDS,1.000,0,0,SEARCHING,False,False,False,0,False,,0.00,0
1764574029.6969619,219.742,145,TEST2_OBSTACLE_BYPASS,False,0.0,0.0,0.0,0.00,0.000,0.0,1087.9,87.1,159.11,161.80,159.11,161.69,87.12,-0.0181,10.0,24.898,0.3550,3.6783,3.6954,5.51,0.7677,0.9426,1.2157,39.16,0,900.0,287.0,1.1228,4.6209,4.7553,13.66,0.00,13.66,0.00,False,FORWARDS,1.000,0,0,SEARCHING,False,False,False,0,False,,0.00,0
1764574029.7456696,219.790,146,TEST2_OBSTACLE_BYPASS,False,0.0,0.0,0.0,0.00,0.000,0.0,1075.3,91.8,159.36,162.78,159.36,162.69,87.09,-0.0128,10.0,25.229,0.3702,3.6808,3.6993,5.74,0.3891,0.4637,0.6053,40.00,0,950.0,287.0,0.7592,4.1445,4.2135,10.38,0.00,10.38,0.00,False,FORWARDS,1.000,0,0,SEARCHING,False,False,False,0,False,,0.00,0
1764574029.7804174,219.825,147,TEST2_OBSTACLE_BYPASS,False,0.0,0.0,0.0,0.00,0.000,0.0,1064.8,95.7,159.57,163.53,159.57,163.46,87.08,-0.0362,10.0,25.547,0.3829,3.6827,3.7026,5.94,0.3891,0.4637,0.6053,40.00,0,950.0,287.0,0.7719,4.1465,4.2177,10.55,0.00,10.55,0.00,False,FORWARDS,1.000,0,0,SEARCHING,False,False,False,0,False,,0.00,0
1764574029.8231297,219.868,148,TEST2_OBSTACLE_BYPASS,False,0.0,0.0,0.0,0.00,0.000,0.0,1052.8,100.1,159.95,164.16,159.95,164.12,87.12,-0.0138,10.0,25.855,0.3973,3.6848,3.7061,6.15,0.3910,0.4607,0.6043,40.33,0,950.0,287.0,0.7884,4.1454,4.2197,10.77,0.00,10.77,0.00,False,FORWARDS,1.000,0,0,SEARCHING,False,False,False,0,False,,0.00,0
1764574029.8588428,219.903,149,TEST2_OBSTACLE_BYPASS,False,0.0,0.0,0.0,0.00,0.000,0.0,1041.9,104.0,160.53,163.50,160.53,163.58,87.31,0.0277,10.0,26.157,0.4105,3.6864,3.7091,6.35,0.3910,0.4607,0.6043,40.33,0,950.0,287.0,0.8015,4.1470,4.2238,10.94,0.00,10.94,0.00,False,FORWARDS,1.000,0,0,SEARCHING,False,False,False,0,False,,0.00,0
1764574029.9039862,219.949,150,TEST2_OBSTACLE_BYPASS,False,0.0,0.0,0.0,0.00,0.000,0.0,1029.9,108.1,161.10,162.06,161.10,162.28,87.37,0.0224,10.0,26.454,0.4249,3.6879,3.7123,6.57,0.1337,0.1485,0.1998,42.00,0,950.0,287.0,0.5586,3.8364,3.8768,8.28,0.00,8.28,0.00,False,FORWARDS,1.000,0,0,SEARCHING,False,False,False,0,False,,0.00,0
1764574029.9402008,219.985,151,TEST2_OBSTACLE_BYPASS,False,0.0,0.0,0.0,0.00,0.000,0.0,1019.3,111.6,161.61,161.51,161.61,161.74,87.33,0.0320,10.0,26.745,0.4377,3.6890,3.7149,6.77,0.1337,0.1485,0.1998,42.00,0,950.0,287.0,0.5714,3.8375,3.8798,8.47,0.00,8.47,0.00,False,FORWARDS,1.000,0,0,SEARCHING,False,False,False,0,False,,0.00,0
1764574029.9854808,220.030,152,TEST2_OBSTACLE_BYPASS,False,0.0,0.0,0.0,0.00,0.000,0.0,1006.7,115.7,161.87,159.91,161.87,160.11,87.17,0.0085,10.0,27.027,0.4530,3.6902,3.7179,7.00,0.0000,0.0000,0.0000,0.00,0,1000.0,286.0,0.4530,3.6902,3.7179,7.00,0.00,7.00,0.00,False,FORWARDS,1.000,0,0,SEARCHING,False,False,False,0,False,,0.00,0
1764574030.022457,220.067,153,TEST2_OBSTACLE_BYPASS,False,0.0,0.0,0.0,0.00,0.000,0.0,996.0,119.3,161.77,157.75,161.77,157.86,87.52,-0.0256,10.0,27.298,0.4659,3.6911,3.7204,7.19,0.0000,0.0000,0.0000,0.00,0,1000.0,286.0,0.4659,3.6911,3.7204,7.19,0.00,7.19,0.00,False,FORWARDS,1.000,0,0,SEARCHING,False,False,False,0,False,,0.00,0
1764574030.061677,220.106,154,TEST2_OBSTACLE_BYPASS,False,0.0,0.0,0.0,0.00,0.000,0.0,984.3,123.2,161.49,157.85,161.49,158.05,87.82,-0.0618,10.0,27.557,0.0000,0.0000,0.0000,0.00,0.0000,0.0000,0.0000,0.00,0,1000.0,285.0,0.0000,0.0000,0.0000,0.00,0.00,0.00,0.00,False,NONE,0.000,0,0,SEARCHING,False,False,False,0,False,,0.00,0
1764574030.103675,220.148,155,TEST2_OBSTACLE_BYPASS,False,0.0,0.0,0.0,0.00,0.000,0.0,972.3,127.2,161.39,160.87,161.39,161.12,87.82,-0.0202,10.0,27.808,0.0000,0.0000,0.0000,0.00,0.0000,0.0000,0.0000,0.00,0,1000.0,285.0,0.0000,0.0000,0.0000,0.00,0.00,0.00,0.00,False,NONE,0.000,0,0,SEARCHING,False,False,False,0,False,,0.00,0
1764574030.141561,220.186,156,TEST2_OBSTACLE_BYPASS,False,0.0,0.0,0.0,0.00,0.000,0.0,961.5,130.9,161.25,161.37,161.25,161.77,87.77,0.0522,10.0,28.051,0.0000,0.0000,0.0000,0.00,0.0000,0.0000,0.0000,0.00,0,1050.0,285.0,0.0000,0.0000,0.0000,0.00,0.00,0.00,0.00,False,NONE,0.000,0,0,SEARCHING,False,False,False,0,False,,0.00,0
1764574030.1848137,220.229,157,TEST2_OBSTACLE_BYPASS,False,0.0,0.0,0.0,0.00,0.000,0.0,949.3,135.1,160.74,158.40,160.74,158.90,87.52,0.0820,10.0,28.280,0.0000,0.0000,0.0000,0.00,0.0000,0.0000,0.0000,0.00,0,1050.0,285.0,0.0000,0.0000,0.0000,0.00,0.00,0.00,0.00,False,NONE,0.000,0,0,SEARCHING,False,False,False,0,False,,0.00,0
1764574030.228578,220.273,158,TEST2_OBSTACLE_BYPASS,False,0.0,0.0,0.0,0.00,0.000,0.0,936.5,139.8,159.91,155.90,159.91,156.44,87.21,0.0490,10.0,28.488,0.0000,0.0000,0.0000,0.00,0.0000,0.0000,0.0000,0.00,0,1050.0,284.0,0.0000,0.0000,0.0000,0.00,0.00,0.00,0.00,False,NONE,0.000,0,0,SEARCHING,False,False,False,0,False,,0.00,0
1764574030.2717159,220.316,159,TEST2_OBSTACLE_BYPASS,False,0.0,0.0,0.0,0.00,0.000,0.0,924.7,144.3,159.05,154.85,159.05,155.38,87.19,0.0107,10.0,28.673,0.0000,0.0000,0.0000,0.00,0.0000,0.0000,0.0000,0.00,0,1050.0,284.0,0.0000,0.0000,0.0000,0.00,0.00,0.00,0.00,False,NONE,0.000,0,0,SEARCHING,False,False,False,0,False,,0.00,0
1764574030.3093479,220.354,160,TEST2_OBSTACLE_BYPASS,False,0.0,0.0,0.0,0.00,0.000,0.0,914.3,148.5,158.32,154.75,158.32,155.31,87.20,-0.0128,10.0,28.841,0.0000,0.0000,0.0000,0.00,0.0000,0.0000,0.0000,0.00,0,1100.0,284.0,0.0000,0.0000,0.0000,0.00,0.00,0.00,0.00,False,NONE,0.000,0,0,SEARCHING,False,False,False,0,False,,0.00,0
1764574030.355504,220.400,161,TEST2_OBSTACLE_BYPASS,False,0.0,0.0,0.0,0.00,0.000,0.0,901.5,153.7,157.68,155.11,157.68,155.74,87.23,-0.0021,10.0,28.994,0.0000,0.0000,0.0000,0.00,0.0000,0.0000,0.0000,0.00,0,1100.0,278.0,0.0000,0.0000,0.0000,0.00,0.00,0.00,0.00,False,NONE,0.000,0,0,SEARCHING,False,False,False,0,False,,0.00,0
1764574030.3934612,220.438,162,TEST2_OBSTACLE_BYPASS,False,0.0,0.0,0.0,0.00,0.000,0.0,891.0,158.1,157.20,155.18,157.20,155.80,87.21,0.0149,10.0,29.134,0.0000,0.0000,0.0000,0.00,0.0000,0.0000,0.0000,0.00,0,1100.0,278.0,0.0000,0.0000,0.0000,0.00,0.00,0.00,0.00,False,NONE,0.000,0,0,SEARCHING,False,False,False,0,False,,0.00,0
1764574030.4363189,220.481,163,TEST2_OBSTACLE_BYPASS,False,0.0,0.0,0.0,0.00,0.000,0.0,879.2,163.1,156.97,155.41,156.97,156.04,87.17,0.0053,10.0,29.264,0.0000,0.0000,0.0000,0.00,0.0000,0.0000,0.0000,0.00,0,1100.0,277.0,0.0000,0.0000,0.0000,0.00,0.00,0.00,0.00,False,NONE,0.000,0,0,SEARCHING,False,False,False,0,False,,0.00,0
1764574030.4733868,220.518,164,TEST2_OBSTACLE_BYPASS,False,0.0,0.0,0.0,0.00,0.000,0.0,868.6,167.7,156.79,156.10,156.79,156.70,87.14,-0.0277,10.0,29.388,0.0000,0.0000,0.0000,0.00,0.0000,0.0000,0.0000,0.00,0,1100.0,277.0,0.0000,0.0000,0.0000,0.00,0.00,0.00,0.00,False,NONE,0.000,0,0,SEARCHING,False,False,False,0,False,,0.00,0
1764574030.5170968,220.562,165,TEST2_OBSTACLE_BYPASS,False,0.0,0.0,0.0,0.00,0.000,0.0,857.0,172.8,156.45,157.38,156.45,157.96,87.19,-0.0394,10.0,29.500,0.0000,0.0000,0.0000,0.00,0.0000,0.0000,0.0000,0.00,0,1100.0,276.0,0.0000,0.0000,0.0000,0.00,0.00,0.00,0.00,False,NONE,0.000,0,0,SEARCHING,False,False,False,0,False,,0.00,0
1764574030.5565364,220.601,166,TEST2_OBSTACLE_BYPASS,False,0.0,0.0,0.0,0.00,0.000,0.0,846.1,177.6,156.15,158.45,156.15,159.02,87.36,-0.0383,10.0,29.602,0.0000,0.0000,0.0000,0.00,0.0000,0.0000,0.0000,0.00,0,1100.0,276.0,0.0000,0.0000,0.0000,0.00,0.00,0.00,0.00,False,NONE,0.000,0,0,SEARCHING,False,False,False,0,False,,0.00,0
1764574030.5973942,220.642,167,TEST2_OBSTACLE_BYPASS,False,0.0,0.0,0.0,0.00,0.000,0.0,835.0,182.4,156.34,160.28,156.34,160.83,87.37,-0.0330,10.0,29.701,0.0000,0.0000,0.0000,0.00,0.0000,0.0000,0.0000,0.00,0,1250.0,275.0,0.0000,0.0000,0.0000,0.00,0.00,0.00,0.00,False,NONE,0.000,0,0,SEARCHING,False,False,False,0,False,,0.00,0
1764574030.635367,220.680,168,TEST2_OBSTACLE_BYPASS,False,0.0,0.0,0.0,0.00,0.000,0.0,824.3,187.0,156.95,161.94,156.95,162.48,87.35,-0.0170,10.0,29.806,0.0000,0.0000,0.0000,0.00,0.0000,0.0000,0.0000,0.00,0,1250.0,275.0,0.0000,0.0000,0.0000,0.00,0.00,0.00,0.00,False,NONE,0.000,0,0,SEARCHING,False,False,False,0,False,,0.00,0
1764574030.6740916,220.719,169,TEST2_OBSTACLE_BYPASS,False,0.0,0.0,0.0,0.00,0.000,0.0,813.2,191.5,157.80,163.36,157.80,163.94,87.34,-0.0138,10.0,29.919,0.0000,0.0000,0.0000,0.00,0.0000,0.0000,0.0000,0.00,0,1300.0,274.0,0.0000,0.0000,0.0000,0.00,0.00,0.00,0.00,False,NONE,0.000,0,0,SEARCHING,False,False,False,0,False,,0.00,0
1764574030.7201715,220.765,170,TEST2_OBSTACLE_BYPASS,False,0.0,0.0,0.0,0.00,0.000,0.0,800.6,196.4,158.60,162.75,158.60,163.47,87.39,0.0458,10.0,30.037,0.0000,0.0000,0.0000,0.00,0.0000,0.0000,0.0000,0.00,0,1300.0,274.0,0.0000,0.0000,0.0000,0.00,0.00,0.00,0.00,False,NONE,0.000,0,0,SEARCHING,False,False,False,0,False,,0.00,0
1764574030.7575624,220.802,171,TEST2_OBSTACLE_BYPASS,False,0.0,0.0,0.0,0.00,0.000,0.0,790.2,200.4,159.12,160.31,159.12,161.09,87.41,0.0522,10.0,30.163,0.0000,0.0000,0.0000,0.00,0.0000,0.0000,0.0000,0.00,0,1300.0,273.0,0.0000,0.0000,0.0000,0.00,0.00,0.00,0.00,False,NONE,0.000,0,0,SEARCHING,False,False,False,0,False,,0.00,0
1764574030.799785,220.844,172,TEST2_OBSTACLE_BYPASS,False,0.0,0.0,0.0,0.00,0.000,0.0,778.5,204.8,159.38,157.82,159.38,158.64,87.38,0.0426,10.0,30.300,0.0000,0.0000,0.0000,0.00,0.0000,0.0000,0.0000,0.00,0,1300.0,273.0,0.0000,0.0000,0.0000,0.00,0.00,0.00,0.00,False,NONE,0.000,0,0,SEARCHING,False,False,False,0,False,,0.00,0
