timestamp,elapsed_time,log_number,test_mode,person_detected,person_x_mm,person_y_mm,person_distance_mm,person_angle_deg,person_confidence,time_since_person_update_ms,robot_x_mm,robot_y_mm,robot_orientation_deg,imu_yaw_raw,imu_yaw_smoothed,imu_roll,imu_pitch,imu_angular_vel_z,imu_update_rate,imu_drift_estimate,attr_force_x,attr_force_y,attr_force_magnitude,attr_force_direction_deg,repul_force_x,repul_force_y,repul_force_magnitude,repul_force_direction_deg,num_obstacles_in_range,closest_obstacle_dist_mm,closest_obstacle_angle_deg,total_force_x,total_force_y,total_force_magnitude,total_force_direction_deg,expected_direction_to_person_deg,force_direction_deg,direction_error_deg,direction_mismatch_flag,commanded_direction,commanded_speed,motor_1_speed,motor_2_speed,nav_state,nav_state_changed,goal_reached,stuck_detected,time_in_current_state_s,anomaly_detected,anomaly_type,calculation_time_ms,obstacles_filtered_for_person
1764575414.6444678,59.731,1,TEST2_OBSTACLE_BYPASS,False,0.0,0.0,0.0,0.00,0.000,0.0,148.3,-411.3,46.11,46.08,46.11,156.07,86.54,0.0011,10.0,0.000,-0.5875,4.1324,4.1739,-8.09,-7.9612,0.7869,8.0000,-84.36,17,350.0,117.0,-6.9339,3.9901,8.0000,-60.08,0.00,-60.08,0.00,False,NONE,0.000,0,0,SEARCHING,True,False,False,0,False,,0.00,0
1764575414.683853,59.771,2,TEST2_OBSTACLE_BYPASS,False,0.0,0.0,0.0,0.00,0.000,0.0,148.3,-411.3,46.11,46.08,46.11,156.07,86.54,-0.0075,10.0,0.000,-0.5875,4.1324,4.1739,-8.09,-7.9934,0.3243,8.0000,-87.68,16,750.0,117.0,-7.0996,3.6873,8.0000,-62.55,0.00,-62.55,0.00,False,NONE,0.000,0,0,SEARCHING,False,False,False,0,False,,0.00,0
1764575414.7263374,59.813,3,TEST2_OBSTACLE_BYPASS,False,0.0,0.0,0.0,0.00,0.000,0.0,148.3,-411.3,46.11,46.08,46.11,156.07,86.54,0.0000,10.0,0.000,-0.5875,4.1324,4.1739,-8.09,-7.9934,0.3243,8.0000,-87.68,16,750.0,117.0,-7.0996,3.6873,8.0000,-62.55,0.00,-62.55,0.00,False,NONE,0.000,0,0,SEARCHING,False,False,False,0,False,,0.00,0
1764575414.7667027,59.854,4,TEST2_OBSTACLE_BYPASS,False,0.0,0.0,0.0,0.00,0.000,0.0,148.3,-411.3,46.10,46.08,46.10,156.07,86.54,-0.0085,10.0,0.000,-0.5875,4.1324,4.1739,-8.09,-7.9961,0.2491,8.0000,-88.22,16,750.0,117.0,-7.1254,3.6371,8.0000,-62.96,0.00,-62.96,0.00,False,NONE,0.000,0,0,SEARCHING,False,False,False,0,False,,0.00,0
1764575414.8038435,59.891,5,TEST2_OBSTACLE_BYPASS,False,0.0,0.0,0.0,0.00,0.000,0.0,148.3,-411.3,46.10,46.08,46.10,156.07,86.54,-0.0011,10.0,0.000,-0.5875,4.1324,4.1739,-8.09,-7.9961,0.2491,8.0000,-88.22,16,750.0,117.0,-7.1254,3.6371,8.0000,-62.96,0.00,-62.96,0.00,False,NONE,0.000,0,0,SEARCHING,False,False,False,0,False,,0.00,0
1764575414.8475623,59.934,6,TEST2_OBSTACLE_BYPASS,False,0.0,0.0,0.0,0.00,0.000,0.0,148.3,-411.3,46.10,46.08,46.10,156.07,86.54,0.0043,10.0,0.000,-0.5875,4.1324,4.1739,-8.09,-7.9934,0.3243,8.0000,-87.68,16,750.0,117.0,-7.0996,3.6873,8.0000,-62.55,0.00,-62.55,0.00,False,NONE,0.000,0,0,SEARCHING,False,False,False,0,False,,0.00,0
1764575414.8844104,59.971,7,TEST2_OBSTACLE_BYPASS,False,0.0,0.0,0.0,0.00,0.000,0.0,148.3,-411.3,46.09,46.08,46.09,156.07,86.54,-0.0053,10.0,0.000,-0.5875,4.1324,4.1739,-8.09,-7.9934,0.3243,8.0000,-87.68,16,750.0,117.0,-7.0996,3.6873,8.0000,-62.55,0.00,-62.55,0.00,False,NONE,0.000,0,0,SEARCHING,False,False,False,0,False,,0.00,0
1764575414.925913,60.013,8,TEST2_OBSTACLE_BYPASS,False,0.0,0.0,0.0,0.00,0.000,0.0,148.3,-411.3,46.09,46.08,46.09,156.07,86.54,0.0085,10.0,0.000,-0.5875,4.1324,4.1739,-8.09,-7.9966,0.2348,8.0000,-88.32,16,750.0,117.0,-7.1303,3.6275,8.0000,-63.04,0.00,-63.04,0.00,False,NONE,0.000,0,0,SEARCHING,False,False,False,0,False,,0.00,0
1764575414.9687967,60.056,9,TEST2_OBSTACLE_BYPASS,False,0.0,0.0,0.0,0.00,0.000,0.0,148.3,-411.3,46.08,46.08,46.08,156.07,86.54,0.0011,10.0,0.000,-0.5875,4.1324,4.1739,-8.09,-7.9960,0.2529,8.0000,-88.19,15,750.0,117.0,-7.1241,3.6397,8.0000,-62.94,0.00,-62.94,0.00,False,NONE,0.000,0,0,SEARCHING,False,False,False,0,False,,0.00,0
1764575415.0103905,60.097,10,TEST2_OBSTACLE_BYPASS,False,0.0,0.0,0.0,0.00,0.000,0.0,148.3,-411.3,46.08,46.08,46.08,156.07,86.54,0.0000,10.0,0.000,-0.5875,4.1324,4.1739,-8.09,-7.9960,0.2529,8.0000,-88.19,15,750.0,117.0,-7.1241,3.6397,8.0000,-62.94,0.00,-62.94,0.00,False,NONE,0.000,0,0,SEARCHING,False,False,True,0,True,STUCK_DETECTED,0.00,0
1764575415.052377,60.139,11,TEST2_OBSTACLE_BYPASS,True,-261.6,2439.3,2453.3,353.88,0.948,0.0,148.3,-411.3,46.08,46.08,46.08,156.07,86.54,-0.0011,10.0,0.000,-0.5932,4.1244,4.1669,-8.18,-7.9960,0.2529,8.0000,-88.19,15,750.0,117.0,-7.1277,3.6326,8.0000,-62.99,-6.12,-62.99,-56.87,False,FORWARDS_LEFT,1.000,0,0,NAVIGATING,True,False,True,0,True,STUCK_DETECTED,0.00,0
1764575415.0990024,60.186,12,TEST2_OBSTACLE_BYPASS,True,-261.6,2439.3,2453.3,353.88,0.948,0.0,154.7,-404.7,46.08,46.08,46.08,156.07,86.54,0.0032,10.0,-0.018,-0.6047,4.1310,4.1750,-8.33,-7.9960,0.2529,8.0000,-88.19,15,750.0,117.0,-7.1275,3.6330,8.0000,-62.99,-6.12,-62.99,-56.87,False,FORWARDS_LEFT,1.000,0,0,STUCK,True,False,True,0,True,STUCK_DETECTED,0.00,0
1764575415.1338212,60.221,13,TEST2_OBSTACLE_BYPASS,True,-261.6,2439.3,2453.3,353.88,0.948,0.0,160.1,-399.0,46.08,46.08,46.08,156.07,86.54,0.0085,10.0,-0.019,-0.6146,4.1365,4.1820,-8.45,-7.9966,0.2348,8.0000,-88.32,16,750.0,117.0,-7.1335,3.6212,8.0000,-63.09,-6.12,-63.09,-56.96,False,FORWARDS_LEFT,1.000,0,0,STUCK,False,False,True,0,True,STUCK_DETECTED,0.00,0
1764575415.1788547,60.266,14,TEST2_OBSTACLE_BYPASS,True,-261.6,2439.3,2453.3,353.88,0.948,0.0,166.2,-392.6,46.08,46.08,46.08,156.07,86.54,0.0021,10.0,-0.020,-0.6260,4.1428,4.1899,-8.59,-7.9966,0.2348,8.0000,-88.32,16,750.0,117.0,-7.1333,3.6215,8.0000,-63.08,-6.12,-63.08,-56.96,False,FORWARDS_LEFT,1.000,0,0,STUCK,False,False,True,0,True,STUCK_DETECTED,0.00,0
1764575415.218002,60.305,15,TEST2_OBSTACLE_BYPASS,True,-261.6,2439.3,2453.3,353.88,0.948,0.0,172.2,-386.5,46.08,46.08,46.08,156.07,86.54,0.0085,10.0,-0.020,-0.6370,4.1489,4.1975,-8.73,-7.9974,0.2039,8.0000,-88.54,17,750.0,117.0,-7.1436,3.6013,8.0000,-63.25,-6.12,-63.25,-57.12,False,FORWARDS_LEFT,1.000,0,0,STUCK,False,False,True,0,True,STUCK_DETECTED,0.00,0
1764575415.261721,60.349,16,TEST2_OBSTACLE_BYPASS,True,-261.6,2439.3,2453.3,353.88,0.948,0.0,178.4,-379.9,46.08,46.08,46.08,156.07,86.54,-0.0011,10.0,-0.021,-0.6487,4.1552,4.2055,-8.87,-7.9974,0.2039,8.0000,-88.54,17,750.0,117.0,-7.1434,3.6016,8.0000,-63.24,-6.12,-63.24,-57.12,False,FORWARDS_LEFT,1.000,0,0,STUCK,False,False,True,0,True,STUCK_DETECTED,0.00,0
1764575415.2965147,60.383,17,TEST2_OBSTACLE_BYPASS,True,-261.6,2439.3,2453.3,353.88,0.948,0.0,183.9,-374.3,46.08,46.08,46.08,156.07,86.54,0.0075,10.0,-0.022,-0.6589,4.1607,4.2126,-9.00,-7.9952,0.2768,8.0000,-88.02,19,750.0,117.0,-7.1187,3.6502,8.0000,-62.85,-6.12,-62.85,-56.73,False,FORWARDS_LEFT,1.000,0,0,STUCK,False,False,True,0,True,STUCK_DETECTED,0.00,0
1764575415.3431664,60.430,18,TEST2_OBSTACLE_BYPASS,True,-261.6,2439.3,2453.3,353.88,0.948,0.0,190.2,-367.7,46.08,46.08,46.08,156.07,86.54,0.0138,10.0,-0.022,-0.6708,4.1670,4.2207,-9.15,-7.9952,0.2768,8.0000,-88.02,19,750.0,117.0,-7.1186,3.6504,8.0000,-62.85,-6.12,-62.85,-56.73,False,FORWARDS_LEFT,1.000,0,0,STUCK,False,False,True,0,True,STUCK_DETECTED,0.00,0
1764575415.3767233,60.464,19,TEST2_OBSTACLE_BYPASS,False,0.0,0.0,0.0,0.00,0.000,0.0,195.7,-362.0,46.08,46.08,46.08,156.07,86.54,0.0000,10.0,-0.022,-0.6813,4.1725,4.2278,-9.27,-7.9525,0.8705,8.0000,-83.75,27,350.0,117.0,-6.9079,4.0350,8.0000,-59.71,0.00,-59.71,0.00,False,NONE,0.000,0,0,STUCK,False,False,True,0,True,STUCK_DETECTED,0.00,0
1764575415.4166815,60.504,20,TEST2_OBSTACLE_BYPASS,False,0.0,0.0,0.0,0.00,0.000,0.0,201.4,-356.1,46.08,46.08,46.08,156.07,86.54,0.0085,10.0,-0.023,-0.6922,4.1782,4.2351,-9.41,-7.9525,0.8705,8.0000,-83.75,27,350.0,117.0,-6.9082,4.0345,8.0000,-59.71,0.00,-59.71,0.00,False,NONE,0.000,0,0,STUCK,False,False,True,0,True,STUCK_DETECTED,0.00,0
1764575415.4628775,60.550,21,TEST2_OBSTACLE_BYPASS,False,0.0,0.0,0.0,0.00,0.000,0.0,208.1,-349.1,46.10,46.27,46.10,156.27,86.47,0.0266,10.0,-0.022,-0.7051,4.1848,4.2438,-9.56,-7.9865,0.4643,8.0000,-86.67,35,700.0,117.0,-7.0543,3.7732,8.0000,-61.86,0.00,-61.86,0.00,False,NONE,0.000,0,0,STUCK,False,False,True,0,True,STUCK_DETECTED,0.00,0
1764575415.4998584,60.587,22,TEST2_OBSTACLE_BYPASS,False,0.0,0.0,0.0,0.00,0.000,0.0,213.5,-343.5,46.09,46.00,46.09,155.97,86.24,0.0373,10.0,-0.022,-0.7155,4.1901,4.2507,-9.69,-7.9865,0.4643,8.0000,-86.67,35,700.0,117.0,-7.0544,3.7731,8.0000,-61.86,0.00,-61.86,0.00,False,NONE,0.000,0,0,STUCK,False,False,True,0,True,STUCK_DETECTED,0.00,0
1764575415.5410976,60.628,23,TEST2_OBSTACLE_BYPASS,False,0.0,0.0,0.0,0.00,0.000,0.0,219.6,-337.3,46.05,45.63,46.05,155.56,86.12,0.0320,10.0,-0.024,-0.7272,4.1959,4.2584,-9.83,-7.9894,0.4112,8.0000,-87.05,52,700.0,117.0,-7.0729,3.7383,8.0000,-62.14,0.00,-62.14,0.00,False,NONE,0.000,0,0,STUCK,False,False,True,0,True,STUCK_DETECTED,0.00,0
1764575415.5858495,60.673,24,TEST2_OBSTACLE_BYPASS,False,0.0,0.0,0.0,0.00,0.000,0.0,226.2,-330.4,45.94,44.97,45.94,154.81,85.93,0.0394,10.0,-0.030,-0.7402,4.2023,4.2670,-9.99,-7.9775,0.5997,8.0000,-85.70,60,650.0,117.0,-7.0073,3.8598,8.0000,-61.15,0.00,-61.15,0.00,False,NONE,0.000,0,0,STUCK,False,False,True,0,True,STUCK_DETECTED,0.00,0
1764575415.6290374,60.716,25,TEST2_OBSTACLE_BYPASS,False,0.0,0.0,0.0,0.00,0.000,0.0,232.3,-324.1,45.72,43.96,45.72,153.80,85.79,0.0469,10.0,-0.045,-0.7521,4.2080,4.2747,-10.13,-7.9775,0.5997,8.0000,-85.70,60,650.0,117.0,-7.0075,3.8593,8.0000,-61.16,0.00,-61.16,0.00,False,NONE,0.000,0,0,STUCK,False,False,True,0,True,STUCK_DETECTED,0.00,0
1764575415.6653776,60.752,26,TEST2_OBSTACLE_BYPASS,False,0.0,0.0,0.0,0.00,0.000,0.0,237.8,-318.5,45.49,43.78,45.49,153.72,85.69,0.0394,10.0,-0.068,-0.7631,4.2131,4.2817,-10.27,-7.9885,0.4296,8.0000,-86.92,85,600.0,117.0,-7.0671,3.7491,8.0000,-62.05,0.00,-62.05,0.00,False,NONE,0.000,0,0,STUCK,False,False,True,0,True,STUCK_DETECTED,0.00,0
1764575415.7111633,60.798,27,TEST2_OBSTACLE_BYPASS,False,0.0,0.0,0.0,0.00,0.000,0.0,244.5,-311.8,45.29,44.06,45.29,154.15,85.60,-0.0383,10.0,-0.097,-0.7762,4.2191,4.2900,-10.42,-7.9885,0.4296,8.0000,-86.92,85,600.0,117.0,-7.0674,3.7485,8.0000,-62.06,0.00,-62.06,0.00,False,NONE,0.000,0,0,STUCK,False,False,True,0,True,STUCK_DETECTED,0.00,0
1764575415.7454376,60.832,28,TEST2_OBSTACLE_BYPASS,False,0.0,0.0,0.0,0.00,0.000,0.0,249.8,-306.4,45.15,44.71,45.15,154.85,85.63,-0.0767,10.0,-0.129,-0.7869,4.2239,4.2966,-10.55,-7.9959,0.2555,8.0000,-88.17,95,600.0,117.0,-7.1266,3.6348,8.0000,-62.98,0.00,-62.98,0.00,False,NONE,0.000,0,0,STUCK,False,False,True,0,True,STUCK_DETECTED,0.00,0
1764575415.7902665,60.877,29,TEST2_OBSTACLE_BYPASS,False,0.0,0.0,0.0,0.00,0.000,0.0,256.2,-300.0,45.18,46.34,45.18,156.46,85.51,-0.0842,10.0,-0.158,-0.7996,4.2295,4.3045,-10.70,-7.9959,0.2555,8.0000,-88.17,95,600.0,117.0,-7.1269,3.6342,8.0000,-62.98,0.00,-62.98,0.00,False,NONE,0.000,0,0,STUCK,False,False,True,0,True,STUCK_DETECTED,0.00,0
1764575415.8301082,60.917,30,TEST2_OBSTACLE_BYPASS,True,-262.8,2436.3,2450.4,353.84,0.978,0.0,261.7,-294.4,45.27,47.01,45.27,157.13,85.59,-0.0671,10.0,-0.181,-0.8141,4.2381,4.3156,-10.87,-7.9934,0.3243,8.0000,-87.68,89,550.0,117.0,-7.1035,3.6797,8.0000,-62.62,-6.16,-62.62,-56.46,False,FORWARDS_LEFT,1.000,0,0,STUCK,False,False,True,0,True,STUCK_DETECTED,0.00,0
1764575415.8745606,60.961,31,TEST2_OBSTACLE_BYPASS,True,-262.8,2436.3,2450.4,353.84,0.978,0.0,268.0,-288.0,45.47,48.23,45.47,158.29,85.75,-0.0234,10.0,-0.197,-0.8269,4.2437,4.3235,-11.03,-7.9934,0.3243,8.0000,-87.68,89,550.0,117.0,-7.1038,3.6790,8.0000,-62.62,-6.16,-62.62,-56.46,False,FORWARDS_LEFT,1.000,0,0,STUCK,False,False,True,0,True,STUCK_DETECTED,0.00,0
1764575415.9122434,60.999,32,TEST2_OBSTACLE_BYPASS,True,-262.8,2436.3,2450.4,353.84,0.978,0.0,273.6,-282.3,45.70,48.31,45.70,158.25,85.82,-0.0117,10.0,-0.204,-0.8382,4.2486,4.3305,-11.16,-7.9977,0.1939,8.0000,-88.61,88,500.0,117.0,-7.1475,3.5936,8.0000,-63.31,-6.16,-63.31,-57.15,False,FORWARDS_LEFT,1.000,0,0,STUCK,False,False,True,0,True,STUCK_DETECTED,0.00,0
1764575415.960109,61.047,33,TEST2_OBSTACLE_BYPASS,True,-262.8,2436.3,2450.4,353.84,0.978,0.0,280.2,-275.5,45.98,48.43,45.98,158.00,85.90,0.0032,10.0,-0.201,-0.8519,4.2546,4.3390,-11.32,-7.9977,0.1939,8.0000,-88.61,88,500.0,117.0,-7.1478,3.5930,8.0000,-63.31,-6.16,-63.31,-57.16,False,FORWARDS_LEFT,1.000,0,0,STUCK,False,False,True,0,True,STUCK_DETECTED,0.00,0
1764575415.9962223,61.083,34,TEST2_OBSTACLE_BYPASS,True,-262.8,2436.3,2450.4,353.84,0.978,0.0,285.8,-269.6,46.34,48.59,46.34,157.80,85.60,0.0128,10.0,-0.188,-0.8636,4.2597,4.3463,-11.46,-7.9976,-0.1947,8.0000,-91.39,103,300.0,117.0,-7.2714,3.3357,8.0000,-65.36,-6.16,-65.36,-59.20,False,FORWARDS_LEFT,1.000,0,0,STUCK,False,False,True,0,True,STUCK_DETECTED,0.00,0
1764575416.0369432,61.124,35,TEST2_OBSTACLE_BYPASS,True,-262.8,2436.3,2450.4,353.84,0.978,0.0,291.3,-263.8,46.79,48.47,46.79,157.17,85.42,0.0405,10.0,-0.163,-0.8752,4.2648,4.3537,-11.60,-7.9852,-0.4863,8.0000,-93.48,99,350.0,117.0,-7.3588,3.1382,8.0000,-66.90,-6.16,-66.90,-60.75,False,FORWARDS_LEFT,1.000,0,0,STUCK,False,False,True,0,True,STUCK_DETECTED,0.00,0
1764575416.0750825,61.162,36,TEST2_OBSTACLE_BYPASS,True,-262.8,2436.3,2450.4,353.84,0.978,0.0,297.3,-257.3,47.25,48.36,47.25,156.36,85.37,0.0043,10.0,-0.126,-0.8880,4.2705,4.3618,-11.75,-8.0000,-0.0228,8.0000,-90.16,71,450.0,117.0,-7.2181,3.4496,8.0000,-64.46,-6.16,-64.46,-58.30,False,FORWARDS_LEFT,1.000,0,0,STUCK,False,False,True,0,True,STUCK_DETECTED,0.00,0
1764575416.118168,61.205,37,TEST2_OBSTACLE_BYPASS,True,-262.8,2436.3,2450.4,353.84,0.978,0.0,303.0,-251.1,47.68,48.31,47.68,155.38,85.58,-0.0256,10.0,-0.079,-0.9002,4.2759,4.3696,-11.89,-8.0000,-0.0228,8.0000,-90.16,71,450.0,117.0,-7.2182,3.4493,8.0000,-64.46,-6.16,-64.46,-58.30,False,FORWARDS_LEFT,1.000,0,0,STUCK,False,False,True,0,True,STUCK_DETECTED,0.00,0
1764575416.1547005,61.242,38,TEST2_OBSTACLE_BYPASS,False,0.0,0.0,0.0,0.00,0.000,0.0,308.9,-244.5,48.13,49.24,48.13,155.90,85.40,-0.0352,10.0,-0.022,-0.9131,4.2817,4.3780,-12.04,-7.9990,-0.1268,8.0000,-90.91,89,400.0,117.0,-7.2507,3.3804,8.0000,-65.00,0.00,-65.00,0.00,False,NONE,0.000,0,0,STUCK,False,False,True,0,True,STUCK_DETECTED,0.00,0
1764575416.1930258,61.280,39,TEST2_OBSTACLE_BYPASS,False,0.0,0.0,0.0,0.00,0.000,0.0,314.2,-238.4,48.56,50.60,48.56,156.75,85.23,0.0021,10.0,0.043,-0.9248,4.2870,4.3856,-12.17,-7.9734,-0.6524,8.0000,-94.68,99,350.0,117.0,-7.4060,3.0251,8.0000,-67.78,0.00,-67.78,0.00,False,NONE,0.000,0,0,STUCK,False,False,True,0,True,STUCK_DETECTED,0.00,0
1764575416.2360723,61.323,40,TEST2_OBSTACLE_BYPASS,False,0.0,0.0,0.0,0.00,0.000,0.0,320.1,-231.6,49.01,51.59,49.01,157.23,85.03,0.0085,10.0,0.116,-0.9380,4.2930,4.3943,-12.32,-7.9734,-0.6524,8.0000,-94.68,99,350.0,117.0,-7.4058,3.0255,8.0000,-67.78,0.00,-67.78,0.00,False,NONE,0.000,0,0,STUCK,False,False,True,0,True,STUCK_DETECTED,0.00,0
1764575416.2729092,61.360,41,TEST2_OBSTACLE_BYPASS,False,0.0,0.0,0.0,0.00,0.000,0.0,325.2,-225.7,49.38,51.85,49.38,157.07,84.95,0.0011,10.0,0.195,-0.9495,4.2983,4.4019,-12.46,-7.9569,-0.8295,8.0000,-95.95,96,350.0,117.0,-7.4546,2.9033,8.0000,-68.72,0.00,-68.72,0.00,False,NONE,0.000,0,0,STUCK,False,False,True,0,True,STUCK_DETECTED,0.00,0
1764575416.3172557,61.404,42,TEST2_OBSTACLE_BYPASS,False,0.0,0.0,0.0,0.00,0.000,0.0,331.1,-218.7,49.69,51.45,49.69,156.23,85.08,-0.0064,10.0,0.277,-0.9628,4.3044,4.4108,-12.61,-7.9569,-0.8295,8.0000,-95.95,96,350.0,117.0,-7.4543,2.9040,8.0000,-68.72,0.00,-68.72,0.00,False,NONE,0.000,0,0,STUCK,False,False,True,0,True,STUCK_DETECTED,0.00,0
1764575416.3574255,61.444,43,TEST2_OBSTACLE_BYPASS,False,0.0,0.0,0.0,0.00,0.000,0.0,336.7,-212.2,49.75,49.04,49.75,153.86,85.15,0.1374,10.0,0.357,-0.9756,4.3102,4.4192,-12.75,-7.9192,-1.1345,8.0000,-98.15,105,300.0,117.0,-7.5342,2.6899,8.0000,-70.35,0.00,-70.35,0.00,False,NONE,0.000,0,0,STUCK,False,False,True,0,True,STUCK_DETECTED,0.00,0
1764575416.3961422,61.483,44,TEST2_OBSTACLE_BYPASS,False,0.0,0.0,0.0,0.00,0.000,0.0,342.0,-206.0,49.06,41.67,49.06,146.78,85.37,0.2663,10.0,0.418,-0.9879,4.3155,4.4271,-12.89,-7.7105,-2.1326,8.0000,-105.46,112,300.0,117.0,-7.7594,1.9473,8.0000,-75.91,0.00,-75.91,0.00,False,NONE,0.000,0,0,STUCK,False,False,True,0,True,STUCK_DETECTED,0.00,0
1764575416.4386854,61.526,45,TEST2_OBSTACLE_BYPASS,False,0.0,0.0,0.0,0.00,0.000,0.0,348.0,-199.4,47.63,34.21,47.63,139.47,85.34,0.2258,10.0,0.443,-1.0014,4.3209,4.4354,-13.05,-7.7796,-1.8647,8.0000,-103.48,88,250.0,117.0,-7.7043,2.1550,8.0000,-74.37,0.00,-74.37,0.00,False,NONE,0.000,0,0,STUCK,False,False,True,0,True,STUCK_DETECTED,0.00,0
1764575416.4765668,61.563,46,TEST2_OBSTACLE_BYPASS,False,0.0,0.0,0.0,0.00,0.000,0.0,353.6,-193.7,45.84,30.40,45.84,134.57,85.13,-0.0224,10.0,0.427,-1.0138,4.3253,4.4425,-13.19,-7.7514,-1.9790,8.0000,-104.32,88,250.0,117.0,-7.7279,2.0686,8.0000,-75.01,0.00,-75.01,0.00,False,NONE,0.000,0,0,STUCK,False,False,True,0,True,STUCK_DETECTED,0.00,0
1764575416.5210211,61.608,47,TEST2_OBSTACLE_BYPASS,False,0.0,0.0,0.0,0.00,0.000,0.0,360.3,-187.1,44.35,33.46,44.35,136.18,85.24,-0.2493,10.0,0.379,-1.0284,4.3300,4.4504,-13.36,-7.7094,-2.1367,8.0000,-105.49,110,200.0,117.0,-7.7593,1.9476,8.0000,-75.91,0.00,-75.91,0.00,False,NONE,0.000,0,0,STUCK,False,False,True,0,True,STUCK_DETECTED,0.00,0
1764575416.5634277,61.650,48,TEST2_OBSTACLE_BYPASS,True,-206.4,2264.7,2274.1,354.79,0.792,0.0,366.1,-181.6,43.49,40.66,43.49,141.67,85.64,-0.3782,10.0,0.316,-1.0884,4.6506,4.7763,-13.17,-7.7290,-2.0648,8.0000,-104.96,110,200.0,117.0,-7.6767,2.2513,8.0000,-73.66,-5.21,-73.66,-68.45,False,LEFT,0.700,0,0,STUCK,False,False,True,0,True,STUCK_DETECTED,0.00,0
1764575416.6041362,61.691,49,TEST2_OBSTACLE_BYPASS,True,-206.4,2264.7,2274.1,354.79,0.792,0.0,366.1,-181.6,43.39,49.52,43.39,149.04,86.10,-0.3462,10.0,0.252,-1.0884,4.6506,4.7763,-13.17,-7.3853,-3.0752,8.0000,-112.61,133,200.0,124.0,-7.8652,1.4623,8.0000,-79.47,-5.21,-79.47,-74.26,False,LEFT,0.700,0,0,STUCK,False,False,True,0,True,STUCK_DETECTED,0.00,0
1764575416.642783,61.730,50,TEST2_OBSTACLE_BYPASS,True,-206.4,2264.7,2274.1,354.79,0.792,0.0,366.1,-181.6,43.91,56.83,43.91,155.72,86.38,-0.1587,10.0,0.202,-1.0884,4.6506,4.7763,-13.17,-7.3853,-3.0752,8.0000,-112.61,133,200.0,124.0,-7.8652,1.4623,8.0000,-79.47,-5.21,-79.47,-74.26,False,LEFT,0.700,0,0,STUCK,False,False,True,0,True,STUCK_DETECTED,0.00,0
1764575416.6841586,61.771,51,TEST2_OBSTACLE_BYPASS,True,-206.4,2264.7,2274.1,354.79,0.792,0.0,366.1,-181.6,44.69,59.71,44.69,158.75,86.51,-0.0128,10.0,0.170,-1.0884,4.6506,4.7763,-13.17,-6.8476,-4.1365,8.0000,-121.14,126,200.0,124.0,-7.9360,0.5141,7.9526,-86.29,-5.21,-86.29,-81.09,False,LEFT,0.700,0,0,STUCK,False,False,True,0,True,STUCK_DETECTED,0.00,0
1764575416.7257938,61.813,52,TEST2_OBSTACLE_BYPASS,True,-206.4,2264.7,2274.1,354.79,0.792,0.0,366.1,-181.6,45.26,57.14,45.26,156.64,86.58,0.1481,10.0,0.150,-1.0884,4.6506,4.7763,-13.17,-6.8476,-4.1365,8.0000,-121.14,126,200.0,124.0,-7.9360,0.5141,7.9526,-86.29,-5.21,-86.29,-81.09,False,LEFT,0.700,0,0,STUCK,False,False,True,0,True,STUCK_DETECTED,0.00,0
1764575416.7660513,61.853,53,TEST2_OBSTACLE_BYPASS,True,-206.4,2264.7,2274.1,354.79,0.792,0.0,366.1,-181.6,45.59,52.28,45.59,152.24,86.49,0.1012,10.0,0.137,-1.0884,4.6506,4.7763,-13.17,-6.4441,-4.7407,8.0000,-126.34,127,200.0,124.0,-7.5325,-0.0901,7.5330,-90.69,-5.21,-90.69,-85.48,False,LEFT,0.700,0,0,STUCK,False,False,True,0,True,STUCK_DETECTED,0.00,0
1764575416.8029754,61.890,54,TEST2_OBSTACLE_BYPASS,True,-206.4,2264.7,2274.1,354.79,0.792,0.0,366.1,-181.6,46.27,48.52,46.27,148.39,86.49,0.0426,10.0,0.137,-1.0884,4.6506,4.7763,-13.17,-6.4441,-4.7407,8.0000,-126.34,127,200.0,124.0,-7.5325,-0.0901,7.5330,-90.69,-5.21,-90.69,-85.48,False,LEFT,0.700,0,0,STUCK,False,False,True,0,True,STUCK_DETECTED,0.00,0
1764575416.846339,61.933,55,TEST2_OBSTACLE_BYPASS,True,-206.4,2264.7,2274.1,354.79,0.792,0.0,366.1,-181.6,47.76,49.12,47.76,148.12,86.44,-0.0629,10.0,0.165,-1.0884,4.6506,4.7763,-13.17,-5.2182,-6.0639,8.0000,-139.29,86,200.0,262.0,-6.3066,-1.4133,6.4630,-102.63,-5.21,-102.63,-97.42,True,LEFT,0.700,0,0,STUCK,False,False,True,0,True,FORCE_AWAY_FROM_PERSON|STUCK_DETECTED,0.00,0
1764575416.8829513,61.970,56,TEST2_OBSTACLE_BYPASS,False,0.0,0.0,0.0,0.00,0.000,0.0,366.1,-181.6,50.15,54.25,50.15,152.21,86.29,-0.0852,10.0,0.236,-1.0884,4.6506,4.7763,-13.17,-4.8992,-6.3244,8.0000,-142.24,60,200.0,262.0,-5.9877,-1.6737,6.2172,-105.62,0.00,-105.62,0.00,False,NONE,0.000,0,0,STUCK,False,False,True,0,True,STUCK_DETECTED,0.00,0
1764575416.9186878,62.006,57,TEST2_OBSTACLE_BYPASS,False,0.0,0.0,0.0,0.00,0.000,0.0,366.1,-181.6,52.72,59.22,52.72,156.10,86.10,-0.0309,10.0,0.350,-1.0884,4.6506,4.7763,-13.17,-4.1976,-6.8103,8.0000,-148.35,31,200.0,262.0,-5.2860,-2.1597,5.7102,-112.22,0.00,-112.22,0.00,False,NONE,0.000,0,0,STUCK,False,False,True,0,True,STUCK_DETECTED,0.00,0
1764575416.9637976,62.051,58,TEST2_OBSTACLE_BYPASS,False,0.0,0.0,0.0,0.00,0.000,0.0,366.1,-181.6,54.38,57.21,54.38,153.56,86.34,0.0565,10.0,0.488,-1.0884,4.6506,4.7763,-13.17,-4.1976,-6.8103,8.0000,-148.35,31,200.0,262.0,-5.2860,-2.1597,5.7102,-112.22,0.00,-112.22,0.00,False,NONE,0.000,0,0,STUCK,False,False,True,0,True,STUCK_DETECTED,0.00,0
1764575417.0024037,62.089,59,TEST2_OBSTACLE_BYPASS,False,0.0,0.0,0.0,0.00,0.000,0.0,366.1,-181.6,54.39,49.58,54.39,145.75,86.85,0.0341,10.0,0.623,-1.0884,4.6506,4.7763,-13.17,-3.2452,-7.3122,8.0000,-156.07,24,200.0,262.0,-4.3336,-2.6616,5.0857,-121.56,0.00,-121.56,0.00,False,NONE,0.000,0,0,STUCK,False,False,True,0,True,STUCK_DETECTED,0.00,0
1764575417.0455358,62.132,60,TEST2_OBSTACLE_BYPASS,False,0.0,0.0,0.0,0.00,0.000,0.0,366.1,-181.6,52.15,34.52,52.15,130.44,87.60,0.1683,10.0,0.715,-1.0884,4.6506,4.7763,-13.17,-3.3485,-7.2655,8.0000,-155.26,28,200.0,262.0,-4.4370,-2.6149,5.1502,-120.51,0.00,-120.51,0.00,False,NONE,0.000,0,0,STUCK,False,False,True,0,True,STUCK_DETECTED,0.00,0
1764575417.0810258,62.168,61,TEST2_OBSTACLE_BYPASS,False,0.0,0.0,0.0,0.00,0.000,0.0,366.1,-181.6,50.49,43.02,50.49,139.33,86.87,0.0724,10.0,0.776,-1.0884,4.6506,4.7763,-13.17,-3.5393,-7.1745,8.0000,-153.74,24,200.0,262.0,-4.6277,-2.5239,5.2712,-118.61,0.00,-118.61,0.00,False,NONE,0.000,0,0,STUCK,False,False,True,0,True,STUCK_DETECTED,0.00,0
1764575417.1242359,62.211,62,TEST2_OBSTACLE_BYPASS,False,0.0,0.0,0.0,0.00,0.000,0.0,366.1,-181.6,49.70,49.28,49.70,145.10,86.16,-0.0352,10.0,0.822,-1.0884,4.6506,4.7763,-13.17,-3.4219,-7.2312,8.0000,-154.68,32,200.0,262.0,-4.5104,-2.5806,5.1964,-119.78,0.00,-119.78,0.00,False,NONE,0.000,0,0,STUCK,False,False,True,0,True,STUCK_DETECTED,0.00,0
1764575417.1734939,62.260,63,TEST2_OBSTACLE_BYPASS,False,0.0,0.0,0.0,0.00,0.000,0.0,366.1,-181.6,49.80,53.25,49.80,148.41,86.21,-0.0820,10.0,0.868,-1.0884,4.6506,4.7763,-13.17,-3.8149,-7.0318,8.0000,-151.52,27,200.0,262.0,-4.9034,-2.3812,5.4510,-115.90,0.00,-115.90,0.00,False,NONE,0.000,0,0,STUCK,False,False,True,0,True,STUCK_DETECTED,0.00,0
1764575417.2077863,62.295,64,TEST2_OBSTACLE_BYPASS,False,0.0,0.0,0.0,0.00,0.000,0.0,366.1,-181.6,50.34,53.98,50.34,148.86,86.39,-0.0533,10.0,0.921,-1.0884,4.6506,4.7763,-13.17,-3.8149,-7.0318,8.0000,-151.52,27,200.0,262.0,-4.9034,-2.3812,5.4510,-115.90,0.00,-115.90,0.00,False,NONE,0.000,0,0,STUCK,False,False,True,0,True,STUCK_DETECTED,0.00,0
1764575417.2512784,62.338,65,TEST2_OBSTACLE_BYPASS,False,0.0,0.0,0.0,0.00,0.000,0.0,366.1,-181.6,50.55,51.18,50.55,145.97,86.63,0.0309,10.0,0.976,-1.0884,4.6506,4.7763,-13.17,-3.7237,-7.0806,8.0000,-152.26,31,200.0,262.0,-4.8121,-2.4299,5.3908,-116.79,0.00,-116.79,0.00,False,NONE,0.000,0,0,STUCK,False,False,True,0,True,STUCK_DETECTED,0.00,0
1764575417.2935271,62.380,66,TEST2_OBSTACLE_BYPASS,True,244.1,2873.5,2883.9,4.85,0.999,0.0,366.1,-181.6,50.17,50.44,50.17,144.99,86.62,0.0692,10.0,1.024,-0.1567,3.9216,3.9247,-2.29,-3.7237,-7.0806,8.0000,-152.26,31,200.0,262.0,-3.8804,-3.1590,5.0036,-129.15,4.85,-129.15,-134.00,True,BACKWARDS_LEFT,0.500,0,0,STUCK,False,False,True,0,True,FORCE_AWAY_FROM_PERSON|STUCK_DETECTED,0.00,0
1764575417.334835,62.422,67,TEST2_OBSTACLE_BYPASS,True,244.1,2873.5,2883.9,4.85,0.999,0.0,363.2,-185.0,49.42,51.76,49.42,145.67,86.21,0.0224,10.0,1.058,-0.1526,3.9175,3.9205,-2.23,-3.6366,-7.1257,8.0000,-152.96,36,200.0,134.0,-3.7893,-3.2081,4.9649,-130.25,4.85,-130.25,-135.11,True,BACKWARDS_LEFT,0.500,0,0,STUCK,False,False,True,0,True,FORCE_AWAY_FROM_PERSON|STUCK_DETECTED,0.00,0
1764575417.3722377,62.459,68,TEST2_OBSTACLE_BYPASS,True,244.1,2873.5,2883.9,4.85,0.999,0.0,360.6,-188.0,48.94,52.40,48.94,145.81,86.13,-0.0447,10.0,1.085,-0.1489,3.9139,3.9167,-2.18,-3.3708,-7.2552,8.0000,-155.08,47,200.0,134.0,-3.5197,-3.3413,4.8531,-133.51,4.85,-133.51,-138.37,True,BACKWARDS_LEFT,0.500,0,0,STUCK,False,False,True,0,True,FORCE_AWAY_FROM_PERSON|STUCK_DETECTED,0.00,0
1764575417.4180248,62.505,69,TEST2_OBSTACLE_BYPASS,True,300.4,2868.2,2883.9,5.98,0.999,0.0,357.6,-191.5,49.32,53.41,49.32,146.16,86.23,-0.0756,10.0,1.116,-0.0732,3.9206,3.9213,-1.07,-3.3708,-7.2552,8.0000,-155.08,47,200.0,134.0,-3.4440,-3.3346,4.7938,-134.08,5.98,-134.08,-140.06,True,BACKWARDS_LEFT,0.500,0,0,STUCK,False,False,True,0,True,FORCE_AWAY_FROM_PERSON|STUCK_DETECTED,0.00,0
1764575417.454874,62.542,70,TEST2_OBSTACLE_BYPASS,True,300.4,2868.2,2883.9,5.98,0.999,0.0,355.1,-194.6,51.32,54.47,51.32,146.67,86.42,-0.0788,10.0,1.175,-0.0699,3.9168,3.9174,-1.02,-3.3042,-7.2857,8.0000,-155.60,48,200.0,134.0,-3.3742,-3.3689,4.7681,-134.96,5.98,-134.96,-140.94,True,BACKWARDS_LEFT,0.500,0,0,STUCK,False,False,True,0,True,FORCE_AWAY_FROM_PERSON|STUCK_DETECTED,0.00,0
1764575417.4955523,62.582,71,TEST2_OBSTACLE_BYPASS,True,300.4,2868.2,2883.9,5.98,0.999,0.0,352.5,-198.0,52.54,55.20,52.54,146.97,86.54,-0.0064,10.0,1.250,-0.0665,3.9126,3.9132,-0.97,-3.3042,-7.2857,8.0000,-155.60,48,200.0,134.0,-3.3707,-3.3732,4.7686,-135.02,5.98,-135.02,-141.00,True,BACKWARDS_LEFT,0.500,0,0,STUCK,False,False,True,0,True,FORCE_AWAY_FROM_PERSON|STUCK_DETECTED,0.00,0
1764575417.5352805,62.622,72,TEST2_OBSTACLE_BYPASS,True,300.4,2868.2,2883.9,5.98,0.999,0.0,350.0,-201.4,53.10,54.90,53.10,146.22,86.55,0.0394,10.0,1.331,-0.0630,3.9083,3.9088,-0.92,-2.9854,-7.4221,8.0000,-158.09,43,200.0,134.0,-3.0485,-3.5138,4.6518,-139.06,5.98,-139.06,-145.04,True,BACKWARDS_LEFT,0.500,0,0,STUCK,False,False,True,0,True,FORCE_AWAY_FROM_PERSON|STUCK_DETECTED,0.00,0
1764575417.5775502,62.664,73,TEST2_OBSTACLE_BYPASS,True,300.4,2868.2,2883.9,5.98,0.999,0.0,347.4,-204.8,53.15,53.77,53.15,144.20,86.37,0.0447,10.0,1.410,-0.0596,3.9040,3.9045,-0.87,-2.9854,-7.4221,8.0000,-158.09,43,200.0,134.0,-3.0450,-3.5181,4.6528,-139.12,5.98,-139.12,-145.10,True,BACKWARDS_LEFT,0.500,0,0,STUCK,False,False,True,0,True,FORCE_AWAY_FROM_PERSON|STUCK_DETECTED,0.00,0
1764575417.6155295,62.702,74,TEST2_OBSTACLE_BYPASS,False,0.0,0.0,0.0,0.00,0.000,0.0,344.8,-208.2,52.98,52.26,52.98,141.52,86.33,0.0202,10.0,1.485,-0.0562,3.8998,3.9002,-0.83,-2.8552,-7.4731,8.0000,-159.09,40,200.0,134.0,-2.9115,-3.5733,4.6092,-140.83,0.00,-140.83,0.00,False,NONE,0.000,0,0,STUCK,False,False,True,0,True,STUCK_DETECTED,0.00,0
1764575417.6527867,62.740,75,TEST2_OBSTACLE_BYPASS,False,0.0,0.0,0.0,0.00,0.000,0.0,342.4,-211.4,53.09,52.30,53.09,140.39,86.37,-0.0160,10.0,1.559,-0.0531,3.8959,3.8962,-0.78,-2.8552,-7.4731,8.0000,-159.09,40,200.0,134.0,-2.9083,-3.5772,4.6103,-140.89,0.00,-140.89,0.00,False,NONE,0.000,0,0,STUCK,False,False,True,0,True,STUCK_DETECTED,0.00,0
1764575417.6941066,62.781,76,TEST2_OBSTACLE_BYPASS,False,0.0,0.0,0.0,0.00,0.000,0.0,339.8,-214.9,53.55,55.07,53.55,142.07,86.83,-0.0341,10.0,1.638,-0.0497,3.8915,3.8919,-0.73,-2.6601,-7.5448,8.0000,-160.58,43,200.0,134.0,-2.7098,-3.6532,4.5486,-143.43,0.00,-143.43,0.00,False,NONE,0.000,0,0,STUCK,False,False,True,0,True,STUCK_DETECTED,0.00,0
1764575417.7315447,62.818,77,TEST2_OBSTACLE_BYPASS,False,0.0,0.0,0.0,0.00,0.000,0.0,337.5,-218.1,53.92,55.41,53.92,141.65,86.86,-0.0192,10.0,1.719,-0.0467,3.8876,3.8878,-0.69,-2.6601,-7.5448,8.0000,-160.58,43,200.0,134.0,-2.7068,-3.6572,4.5499,-143.49,0.00,-143.49,0.00,False,NONE,0.000,0,0,STUCK,False,False,True,0,True,STUCK_DETECTED,0.00,0
1764575417.7761388,62.863,78,TEST2_OBSTACLE_BYPASS,False,0.0,0.0,0.0,0.00,0.000,0.0,334.8,-221.9,54.25,55.75,54.25,141.72,86.91,-0.0053,10.0,1.802,-0.0431,3.8829,3.8832,-0.64,-2.4647,-7.6109,8.0000,-162.06,44,200.0,134.0,-2.5079,-3.7279,4.4930,-146.07,0.00,-146.07,0.00,False,NONE,0.000,0,0,STUCK,False,False,True,0,True,STUCK_DETECTED,0.00,0
1764575417.8118515,62.899,79,TEST2_OBSTACLE_BYPASS,False,0.0,0.0,0.0,0.00,0.000,0.0,332.5,-225.0,54.53,56.22,54.53,142.01,86.89,-0.0011,10.0,1.887,-0.0403,3.8790,3.8792,-0.59,-2.4647,-7.6109,8.0000,-162.06,44,200.0,134.0,-2.5050,-3.7318,4.4946,-146.13,0.00,-146.13,0.00,False,NONE,0.000,0,0,STUCK,False,False,True,0,True,STUCK_DETECTED,0.00,0
1764575417.855648,62.943,80,TEST2_OBSTACLE_BYPASS,False,0.0,0.0,0.0,0.00,0.000,0.0,329.9,-228.7,54.72,56.28,54.72,141.78,86.83,0.0043,10.0,1.972,-0.0369,3.8745,3.8747,-0.55,-2.3001,-7.6622,8.0000,-163.29,39,200.0,134.0,-2.3369,-3.7878,4.4507,-148.33,0.00,-148.33,0.00,False,NONE,0.000,0,0,STUCK,False,False,True,0,True,STUCK_DETECTED,0.00,0
1764575417.8942547,62.981,81,TEST2_OBSTACLE_BYPASS,False,0.0,0.0,0.0,0.00,0.000,0.0,327.6,-232.0,54.74,55.49,54.74,140.83,86.85,0.0181,10.0,2.055,-0.0339,3.8704,3.8705,-0.50,-2.3001,-7.6622,8.0000,-163.29,39,200.0,134.0,-2.3339,-3.7918,4.4526,-148.39,0.00,-148.39,0.00,False,NONE,0.000,0,0,STUCK,False,False,True,0,True,STUCK_DETECTED,0.00,0
1764575417.938266,63.025,82,TEST2_OBSTACLE_BYPASS,False,0.0,0.0,0.0,0.00,0.000,0.0,325.0,-235.7,54.74,54.87,54.74,140.05,86.95,-0.0032,10.0,2.137,-0.0306,3.8659,3.8660,-0.45,-2.0818,-7.7244,8.0000,-164.92,45,200.0,134.0,-2.1124,-3.8585,4.3989,-151.30,0.00,-151.30,0.00,False,NONE,0.000,0,0,STUCK,False,False,True,0,True,STUCK_DETECTED,0.00,0
1764575417.9736981,63.061,83,TEST2_OBSTACLE_BYPASS,False,0.0,0.0,0.0,0.00,0.000,0.0,322.8,-238.9,54.86,55.01,54.86,140.22,86.93,0.0011,10.0,2.217,-0.0278,3.8620,3.8621,-0.41,-2.0818,-7.7244,8.0000,-164.92,45,200.0,134.0,-2.1095,-3.8624,4.4009,-151.36,0.00,-151.36,0.00,False,NONE,0.000,0,0,STUCK,False,False,True,0,True,STUCK_DETECTED,0.00,0
1764575418.0170584,63.104,84,TEST2_OBSTACLE_BYPASS,False,0.0,0.0,0.0,0.00,0.000,0.0,320.2,-242.6,55.26,56.24,55.26,142.04,86.93,0.0202,10.0,2.301,-0.0245,3.8574,3.8575,-0.36,-2.2146,-7.6874,8.0000,-163.93,53,250.0,134.0,-2.2391,-3.8299,4.4364,-149.69,0.00,-149.69,0.00,False,NONE,0.000,0,0,STUCK,False,False,True,0,True,STUCK_DETECTED,0.00,0
1764575418.060097,63.147,85,TEST2_OBSTACLE_BYPASS,True,3461.1,5706.5,6674.1,31.24,0.990,0.0,317.8,-246.0,55.62,55.83,55.62,142.37,87.17,0.0266,10.0,2.387,0.0000,0.0000,0.0000,0.00,-2.6821,-7.5370,8.0000,-160.41,63,200.0,134.0,-2.6821,-7.5370,8.0000,-160.41,31.24,-160.41,168.35,True,BACKWARDS,0.500,0,0,STUCK,False,False,True,0,True,FORCE_AWAY_FROM_PERSON|BACKWARD_TOWARD_FRONT_PERSON|STUCK_DETECTED,0.00,0
1764575418.10161,63.188,86,TEST2_OBSTACLE_BYPASS,True,3461.1,5706.5,6674.1,31.24,0.990,0.0,314.3,-251.1,55.31,52.05,55.31,139.70,87.33,0.0277,10.0,2.467,0.0000,0.0000,0.0000,0.00,-2.6821,-7.5370,8.0000,-160.41,63,200.0,134.0,-2.6821,-7.5370,8.0000,-160.41,31.24,-160.41,168.35,True,BACKWARDS,0.500,0,0,STUCK,False,False,True,0,True,FORCE_AWAY_FROM_PERSON|BACKWARD_TOWARD_FRONT_PERSON|STUCK_DETECTED,0.00,0
1764575418.140501,63.227,87,TEST2_OBSTACLE_BYPASS,True,3461.1,5706.5,6674.1,31.24,0.990,0.0,310.9,-256.0,54.87,50.99,54.87,139.11,87.40,0.0021,10.0,2.540,0.0000,0.0000,0.0000,0.00,-3.2392,-7.3149,8.0000,-156.12,68,200.0,134.0,-3.2392,-7.3149,8.0000,-156.12,31.24,-156.12,172.65,True,BACKWARDS_LEFT,0.500,0,0,STUCK,False,False,True,0,True,FORCE_AWAY_FROM_PERSON|STUCK_DETECTED,0.00,0
1764575418.1827881,63.270,88,TEST2_OBSTACLE_BYPASS,True,3461.1,5706.5,6674.1,31.24,0.990,0.0,308.4,-259.5,54.65,53.57,54.65,142.42,87.39,-0.0458,10.0,2.609,0.0000,0.0000,0.0000,0.00,-3.2392,-7.3149,8.0000,-156.12,68,200.0,134.0,-3.2392,-7.3149,8.0000,-156.12,31.24,-156.12,172.65,True,BACKWARDS_LEFT,0.500,0,0,STUCK,False,False,True,0,True,FORCE_AWAY_FROM_PERSON|STUCK_DETECTED,0.00,0
1764575418.220927,63.308,89,TEST2_OBSTACLE_BYPASS,True,3461.1,5706.5,6674.1,31.24,0.990,0.0,306.0,-262.9,54.67,56.37,54.67,145.62,87.30,-0.0426,10.0,2.677,0.0000,0.0000,0.0000,0.00,-3.7669,-7.0576,8.0000,-151.91,69,200.0,134.0,-3.7669,-7.0576,8.0000,-151.91,31.24,-151.91,176.85,True,BACKWARDS_LEFT,0.500,0,0,STUCK,False,False,True,0,True,FORCE_AWAY_FROM_PERSON|STUCK_DETECTED,0.00,0
1764575418.265406,63.352,90,TEST2_OBSTACLE_BYPASS,True,3572.5,5637.5,6674.1,32.36,0.990,0.0,303.4,-266.6,54.86,58.22,54.86,148.62,87.34,-0.0107,10.0,2.745,0.0000,0.0000,0.0000,0.00,-3.7669,-7.0576,8.0000,-151.91,69,200.0,134.0,-3.7669,-7.0576,8.0000,-151.91,32.36,-151.91,175.73,True,BACKWARDS_LEFT,0.500,0,0,STUCK,False,False,True,0,True,FORCE_AWAY_FROM_PERSON|STUCK_DETECTED,0.00,0
1764575418.3032305,63.390,91,TEST2_OBSTACLE_BYPASS,True,3572.5,5637.5,6674.1,32.36,0.990,0.0,301.1,-269.9,54.90,55.87,54.90,147.46,87.37,0.0309,10.0,2.812,0.0000,0.0000,0.0000,0.00,-4.7396,-6.4448,8.0000,-143.67,86,200.0,136.0,-4.7396,-6.4448,8.0000,-143.67,32.36,-143.67,-176.03,True,BACKWARDS_LEFT,0.500,0,0,STUCK,False,False,True,0,True,FORCE_AWAY_FROM_PERSON|STUCK_DETECTED,0.00,0
1764575418.3398938,63.427,92,TEST2_OBSTACLE_BYPASS,True,3572.5,5637.5,6674.1,32.36,0.990,0.0,298.7,-273.2,54.75,53.32,54.75,145.71,87.48,0.0405,10.0,2.876,0.0000,0.0000,0.0000,0.00,-4.7396,-6.4448,8.0000,-143.67,86,200.0,136.0,-4.7396,-6.4448,8.0000,-143.67,32.36,-143.67,-176.03,True,BACKWARDS_LEFT,0.500,0,0,STUCK,False,False,True,0,True,FORCE_AWAY_FROM_PERSON|STUCK_DETECTED,0.00,0
1764575418.3831794,63.470,93,TEST2_OBSTACLE_BYPASS,False,0.0,0.0,0.0,0.00,0.000,0.0,296.0,-277.0,54.36,51.17,54.36,144.15,87.69,-0.0181,10.0,2.934,0.0000,0.0000,0.0000,0.00,-5.5603,-5.7518,8.0000,-135.97,100,200.0,136.0,-5.5603,-5.7518,8.0000,-135.97,0.00,-135.97,0.00,False,NONE,0.000,0,0,STUCK,False,False,True,0,True,STUCK_DETECTED,0.00,0
1764575418.4188964,63.506,94,TEST2_OBSTACLE_BYPASS,False,0.0,0.0,0.0,0.00,0.000,0.0,293.8,-280.1,54.11,53.71,54.11,146.90,87.86,-0.0383,10.0,2.989,0.0000,0.0000,0.0000,0.00,-5.5574,-5.7545,8.0000,-136.00,100,200.0,136.0,-5.5574,-5.7545,8.0000,-136.00,0.00,-136.00,0.00,False,NONE,0.000,0,0,STUCK,False,False,True,0,True,STUCK_DETECTED,0.00,0
1764575418.4612708,63.548,95,TEST2_OBSTACLE_BYPASS,False,0.0,0.0,0.0,0.00,0.000,0.0,291.2,-283.6,54.19,56.62,54.19,150.23,87.67,-0.0149,10.0,3.043,0.0000,0.0000,0.0000,0.00,-5.9207,-5.3801,8.0000,-132.26,106,200.0,116.0,-5.9207,-5.3801,8.0000,-132.26,0.00,-132.26,0.00,False,NONE,0.000,0,0,STUCK,False,False,True,0,True,STUCK_DETECTED,0.00,0
1764575418.507867,63.595,96,TEST2_OBSTACLE_BYPASS,False,0.0,0.0,0.0,0.00,0.000,0.0,288.4,-287.6,54.73,57.49,54.73,151.59,87.61,0.0192,10.0,3.102,0.0000,0.0000,0.0000,0.00,-5.9106,-5.3912,8.0000,-132.37,106,200.0,116.0,-5.9106,-5.3912,8.0000,-132.37,0.00,-132.37,0.00,False,NONE,0.000,0,0,STUCK,False,False,True,0,True,STUCK_DETECTED,0.00,0
1764575418.546644,63.634,97,TEST2_OBSTACLE_BYPASS,False,0.0,0.0,0.0,0.00,0.000,0.0,286.0,-291.1,55.07,54.34,55.07,148.99,87.66,0.0330,10.0,3.163,0.0000,0.0000,0.0000,0.00,-6.1566,-5.1084,8.0000,-129.68,121,200.0,116.0,-6.1566,-5.1084,8.0000,-129.68,0.00,-129.68,0.00,False,NONE,0.000,0,0,STUCK,False,False,True,0,True,STUCK_DETECTED,0.00,0
1764575418.5891006,63.676,98,TEST2_OBSTACLE_BYPASS,False,0.0,0.0,0.0,0.00,0.000,0.0,283.5,-294.6,54.75,50.33,54.75,145.28,87.76,0.0298,10.0,3.219,0.0000,0.0000,0.0000,0.00,-6.2129,-5.0399,8.0000,-129.05,121,200.0,116.0,-6.2129,-5.0399,8.0000,-129.05,0.00,-129.05,0.00,False,NONE,0.000,0,0,STUCK,False,False,True,0,True,STUCK_DETECTED,0.00,0
1764575418.6264982,63.713,99,TEST2_OBSTACLE_BYPASS,False,0.0,0.0,0.0,0.00,0.000,0.0,281.2,-297.8,54.13,50.25,54.13,145.73,87.72,-0.0138,10.0,3.268,0.0000,0.0000,0.0000,0.00,-6.3030,-4.9267,8.0000,-128.01,126,200.0,116.0,-6.3030,-4.9267,8.0000,-128.01,0.00,-128.01,0.00,False,NONE,0.000,0,0,STUCK,False,False,True,0,True,STUCK_DETECTED,0.00,0
1764575418.6726875,63.760,100,TEST2_OBSTACLE_BYPASS,False,0.0,0.0,0.0,0.00,0.000,0.0,278.5,-301.4,53.70,53.85,53.70,150.46,87.55,-0.0469,10.0,3.312,0.0000,0.0000,0.0000,0.00,-6.2362,-5.0110,8.0000,-128.78,126,200.0,116.0,-6.2362,-5.0110,8.0000,-128.78,0.00,-128.78,0.00,False,NONE,0.000,0,0,STUCK,False,False,True,0,True,STUCK_DETECTED,0.00,0
1764575418.7067208,63.794,101,TEST2_OBSTACLE_BYPASS,False,0.0,0.0,0.0,0.00,0.000,0.0,276.2,-304.6,53.76,56.55,53.76,154.10,87.65,-0.0256,10.0,3.355,0.0000,0.0000,0.0000,0.00,-6.3456,-4.8717,8.0000,-127.51,130,200.0,116.0,-6.3456,-4.8717,8.0000,-127.51,0.00,-127.51,0.00,False,NONE,0.000,0,0,STUCK,False,False,True,0,True,STUCK_DETECTED,0.00,0
1764575418.7504747,63.837,102,TEST2_OBSTACLE_BYPASS,False,0.0,0.0,0.0,0.00,0.000,0.0,273.5,-308.3,53.97,55.38,53.97,153.85,87.74,0.0415,10.0,3.434,0.0000,0.0000,0.0000,0.00,-6.3404,-4.8784,8.0000,-127.57,130,200.0,116.0,-6.3404,-4.8784,8.0000,-127.57,0.00,-127.57,0.00,False,NONE,0.000,0,0,STUCK,False,False,True,0,True,STUCK_DETECTED,0.00,0
1764575418.7875407,63.874,103,TEST2_OBSTACLE_BYPASS,False,0.0,0.0,0.0,0.00,0.000,0.0,271.2,-311.5,54.00,51.45,54.00,150.67,87.81,0.0490,10.0,3.513,0.0000,0.0000,0.0000,0.00,-6.4115,-4.7847,8.0000,-126.73,131,250.0,116.0,-6.4115,-4.7847,8.0000,-126.73,0.00,-126.73,0.00,False,NONE,0.000,0,0,STUCK,False,False,True,0,True,STUCK_DETECTED,0.00,0
1764575418.8304913,63.917,104,TEST2_OBSTACLE_BYPASS,False,0.0,0.0,0.0,0.00,0.000,0.0,268.6,-315.0,53.55,49.28,53.55,148.93,87.83,0.0373,10.0,3.587,0.0000,0.0000,0.0000,0.00,-6.5297,-4.6221,8.0000,-125.29,137,250.0,116.0,-6.5297,-4.6221,8.0000,-125.29,0.00,-125.29,0.00,False,NONE,0.000,0,0,STUCK,False,False,True,0,True,STUCK_DETECTED,0.00,0
1764575418.8692403,63.956,105,TEST2_OBSTACLE_BYPASS,False,0.0,0.0,0.0,0.00,0.000,0.0,266.1,-318.3,52.79,49.00,52.79,149.06,87.65,0.0266,10.0,3.654,0.0000,0.0000,0.0000,0.00,-6.5297,-4.6221,8.0000,-125.29,137,250.0,116.0,-6.5297,-4.6221,8.0000,-125.29,0.00,-125.29,0.00,False,NONE,0.000,0,0,STUCK,False,False,True,0,True,STUCK_DETECTED,0.00,0
1764575418.9140472,64.001,106,TEST2_OBSTACLE_BYPASS,False,0.0,0.0,0.0,0.00,0.000,0.0,263.4,-321.8,51.94,48.94,51.94,149.47,87.69,0.0138,10.0,3.712,0.0000,0.0000,0.0000,0.00,-6.8428,-4.1445,8.0000,-121.20,135,250.0,116.0,-6.8428,-4.1445,8.0000,-121.20,0.00,-121.20,0.00,False,BACKWARDS_LEFT,0.500,0,0,STUCK,False,False,True,0,True,STUCK_DETECTED,0.00,0
1764575418.9507837,64.038,107,TEST2_OBSTACLE_BYPASS,False,0.0,0.0,0.0,0.00,0.000,0.0,260.9,-324.9,51.23,47.30,51.23,148.49,87.65,0.0469,10.0,3.764,0.0000,0.0000,0.0000,0.00,-6.8897,-4.0659,8.0000,-120.55,135,250.0,116.0,-6.8897,-4.0659,8.0000,-120.55,0.00,-120.55,0.00,False,BACKWARDS_LEFT,0.500,0,0,STUCK,False,False,True,0,True,STUCK_DETECTED,0.00,0
1764575419.0096169,64.096,108,TEST2_OBSTACLE_BYPASS,False,0.0,0.0,0.0,0.00,0.000,0.0,257.1,-329.4,50.57,43.71,50.57,145.56,87.49,0.0746,10.0,3.809,0.0000,0.0000,0.0000,0.00,-6.8982,-4.0515,8.0000,-120.43,131,300.0,270.0,-6.8982,-4.0515,8.0000,-120.43,0.00,-120.43,0.00,False,BACKWARDS_LEFT,0.500,0,0,STUCK,False,False,True,0,True,STUCK_DETECTED,0.00,0
1764575419.0508926,64.138,109,TEST2_OBSTACLE_BYPASS,False,0.0,0.0,0.0,0.00,0.000,0.0,254.5,-332.5,49.69,41.50,49.69,143.70,87.26,0.1108,10.0,3.845,0.0000,0.0000,0.0000,0.00,-6.8875,-4.0697,8.0000,-120.58,131,300.0,270.0,-6.8875,-4.0697,8.0000,-120.58,0.00,-120.58,0.00,False,BACKWARDS_LEFT,0.500,0,0,STUCK,False,False,True,0,True,STUCK_DETECTED,0.00,0
1764575419.0823803,64.169,110,TEST2_OBSTACLE_BYPASS,False,0.0,0.0,0.0,0.00,0.000,0.0,252.0,-335.3,48.17,38.63,48.17,141.34,86.98,0.1182,10.0,3.866,0.0000,0.0000,0.0000,0.00,-7.0952,-3.6956,8.0000,-117.51,129,300.0,270.0,-7.0952,-3.6956,8.0000,-117.51,0.00,-117.51,0.00,False,BACKWARDS_LEFT,0.500,0,0,STUCK,False,False,True,0,True,STUCK_DETECTED,0.00,0
1764575419.1308029,64.218,111,TEST2_OBSTACLE_BYPASS,False,0.0,0.0,0.0,0.00,0.000,0.0,248.8,-338.6,46.19,36.75,46.19,140.05,86.65,0.0927,10.0,3.867,0.0000,0.0000,0.0000,0.00,-7.1685,-3.5513,8.0000,-116.35,129,300.0,270.0,-7.1685,-3.5513,8.0000,-116.35,0.00,-116.35,0.00,False,BACKWARDS_LEFT,0.500,0,0,STUCK,False,False,True,0,True,STUCK_DETECTED,0.00,0
1764575419.1599755,64.247,112,TEST2_OBSTACLE_BYPASS,False,0.0,0.0,0.0,0.00,0.000,0.0,246.1,-341.2,44.06,34.07,44.06,137.55,86.81,0.0298,10.0,3.847,0.0000,0.0000,0.0000,0.00,-7.2429,-3.3971,8.0000,-115.13,123,300.0,273.0,-7.2429,-3.3971,8.0000,-115.13,0.00,-115.13,0.00,False,BACKWARDS_LEFT,0.500,0,0,STUCK,False,False,True,0,True,STUCK_DETECTED,0.00,0
1764575419.208743,64.296,113,TEST2_OBSTACLE_BYPASS,False,0.0,0.0,0.0,0.00,0.000,0.0,242.8,-344.3,42.30,33.86,42.30,137.29,86.76,-0.0181,10.0,3.809,0.0000,0.0000,0.0000,0.00,-7.2429,-3.3971,8.0000,-115.13,123,300.0,273.0,-7.2429,-3.3971,8.0000,-115.13,0.00,-115.13,0.00,False,BACKWARDS_LEFT,0.500,0,0,STUCK,False,False,True,0,True,STUCK_DETECTED,0.00,0
1764575419.243975,64.331,114,TEST2_OBSTACLE_BYPASS,False,0.0,0.0,0.0,0.00,0.000,0.0,239.7,-346.9,40.74,33.64,40.74,137.00,86.95,-0.0671,10.0,3.755,0.0000,0.0000,0.0000,0.00,-7.4078,-3.0206,8.0000,-112.18,109,300.0,273.0,-7.4078,-3.0206,8.0000,-112.18,0.00,-112.18,0.00,False,LEFT,0.700,0,0,STUCK,False,False,True,0,True,STUCK_DETECTED,0.00,0
1764575419.2895117,64.376,115,TEST2_OBSTACLE_BYPASS,False,0.0,0.0,0.0,0.00,0.000,0.0,239.7,-346.9,39.20,33.60,39.20,137.15,87.16,-0.0458,10.0,3.687,0.0000,0.0000,0.0000,0.00,-7.5100,-2.7567,8.0000,-110.16,103,300.0,273.0,-7.5100,-2.7567,8.0000,-110.16,0.00,-110.16,0.00,False,LEFT,0.700,0,0,STUCK,False,False,True,0,True,STUCK_DETECTED,0.00,0
1764575419.3266115,64.413,116,TEST2_OBSTACLE_BYPASS,False,0.0,0.0,0.0,0.00,0.000,0.0,239.7,-346.9,37.61,33.01,37.61,137.29,87.33,0.0383,10.0,3.602,0.0000,0.0000,0.0000,0.00,-7.5100,-2.7567,8.0000,-110.16,103,300.0,273.0,-7.5100,-2.7567,8.0000,-110.16,0.00,-110.16,0.00,False,LEFT,0.700,0,0,STUCK,False,False,True,0,True,STUCK_DETECTED,0.00,0
1764575419.3702152,64.457,117,TEST2_OBSTACLE_BYPASS,False,0.0,0.0,0.0,0.00,0.000,0.0,239.7,-346.9,36.06,31.87,36.06,137.59,87.14,0.0341,10.0,3.502,0.0000,0.0000,0.0000,0.00,-7.5374,-2.6809,8.0000,-109.58,85,300.0,145.0,-7.5374,-2.6809,8.0000,-109.58,0.00,-109.58,0.00,False,LEFT,0.700,0,0,STUCK,False,False,True,0,True,STUCK_DETECTED,0.00,0
1764575419.407861,64.495,118,TEST2_OBSTACLE_BYPASS,False,0.0,0.0,0.0,0.00,0.000,0.0,239.7,-346.9,34.87,31.81,34.87,138.22,87.09,-0.0160,10.0,3.390,0.0000,0.0000,0.0000,0.00,-7.5374,-2.6809,8.0000,-109.58,85,300.0,145.0,-7.5374,-2.6809,8.0000,-109.58,0.00,-109.58,0.00,False,LEFT,0.700,0,0,STUCK,False,False,True,0,True,STUCK_DETECTED,0.00,0
1764575419.444184,64.531,119,TEST2_OBSTACLE_BYPASS,False,0.0,0.0,0.0,0.00,0.000,0.0,239.7,-346.9,33.90,31.72,33.90,138.84,87.20,-0.0383,10.0,3.268,0.0000,0.0000,0.0000,0.00,-7.6075,-2.4750,8.0000,-108.02,93,400.0,145.0,-7.6075,-2.4750,8.0000,-108.02,0.00,-108.02,0.00,False,LEFT,0.700,0,0,STUCK,False,False,True,0,True,STUCK_DETECTED,0.00,0
1764575419.4879332,64.575,120,TEST2_OBSTACLE_BYPASS,True,485.0,3558.4,3591.3,7.76,0.992,0.0,239.7,-346.9,33.14,31.04,33.14,138.38,87.33,-0.0213,10.0,3.138,0.1923,3.0606,3.0667,3.59,-7.6075,-2.4750,8.0000,-108.02,93,400.0,145.0,-7.4153,0.5856,7.4383,-85.48,7.76,-85.48,-93.25,True,LEFT,0.700,0,0,STUCK,False,False,True,0,True,FORCE_AWAY_FROM_PERSON|STUCK_DETECTED,0.00,0
1764575419.5266864,64.614,121,TEST2_OBSTACLE_BYPASS,True,554.8,3548.2,3591.3,8.89,0.992,0.0,239.7,-346.9,32.51,30.49,32.51,138.19,87.41,0.0117,10.0,3.002,0.2476,3.0607,3.0707,4.62,-7.6089,-2.4708,8.0000,-107.99,78,400.0,148.0,-7.3613,0.5900,7.3849,-85.42,8.89,-85.42,-94.30,True,LEFT,0.700,0,0,STUCK,False,False,True,0,True,FORCE_AWAY_FROM_PERSON|STUCK_DETECTED,0.00,0
1764575419.5670788,64.654,122,TEST2_OBSTACLE_BYPASS,True,554.8,3548.2,3591.3,8.89,0.992,0.0,239.7,-346.9,32.14,30.34,32.14,138.38,87.38,0.0213,10.0,2.863,0.2476,3.0607,3.0707,4.62,-7.6089,-2.4708,8.0000,-107.99,78,400.0,148.0,-7.3613,0.5900,7.3849,-85.42,8.89,-85.42,-94.30,True,LEFT,0.700,0,0,STUCK,False,False,True,0,True,FORCE_AWAY_FROM_PERSON|STUCK_DETECTED,0.00,0
1764575419.6113024,64.698,123,TEST2_OBSTACLE_BYPASS,True,554.8,3548.2,3591.3,8.89,0.992,0.0,239.7,-346.9,31.91,31.58,31.91,140.36,87.45,-0.0043,10.0,2.721,0.2476,3.0607,3.0707,4.62,-7.6986,-2.1753,8.0000,-105.78,71,450.0,278.0,-7.4510,0.8854,7.5034,-83.22,8.89,-83.22,-92.11,True,LEFT,0.700,0,0,STUCK,False,False,True,0,True,FORCE_AWAY_FROM_PERSON|STUCK_DETECTED,0.00,0
1764575419.6484065,64.735,124,TEST2_OBSTACLE_BYPASS,True,554.8,3548.2,3591.3,8.89,0.992,0.0,239.7,-346.9,31.85,33.07,31.85,142.32,87.33,-0.0021,10.0,2.581,0.2476,3.0607,3.0707,4.62,-7.6986,-2.1753,8.0000,-105.78,71,450.0,278.0,-7.4510,0.8854,7.5034,-83.22,8.89,-83.22,-92.11,True,LEFT,0.700,0,0,STUCK,False,False,True,0,True,FORCE_AWAY_FROM_PERSON|STUCK_DETECTED,0.00,0
1764575419.6852717,64.772,125,TEST2_OBSTACLE_BYPASS,True,554.8,3548.2,3591.3,8.89,0.992,0.0,239.7,-346.9,31.84,33.48,31.84,143.21,87.31,0.0000,10.0,2.442,0.2476,3.0607,3.0707,4.62,-7.6837,-2.2273,8.0000,-106.17,82,300.0,278.0,-7.4361,0.8334,7.4827,-83.61,8.89,-83.61,-92.49,True,LEFT,0.700,0,0,STUCK,False,False,True,0,True,FORCE_AWAY_FROM_PERSON|STUCK_DETECTED,0.00,0
1764575419.7306266,64.818,126,TEST2_OBSTACLE_BYPASS,True,554.8,3548.2,3591.3,8.89,0.992,0.0,239.7,-346.9,31.83,32.88,31.83,142.99,87.29,-0.0064,10.0,2.305,0.2476,3.0607,3.0707,4.62,-7.6837,-2.2273,8.0000,-106.17,82,300.0,278.0,-7.4361,0.8334,7.4827,-83.61,8.89,-83.61,-92.49,True,LEFT,0.700,0,0,STUCK,False,False,True,0,True,FORCE_AWAY_FROM_PERSON|STUCK_DETECTED,0.00,0
1764575419.76749,64.854,127,TEST2_OBSTACLE_BYPASS,True,624.4,3536.6,3591.3,10.01,0.992,0.0,239.7,-346.9,32.19,35.50,32.19,145.81,87.38,-0.0266,10.0,2.174,0.3031,3.0599,3.0749,5.66,-7.6559,-2.3210,8.0000,-106.87,81,450.0,278.0,-7.3528,0.7389,7.3899,-84.26,10.01,-84.26,-94.27,True,LEFT,0.700,0,0,STUCK,False,False,True,0,True,FORCE_AWAY_FROM_PERSON|STUCK_DETECTED,0.00,0
1764575419.807242,64.894,128,TEST2_OBSTACLE_BYPASS,False,0.0,0.0,0.0,0.00,0.000,0.0,239.7,-346.9,33.03,40.24,33.03,150.46,87.25,-0.0575,10.0,2.053,0.3031,3.0599,3.0749,5.66,-7.6559,-2.3210,8.0000,-106.87,81,450.0,278.0,-7.3528,0.7389,7.3899,-84.26,0.00,-84.26,0.00,False,NONE,0.000,0,0,STUCK,False,False,True,0,True,STUCK_DETECTED,0.00,0
1764575419.844449,64.931,129,TEST2_OBSTACLE_BYPASS,False,0.0,0.0,0.0,0.00,0.000,0.0,239.7,-346.9,34.13,42.74,34.13,152.77,87.19,-0.0490,10.0,1.942,0.3031,3.0599,3.0749,5.66,-7.5331,-2.6929,8.0000,-109.67,70,450.0,278.0,-7.2301,0.3670,7.2394,-87.09,0.00,-87.09,0.00,False,NONE,0.000,0,0,STUCK,False,False,True,0,True,STUCK_DETECTED,0.00,0
1764575419.888513,64.975,130,TEST2_OBSTACLE_BYPASS,False,0.0,0.0,0.0,0.00,0.000,0.0,239.7,-346.9,35.38,43.52,35.38,153.52,87.12,0.0096,10.0,1.844,0.3031,3.0599,3.0749,5.66,-7.5331,-2.6929,8.0000,-109.67,70,450.0,278.0,-7.2301,0.3670,7.2394,-87.09,0.00,-87.09,0.00,False,NONE,0.000,0,0,STUCK,False,False,True,0,True,STUCK_DETECTED,0.00,0
1764575419.9256384,65.013,131,TEST2_OBSTACLE_BYPASS,False,0.0,0.0,0.0,0.00,0.000,0.0,239.7,-346.9,36.72,43.82,36.72,154.15,87.01,0.0053,10.0,1.756,0.3031,3.0599,3.0749,5.66,-7.4349,-2.9533,8.0000,-111.66,60,500.0,278.0,-7.1318,0.1066,7.1326,-89.14,0.00,-89.14,0.00,False,NONE,0.000,0,0,STUCK,False,False,True,0,True,STUCK_DETECTED,0.00,0
1764575419.964912,65.052,132,TEST2_OBSTACLE_BYPASS,False,0.0,0.0,0.0,0.00,0.000,0.0,239.7,-346.9,37.96,42.80,37.96,153.21,87.18,-0.0277,10.0,1.679,0.3031,3.0599,3.0749,5.66,-7.4349,-2.9533,8.0000,-111.66,60,500.0,278.0,-7.1318,0.1066,7.1326,-89.14,0.00,-89.14,0.00,False,NONE,0.000,0,0,STUCK,False,False,True,0,True,STUCK_DETECTED,0.00,0
1764575420.008074,65.095,133,TEST2_OBSTACLE_BYPASS,False,0.0,0.0,0.0,0.00,0.000,0.0,239.7,-346.9,39.04,42.35,39.04,152.60,87.32,-0.0107,10.0,1.609,0.3031,3.0599,3.0749,5.66,-7.3215,-3.2243,8.0000,-113.77,61,500.0,278.0,-7.0184,-0.1643,7.0203,-91.34,0.00,-91.34,0.00,False,NONE,0.000,0,0,STUCK,False,False,True,0,True,STUCK_DETECTED,0.00,0
1764575420.0456102,65.132,134,TEST2_OBSTACLE_BYPASS,False,0.0,0.0,0.0,0.00,0.000,0.0,239.7,-346.9,40.06,43.31,40.06,153.19,87.30,-0.0011,10.0,1.546,0.3031,3.0599,3.0749,5.66,-7.3215,-3.2243,8.0000,-113.77,61,500.0,278.0,-7.0184,-0.1643,7.0203,-91.34,0.00,-91.34,0.00,False,NONE,0.000,0,0,STUCK,False,False,True,0,True,STUCK_DETECTED,0.00,0
1764575420.0841649,65.171,135,TEST2_OBSTACLE_BYPASS,False,0.0,0.0,0.0,0.00,0.000,0.0,239.7,-346.9,41.13,44.13,41.13,153.31,87.12,0.0032,10.0,1.490,0.3031,3.0599,3.0749,5.66,-7.2458,-3.3909,8.0000,-115.08,66,500.0,100.0,-6.9427,-0.3310,6.9506,-92.73,0.00,-92.73,0.00,False,NONE,0.000,0,0,STUCK,False,False,True,0,True,STUCK_DETECTED,0.00,0
1764575420.1240244,65.211,136,TEST2_OBSTACLE_BYPASS,False,0.0,0.0,0.0,0.00,0.000,0.0,239.7,-346.9,42.29,44.52,42.29,152.86,87.15,0.0224,10.0,1.440,0.3031,3.0599,3.0749,5.66,-7.2458,-3.3909,8.0000,-115.08,66,500.0,100.0,-6.9427,-0.3310,6.9506,-92.73,0.00,-92.73,0.00,False,NONE,0.000,0,0,RECOVERING,True,False,True,0,True,STUCK_DETECTED,0.00,0
1764575420.1712887,65.258,137,TEST2_OBSTACLE_BYPASS,True,1438.2,3169.9,3480.9,24.40,0.995,0.0,239.7,-346.9,43.09,43.47,43.09,150.70,87.12,0.0256,10.0,1.394,1.0419,3.0571,3.2298,18.82,-7.1037,-3.6793,8.0000,-117.38,66,500.0,100.0,-6.0618,-0.6221,6.0937,-95.86,24.40,-95.86,-120.26,True,LEFT,0.700,0,0,RECOVERING,False,False,True,0,True,FORCE_AWAY_FROM_PERSON|STUCK_DETECTED,0.00,0
1764575420.2084959,65.295,138,TEST2_OBSTACLE_BYPASS,True,1500.2,3141.0,3480.9,25.53,0.995,0.0,239.7,-346.9,43.31,42.40,43.31,148.59,87.20,0.0117,10.0,1.346,1.0997,3.0430,3.2356,19.87,-6.8407,-4.1478,8.0000,-121.23,68,500.0,100.0,-5.7410,-1.1048,5.8464,-100.89,25.53,-100.89,-126.42,True,LEFT,0.700,0,0,RECOVERING,False,False,True,0,True,FORCE_AWAY_FROM_PERSON|STUCK_DETECTED,0.00,0
1764575420.252241,65.339,139,TEST2_OBSTACLE_BYPASS,True,1500.2,3141.0,3480.9,25.53,0.995,0.0,239.7,-346.9,43.19,41.56,43.19,146.43,87.13,-0.0011,10.0,1.293,1.0997,3.0430,3.2356,19.87,-6.8407,-4.1478,8.0000,-121.23,68,500.0,100.0,-5.7410,-1.1048,5.8464,-100.89,25.53,-100.89,-126.42,True,LEFT,0.700,0,0,RECOVERING,False,False,True,0,True,FORCE_AWAY_FROM_PERSON|STUCK_DETECTED,0.00,0
1764575420.2889504,65.376,140,TEST2_OBSTACLE_BYPASS,True,67.2,2027.7,2028.8,1.90,0.999,0.0,239.7,-346.9,43.12,42.85,43.12,146.57,87.20,-0.0053,10.0,1.234,-0.3652,5.0269,5.0402,-4.16,-6.5538,-4.5878,8.0000,-124.99,72,500.0,128.0,-6.9190,0.4392,6.9329,-86.37,1.90,-86.37,-88.27,False,LEFT,0.700,0,0,RECOVERING,False,False,True,0,True,STUCK_DETECTED,0.00,0
1764575420.3345377,65.421,141,TEST2_OBSTACLE_BYPASS,True,67.2,2027.7,2028.8,1.90,0.999,0.0,239.7,-346.9,43.19,44.47,43.19,146.64,87.11,-0.0170,10.0,1.172,-0.3652,5.0269,5.0402,-4.16,-6.5538,-4.5878,8.0000,-124.99,72,500.0,128.0,-6.9190,0.4392,6.9329,-86.37,1.90,-86.37,-88.27,False,LEFT,0.700,0,0,RECOVERING,False,False,True,0,True,STUCK_DETECTED,0.00,0
1764575420.3731322,65.460,142,TEST2_OBSTACLE_BYPASS,True,67.2,2027.7,2028.8,1.90,0.999,0.0,239.7,-346.9,43.40,44.93,43.40,146.12,86.97,0.0149,10.0,1.109,-0.3652,5.0269,5.0402,-4.16,-6.2256,-5.0241,8.0000,-128.90,65,500.0,128.0,-6.5908,0.0029,6.5908,-89.98,1.90,-89.98,-91.87,True,LEFT,0.700,0,0,RECOVERING,False,False,True,0,True,FORCE_AWAY_FROM_PERSON|STUCK_DETECTED,0.00,0
1764575420.4146056,65.501,143,TEST2_OBSTACLE_BYPASS,True,67.2,2027.7,2028.8,1.90,0.999,0.0,239.7,-346.9,43.62,44.56,43.62,144.52,87.09,0.0075,10.0,1.047,-0.3652,5.0269,5.0402,-4.16,-6.2256,-5.0241,8.0000,-128.90,65,500.0,128.0,-6.5908,0.0029,6.5908,-89.98,1.90,-89.98,-91.87,True,LEFT,0.700,0,0,RECOVERING,False,False,True,0,True,FORCE_AWAY_FROM_PERSON|STUCK_DETECTED,0.00,0
1764575420.4537501,65.541,144,TEST2_OBSTACLE_BYPASS,True,67.2,2027.7,2028.8,1.90,0.999,0.0,239.7,-346.9,43.68,43.90,43.68,142.86,87.06,-0.0032,10.0,0.994,-0.3652,5.0269,5.0402,-4.16,-5.7906,-5.5198,8.0000,-133.63,61,500.0,128.0,-6.1558,-0.4929,6.1755,-94.58,1.90,-94.58,-96.48,True,LEFT,0.700,0,0,RECOVERING,False,False,True,0,True,FORCE_AWAY_FROM_PERSON|STUCK_DETECTED,0.00,0
1764575420.496884,65.584,145,TEST2_OBSTACLE_BYPASS,True,27.4,2028.6,2028.8,0.77,0.999,0.0,239.7,-346.9,43.83,45.63,43.83,143.26,86.99,-0.0224,10.0,0.956,-0.4479,5.0115,5.0314,-5.11,-5.7906,-5.5198,8.0000,-133.63,61,500.0,128.0,-6.2386,-0.5084,6.2592,-94.66,0.77,-94.66,-95.43,True,LEFT,0.700,0,0,RECOVERING,False,False,True,0,True,FORCE_AWAY_FROM_PERSON|STUCK_DETECTED,0.00,0
1764575420.5349205,65.622,146,TEST2_OBSTACLE_BYPASS,True,27.4,2028.6,2028.8,0.77,0.999,0.0,239.7,-346.9,44.18,47.99,44.18,144.17,86.89,-0.0138,10.0,0.939,-0.4479,5.0115,5.0314,-5.11,-5.3914,-5.9104,8.0000,-137.63,59,500.0,136.0,-5.8393,-0.8989,5.9081,-98.75,0.77,-98.75,-99.52,True,LEFT,0.700,0,0,RECOVERING,False,False,True,0,True,FORCE_AWAY_FROM_PERSON|STUCK_DETECTED,0.00,0
1764575420.5729806,65.660,147,TEST2_OBSTACLE_BYPASS,True,27.4,2028.6,2028.8,0.77,0.999,0.0,239.7,-346.9,44.80,49.72,44.80,144.28,86.90,-0.0064,10.0,0.943,-0.4479,5.0115,5.0314,-5.11,-5.0737,-6.1853,8.0000,-140.64,62,300.0,136.0,-5.5216,-1.1738,5.6450,-102.00,0.77,-102.00,-102.78,True,LEFT,0.700,0,0,RECOVERING,False,False,True,0,True,FORCE_AWAY_FROM_PERSON|STUCK_DETECTED,0.00,0
1764575420.6129756,65.700,148,TEST2_OBSTACLE_BYPASS,False,0.0,0.0,0.0,0.00,0.000,0.0,239.7,-346.9,45.59,50.29,45.59,143.49,86.97,-0.0128,10.0,0.964,-0.4479,5.0115,5.0314,-5.11,-4.9351,-6.2964,8.0000,-141.91,49,550.0,136.0,-5.3830,-1.2849,5.5343,-103.43,0.00,-103.43,0.00,False,NONE,0.000,0,0,RECOVERING,False,False,True,0,True,STUCK_DETECTED,0.00,0
1764575420.651059,65.738,149,TEST2_OBSTACLE_BYPASS,False,0.0,0.0,0.0,0.00,0.000,0.0,239.7,-346.9,46.56,51.30,46.56,143.43,87.03,-0.0202,10.0,0.996,-0.4479,5.0115,5.0314,-5.11,-4.9351,-6.2964,8.0000,-141.91,49,550.0,136.0,-5.3830,-1.2849,5.5343,-103.43,0.00,-103.43,0.00,False,NONE,0.000,0,0,RECOVERING,False,False,True,0,True,STUCK_DETECTED,0.00,0
1764575420.6936743,65.781,150,TEST2_OBSTACLE_BYPASS,False,0.0,0.0,0.0,0.00,0.000,0.0,239.7,-346.9,47.67,53.91,47.67,144.57,86.91,-0.0288,10.0,1.034,-0.4479,5.0115,5.0314,-5.11,-4.5420,-6.5856,8.0000,-145.41,48,550.0,156.0,-4.9900,-1.5741,5.2324,-107.51,0.00,-107.51,0.00,False,NONE,0.000,0,0,RECOVERING,False,False,True,0,True,STUCK_DETECTED,0.00,0
1764575420.7319324,65.819,151,TEST2_OBSTACLE_BYPASS,False,0.0,0.0,0.0,0.00,0.000,0.0,239.7,-346.9,48.75,55.27,48.75,145.03,86.86,-0.0362,10.0,1.074,-0.4479,5.0115,5.0314,-5.11,-4.5420,-6.5856,8.0000,-145.41,48,550.0,156.0,-4.9900,-1.5741,5.2324,-107.51,0.00,-107.51,0.00,False,NONE,0.000,0,0,RECOVERING,False,False,True,0,True,STUCK_DETECTED,0.00,0
1764575420.778698,65.866,152,TEST2_OBSTACLE_BYPASS,True,-137.4,1865.0,1870.0,355.79,0.995,0.0,239.7,-346.9,50.00,57.38,50.00,145.15,86.79,-0.0053,10.0,1.122,-0.8989,5.2720,5.3480,-9.68,-4.4484,-6.6492,8.0000,-146.22,38,600.0,156.0,-5.3472,-1.3772,5.5218,-104.44,-4.21,-104.44,-100.23,True,LEFT,0.700,0,0,RECOVERING,False,False,True,0,True,FORCE_AWAY_FROM_PERSON|STUCK_DETECTED,0.00,0
1764575420.8160076,65.903,153,TEST2_OBSTACLE_BYPASS,True,-137.4,1865.0,1870.0,355.79,0.995,0.0,239.7,-346.9,51.30,57.65,51.30,144.59,86.74,0.0160,10.0,1.179,-0.8989,5.2720,5.3480,-9.68,-4.4484,-6.6492,8.0000,-146.22,38,600.0,156.0,-5.3472,-1.3772,5.5218,-104.44,-4.21,-104.44,-100.23,True,LEFT,0.700,0,0,RECOVERING,False,False,True,0,True,FORCE_AWAY_FROM_PERSON|STUCK_DETECTED,0.00,0
1764575420.858562,65.945,154,TEST2_OBSTACLE_BYPASS,True,-137.4,1865.0,1870.0,355.79,0.995,0.0,239.7,-346.9,52.72,58.07,52.72,143.29,86.70,0.0075,10.0,1.243,-0.8989,5.2720,5.3480,-9.68,-4.2206,-6.7961,8.0000,-148.16,41,600.0,156.0,-5.1195,-1.5241,5.3415,-106.58,-4.21,-106.58,-102.36,True,LEFT,0.700,0,0,RECOVERING,False,False,True,0,True,FORCE_AWAY_FROM_PERSON|STUCK_DETECTED,0.00,0
1764575420.9006584,65.988,155,TEST2_OBSTACLE_BYPASS,True,-137.4,1865.0,1870.0,355.79,0.995,0.0,239.7,-346.9,53.96,58.06,53.96,141.88,86.70,-0.0064,10.0,1.305,-0.8989,5.2720,5.3480,-9.68,-4.2206,-6.7961,8.0000,-148.16,41,600.0,156.0,-5.1195,-1.5241,5.3415,-106.58,-4.21,-106.58,-102.36,True,LEFT,0.700,0,0,RECOVERING,False,False,True,0,True,FORCE_AWAY_FROM_PERSON|STUCK_DETECTED,0.00,0
1764575420.939425,66.026,156,TEST2_OBSTACLE_BYPASS,True,-174.0,1861.9,1870.0,354.66,0.995,0.0,239.7,-346.9,55.02,58.56,55.02,140.76,86.65,-0.0192,10.0,1.354,-0.9831,5.2486,5.3399,-10.61,-4.5726,-6.5644,8.0000,-145.14,41,600.0,156.0,-5.5557,-1.3158,5.7094,-103.32,-5.34,-103.32,-97.99,True,LEFT,0.700,0,0,RECOVERING,False,False,True,0,True,FORCE_AWAY_FROM_PERSON|STUCK_DETECTED,0.00,0
1764575420.9808207,66.068,157,TEST2_OBSTACLE_BYPASS,True,-174.0,1861.9,1870.0,354.66,0.995,0.0,239.7,-346.9,56.15,61.02,56.15,141.87,86.69,-0.0362,10.0,1.388,-0.9831,5.2486,5.3399,-10.61,-4.8628,-6.3524,8.0000,-142.57,37,600.0,156.0,-5.8459,-1.1038,5.9492,-100.69,-5.34,-100.69,-95.35,True,LEFT,0.700,0,0,RECOVERING,False,False,True,0,True,FORCE_AWAY_FROM_PERSON|STUCK_DETECTED,0.00,0
1764575421.0226808,66.110,158,TEST2_OBSTACLE_BYPASS,True,-174.0,1861.9,1870.0,354.66,0.995,0.0,239.7,-346.9,57.51,63.89,57.51,143.35,86.55,-0.0288,10.0,1.420,-0.9831,5.2486,5.3399,-10.61,-4.8628,-6.3524,8.0000,-142.57,37,600.0,156.0,-5.8459,-1.1038,5.9492,-100.69,-5.34,-100.69,-95.35,True,LEFT,0.700,0,0,RECOVERING,False,False,True,0,True,FORCE_AWAY_FROM_PERSON|STUCK_DETECTED,0.00,0
1764575421.0807,66.168,159,TEST2_OBSTACLE_BYPASS,True,-174.0,1861.9,1870.0,354.66,0.995,0.0,239.7,-346.9,59.01,66.25,59.01,144.29,86.51,-0.0298,10.0,1.466,-0.9831,5.2486,5.3399,-10.61,-5.6777,-5.6359,8.0000,-134.79,36,600.0,156.0,-6.6608,-0.3873,6.6720,-93.33,-5.34,-93.33,-87.99,False,LEFT,0.700,0,0,RECOVERING,False,False,True,0,True,STUCK_DETECTED,0.00,0
1764575421.1104784,66.197,160,TEST2_OBSTACLE_BYPASS,False,0.0,0.0,0.0,0.00,0.000,0.0,239.7,-346.9,60.32,67.10,60.32,143.73,86.53,-0.0234,10.0,1.548,-0.9831,5.2486,5.3399,-10.61,-5.6777,-5.6359,8.0000,-134.79,36,600.0,156.0,-6.6608,-0.3873,6.6720,-93.33,0.00,-93.33,0.00,False,NONE,0.000,0,0,RECOVERING,False,False,True,0,True,STUCK_DETECTED,0.00,0
1764575421.1562066,66.243,161,TEST2_OBSTACLE_BYPASS,False,0.0,0.0,0.0,0.00,0.000,0.0,239.7,-346.9,61.47,66.71,61.47,141.64,86.60,0.0064,10.0,1.657,-0.9831,5.2486,5.3399,-10.61,-6.8932,-4.0600,8.0000,-120.50,38,650.0,156.0,-7.8763,1.1886,7.9655,-81.42,0.00,-81.42,0.00,False,NONE,0.000,0,0,RECOVERING,False,False,True,0,True,STUCK_DETECTED,0.00,0
1764575421.1921384,66.279,162,TEST2_OBSTACLE_BYPASS,False,0.0,0.0,0.0,0.00,0.000,0.0,239.7,-346.9,62.37,66.37,62.37,139.67,86.66,0.0096,10.0,1.784,-0.9831,5.2486,5.3399,-10.61,-6.8932,-4.0600,8.0000,-120.50,38,650.0,156.0,-7.8763,1.1886,7.9655,-81.42,0.00,-81.42,0.00,False,NONE,0.000,0,0,RECOVERING,False,False,True,0,True,STUCK_DETECTED,0.00,0
1764575421.2346041,66.321,163,TEST2_OBSTACLE_BYPASS,False,0.0,0.0,0.0,0.00,0.000,0.0,239.7,-346.9,63.11,65.07,63.11,136.42,86.64,0.0053,10.0,1.917,-0.9831,5.2486,5.3399,-10.61,-7.9339,-1.0262,8.0000,-97.37,36,650.0,156.0,-7.2303,3.4238,8.0000,-64.66,0.00,-64.66,0.00,False,NONE,0.000,0,0,RECOVERING,False,False,True,0,True,STUCK_DETECTED,0.00,0
1764575421.2744658,66.361,164,TEST2_OBSTACLE_BYPASS,False,0.0,0.0,0.0,0.00,0.000,0.0,239.7,-346.9,63.31,60.09,63.31,129.50,86.88,0.0426,10.0,2.047,-0.9831,5.2486,5.3399,-10.61,-7.9339,-1.0262,8.0000,-97.37,36,650.0,156.0,-7.2303,3.4238,8.0000,-64.66,0.00,-64.66,0.00,False,NONE,0.000,0,0,RECOVERING,False,False,True,0,True,STUCK_DETECTED,0.00,0
1764575421.311392,66.398,165,TEST2_OBSTACLE_BYPASS,False,0.0,0.0,0.0,0.00,0.000,0.0,239.7,-346.9,62.31,48.09,62.31,115.21,86.99,0.0692,10.0,2.165,-0.9831,5.2486,5.3399,-10.61,-7.2711,3.3363,8.0000,-65.35,42,300.0,156.0,-5.5447,5.7668,8.0000,-43.88,0.00,-43.88,0.00,False,NONE,0.000,0,0,RECOVERING,False,False,True,0,True,STUCK_DETECTED,0.00,0
1764575421.360532,66.447,166,TEST2_OBSTACLE_BYPASS,False,0.0,0.0,0.0,0.00,0.000,0.0,239.7,-346.9,61.41,49.55,61.41,113.95,86.81,-0.0192,10.0,2.277,-0.9831,5.2486,5.3399,-10.61,-6.9682,3.9299,8.0000,-60.58,44,700.0,160.0,-5.2382,6.0466,8.0000,-40.90,0.00,-40.90,0.00,False,NONE,0.000,0,0,RECOVERING,False,False,True,0,True,STUCK_DETECTED,0.00,0
