timestamp,elapsed_time,log_number,test_mode,person_detected,person_x_mm,person_y_mm,person_distance_mm,person_angle_deg,person_confidence,time_since_person_update_ms,robot_x_mm,robot_y_mm,robot_orientation_deg,imu_yaw_raw,imu_yaw_smoothed,imu_roll,imu_pitch,imu_angular_vel_z,imu_update_rate,imu_drift_estimate,attr_force_x,attr_force_y,attr_force_magnitude,attr_force_direction_deg,repul_force_x,repul_force_y,repul_force_magnitude,repul_force_direction_deg,num_obstacles_in_range,closest_obstacle_dist_mm,closest_obstacle_angle_deg,total_force_x,total_force_y,total_force_magnitude,total_force_direction_deg,expected_direction_to_person_deg,force_direction_deg,direction_error_deg,direction_mismatch_flag,commanded_direction,commanded_speed,motor_1_speed,motor_2_speed,nav_state,nav_state_changed,goal_reached,stuck_detected,time_in_current_state_s,anomaly_detected,anomaly_type,calculation_time_ms,obstacles_filtered_for_person
1764570627.9728513,37.656,1,TEST2_OBSTACLE_BYPASS,False,0.0,0.0,0.0,0.00,0.000,0.0,0.0,0.0,-178.57,-178.57,-178.57,155.64,87.92,-0.0053,10.0,0.000,-0.1882,1.2661,1.2800,-8.45,0.4794,-3.9712,4.0000,173.12,0,800.0,358.0,0.2913,-2.7051,2.7207,173.85,0.00,173.85,0.00,False,BACKWARDS,0.408,0,0,SEARCHING,True,False,False,0,False,,0.00,0
1764570628.0152545,37.699,2,TEST2_OBSTACLE_BYPASS,False,0.0,0.0,0.0,0.00,0.000,0.0,5.1,0.1,-178.57,-178.57,-178.57,155.64,87.92,0.0085,10.0,0.000,-0.1902,1.2652,1.2795,-8.55,0.0357,-3.9998,4.0000,179.49,0,800.0,358.0,-0.1546,-2.7346,2.7390,-176.76,0.00,-176.76,0.00,False,BACKWARDS,0.411,0,0,SEARCHING,False,False,False,0,False,,0.00,0
1764570628.057117,37.740,3,TEST2_OBSTACLE_BYPASS,True,-438.1,2931.6,2964.2,351.50,0.683,0.0,10.2,0.3,-178.57,-178.57,-178.57,155.64,87.92,-0.0032,10.0,0.000,-0.1934,1.2646,1.2793,-8.70,0.0357,-3.9998,4.0000,179.49,0,800.0,358.0,-0.1577,-2.7352,2.7398,-176.70,-8.50,-176.70,-168.20,True,BACKWARDS,0.411,0,0,NAVIGATING,True,False,False,0,True,FORCE_AWAY_FROM_PERSON|BACKWARD_TOWARD_FRONT_PERSON,0.00,0
1764570628.097019,37.780,4,TEST2_OBSTACLE_BYPASS,True,-438.1,2931.6,2964.2,351.50,0.683,0.0,14.9,0.4,-178.57,-178.57,-178.57,155.64,87.92,0.0021,10.0,0.000,-0.1953,1.2638,1.2788,-8.79,0.1346,-3.9977,4.0000,178.07,0,800.0,358.0,-0.0607,-2.7340,2.7346,-178.73,-8.50,-178.73,-170.23,True,BACKWARDS,0.410,0,0,NAVIGATING,False,False,False,0,True,FORCE_AWAY_FROM_PERSON|BACKWARD_TOWARD_FRONT_PERSON,0.00,0
1764570628.1376402,37.821,5,TEST2_OBSTACLE_BYPASS,True,-438.1,2931.6,2964.2,351.50,0.683,0.0,20.1,0.5,-178.57,-178.57,-178.57,155.64,87.92,0.0000,10.0,0.000,-0.1974,1.2629,1.2782,-8.88,0.1346,-3.9977,4.0000,178.07,0,800.0,358.0,-0.0628,-2.7349,2.7356,-178.68,-8.50,-178.68,-170.18,True,BACKWARDS,0.410,0,0,NAVIGATING,False,False,False,0,True,FORCE_AWAY_FROM_PERSON|BACKWARD_TOWARD_FRONT_PERSON,0.00,0
1764570628.1753461,37.859,6,TEST2_OBSTACLE_BYPASS,True,-438.1,2931.6,2964.2,351.50,0.683,0.0,24.8,0.6,-178.57,-178.57,-178.57,155.64,87.92,0.0011,10.0,0.000,-0.1993,1.2620,1.2777,-8.98,-0.0552,-3.9996,4.0000,-179.21,0,800.0,358.0,-0.2546,-2.7376,2.7494,-174.69,-8.50,-174.69,-166.19,True,BACKWARDS,0.412,0,0,NAVIGATING,False,False,False,0,True,FORCE_AWAY_FROM_PERSON|BACKWARD_TOWARD_FRONT_PERSON,0.00,0
1764570628.2189436,37.902,7,TEST2_OBSTACLE_BYPASS,True,-438.1,2931.6,2964.2,351.50,0.683,0.0,30.1,0.8,-178.57,-178.57,-178.57,155.64,87.92,-0.0064,10.0,0.000,-0.2015,1.2611,1.2771,-9.08,-0.0552,-3.9996,4.0000,-179.21,0,800.0,358.0,-0.2567,-2.7385,2.7505,-174.65,-8.50,-174.65,-166.15,True,BACKWARDS,0.413,0,0,NAVIGATING,False,False,False,0,True,FORCE_AWAY_FROM_PERSON|BACKWARD_TOWARD_FRONT_PERSON,0.00,0
1764570628.2558835,37.939,8,TEST2_OBSTACLE_BYPASS,True,-438.1,2931.6,2964.2,351.50,0.683,0.0,34.7,0.9,-178.56,-178.44,-178.56,155.78,87.95,0.0032,10.0,0.000,-0.2033,1.2603,1.2765,-9.16,0.6077,-3.9536,4.0000,171.26,0,800.0,358.0,0.4043,-2.6933,2.7235,171.46,-8.50,171.46,179.96,True,BACKWARDS,0.409,0,0,NAVIGATING,False,False,False,0,True,FORCE_AWAY_FROM_PERSON|BACKWARD_TOWARD_FRONT_PERSON,0.00,0
1764570628.299159,37.982,9,TEST2_OBSTACLE_BYPASS,True,-438.1,2931.6,2964.2,351.50,0.683,0.0,39.8,1.0,-178.54,-178.44,-178.54,155.78,87.95,0.0000,10.0,0.000,-0.2054,1.2593,1.2759,-9.26,0.6077,-3.9536,4.0000,171.26,0,800.0,358.0,0.4023,-2.6943,2.7241,171.51,-8.50,171.51,-179.99,True,BACKWARDS,0.409,0,0,NAVIGATING,False,False,False,0,True,FORCE_AWAY_FROM_PERSON|BACKWARD_TOWARD_FRONT_PERSON,0.00,0
1764570628.3355906,38.019,10,TEST2_OBSTACLE_BYPASS,True,-438.1,2931.6,2964.2,351.50,0.683,0.0,44.4,1.1,-178.53,-178.44,-178.53,155.78,87.95,-0.0085,10.0,0.000,-0.2072,1.2585,1.2754,-9.35,0.3876,-3.9812,4.0000,174.44,0,800.0,358.0,0.1804,-2.7227,2.7287,176.21,-8.50,176.21,-175.29,True,BACKWARDS,0.409,0,0,STUCK,True,False,True,0,True,FORCE_AWAY_FROM_PERSON|BACKWARD_TOWARD_FRONT_PERSON|STUCK_DETECTED,0.00,0
1764570628.3818057,38.065,11,TEST2_OBSTACLE_BYPASS,False,0.0,0.0,0.0,0.00,0.000,0.0,49.7,1.3,-178.51,-178.34,-178.51,155.91,88.00,-0.0160,10.0,0.000,-0.2093,1.2575,1.2748,-9.45,0.3876,-3.9812,4.0000,174.44,0,800.0,358.0,0.1783,-2.7237,2.7295,176.25,0.00,176.25,0.00,False,BACKWARDS,0.409,0,0,STUCK,False,False,True,0,True,STUCK_DETECTED,0.00,0
1764570628.4169672,38.100,12,TEST2_OBSTACLE_BYPASS,False,0.0,0.0,0.0,0.00,0.000,0.0,54.5,1.4,-178.47,-178.25,-178.47,155.96,87.92,0.0096,10.0,0.022,-0.2112,1.2566,1.2742,-9.54,0.1666,-3.9965,4.0000,177.61,0,800.0,358.0,-0.0446,-2.7399,2.7403,-179.07,0.00,-179.07,0.00,False,BACKWARDS,0.411,0,0,STUCK,False,False,True,0,True,STUCK_DETECTED,0.00,0
1764570628.4610085,38.144,13,TEST2_OBSTACLE_BYPASS,False,0.0,0.0,0.0,0.00,0.000,0.0,59.8,1.5,-178.55,-179.33,-178.55,154.99,88.11,-0.0160,10.0,0.022,-0.2134,1.2556,1.2736,-9.64,0.1666,-3.9965,4.0000,177.61,0,800.0,358.0,-0.0468,-2.7410,2.7414,-179.02,0.00,-179.02,0.00,False,BACKWARDS,0.411,0,0,STUCK,False,False,True,0,True,STUCK_DETECTED,0.00,0
1764570628.4997942,38.183,14,TEST2_OBSTACLE_BYPASS,False,0.0,0.0,0.0,0.00,0.000,0.0,64.5,1.6,-178.51,-178.16,-178.51,156.13,88.12,0.0415,10.0,0.025,-0.2153,1.2547,1.2730,-9.74,-0.1191,-3.9982,4.0000,-178.29,0,800.0,358.0,-0.3344,-2.7436,2.7639,-173.05,0.00,-173.05,0.00,False,BACKWARDS,0.415,0,0,STUCK,False,False,True,0,True,STUCK_DETECTED,0.00,0
1764570628.5372095,38.220,15,TEST2_OBSTACLE_BYPASS,False,0.0,0.0,0.0,0.00,0.000,0.0,69.5,1.8,-178.51,-178.62,-178.51,155.71,87.94,0.0383,10.0,0.027,-0.2172,1.2537,1.2724,-9.83,-0.1191,-3.9982,4.0000,-178.29,0,800.0,358.0,-0.3363,-2.7445,2.7651,-173.01,0.00,-173.01,0.00,False,BACKWARDS,0.415,0,0,STUCK,False,False,True,0,True,STUCK_DETECTED,0.00,0
1764570628.5754685,38.259,16,TEST2_OBSTACLE_BYPASS,False,0.0,0.0,0.0,0.00,0.000,0.0,74.3,1.9,-178.61,-179.48,-178.61,154.83,87.86,-0.0085,10.0,0.023,-0.2191,1.2528,1.2718,-9.92,-0.4484,-3.9748,4.0000,-173.56,0,800.0,358.0,-0.6675,-2.7220,2.8027,-166.22,0.00,-166.22,0.00,False,BACKWARDS,0.420,0,0,STUCK,False,False,True,0,True,STUCK_DETECTED,0.00,0
1764570628.6180472,38.301,17,TEST2_OBSTACLE_BYPASS,False,0.0,0.0,0.0,0.00,0.000,0.0,78.5,5.1,-142.77,179.79,-142.77,154.01,87.98,-0.0234,10.0,2.259,-0.2215,1.2545,1.2739,-10.01,-0.4484,-3.9748,4.0000,-173.56,0,800.0,358.0,-0.6699,-2.7203,2.8016,-166.17,0.00,-166.17,0.00,False,BACKWARDS,0.420,0,0,STUCK,False,False,True,0,True,STUCK_DETECTED,0.00,0
1764570628.6602418,38.344,18,TEST2_OBSTACLE_BYPASS,False,0.0,0.0,0.0,0.00,0.000,0.0,82.7,8.3,-142.84,-179.11,-142.84,154.97,87.98,-0.0213,10.0,4.228,-0.2238,1.2561,1.2759,-10.10,-0.1528,-3.9971,4.0000,-177.81,0,800.0,358.0,-0.3765,-2.7410,2.7667,-172.18,0.00,-172.18,0.00,False,BACKWARDS,0.415,0,0,STUCK,False,False,True,0,True,STUCK_DETECTED,0.00,0
1764570628.6975322,38.381,19,TEST2_OBSTACLE_BYPASS,False,0.0,0.0,0.0,0.00,0.000,0.0,86.5,11.1,-142.82,-178.30,-142.82,155.84,87.97,0.0032,10.0,5.979,-0.2259,1.2576,1.2778,-10.18,-0.1528,-3.9971,4.0000,-177.81,0,800.0,358.0,-0.3787,-2.7394,2.7655,-172.13,0.00,-172.13,0.00,False,BACKWARDS,0.415,0,0,STUCK,False,False,True,0,True,STUCK_DETECTED,0.00,0
1764570628.7432425,38.427,20,TEST2_OBSTACLE_BYPASS,False,0.0,0.0,0.0,0.00,0.000,0.0,90.6,14.3,-142.83,-178.46,-142.83,155.64,87.85,0.0138,10.0,7.545,-0.2282,1.2593,1.2798,-10.27,0.7046,-3.9375,4.0000,169.85,0,800.0,358.0,0.4764,-2.6782,2.7202,169.91,0.00,169.91,0.00,False,BACKWARDS,0.408,0,0,STUCK,False,False,True,0,True,STUCK_DETECTED,0.00,0
1764570628.779938,38.463,21,TEST2_OBSTACLE_BYPASS,False,0.0,0.0,0.0,0.00,0.000,0.0,94.3,17.1,-142.91,-179.20,-142.91,154.94,88.06,0.0117,10.0,8.951,-0.2303,1.2607,1.2816,-10.35,0.7046,-3.9375,4.0000,169.85,0,800.0,358.0,0.4743,-2.6767,2.7184,169.95,0.00,169.95,0.00,False,BACKWARDS,0.408,0,0,STUCK,False,False,True,0,True,STUCK_DETECTED,0.00,0
1764570628.8214402,38.505,22,TEST2_OBSTACLE_BYPASS,False,0.0,0.0,0.0,0.00,0.000,0.0,98.4,20.1,-143.07,-179.83,-143.07,154.24,88.02,-0.0149,10.0,10.215,-0.2326,1.2623,1.2836,-10.44,0.6065,-3.9538,4.0000,171.28,0,800.0,25.0,0.3739,-2.6914,2.7173,172.09,0.00,172.09,0.00,False,BACKWARDS,0.408,0,0,STUCK,False,False,True,0,True,STUCK_DETECTED,0.00,0
1764570628.866483,38.550,23,TEST2_OBSTACLE_BYPASS,True,-433.5,2933.2,2965.1,351.59,0.709,0.0,102.7,23.4,-143.06,-179.27,-143.06,154.87,88.03,-0.0181,10.0,11.365,-0.2329,1.2637,1.2850,-10.44,0.2831,-3.9900,4.0000,175.94,0,800.0,25.0,0.0503,-2.7262,2.7267,178.94,-8.41,178.94,-172.65,True,BACKWARDS,0.409,0,0,STUCK,False,False,True,0,True,FORCE_AWAY_FROM_PERSON|BACKWARD_TOWARD_FRONT_PERSON|STUCK_DETECTED,0.00,0
1764570628.9058697,38.589,24,TEST2_OBSTACLE_BYPASS,True,-433.5,2933.2,2965.1,351.59,0.709,0.0,106.8,26.4,-143.11,-178.65,-143.11,155.48,88.03,-0.0011,10.0,12.412,-0.2352,1.2653,1.2870,-10.53,0.2831,-3.9900,4.0000,175.94,0,800.0,25.0,0.0479,-2.7247,2.7251,178.99,-8.41,178.99,-172.60,True,BACKWARDS,0.409,0,0,STUCK,False,False,True,0,True,FORCE_AWAY_FROM_PERSON|BACKWARD_TOWARD_FRONT_PERSON|STUCK_DETECTED,0.00,0
1764570628.9444053,38.628,25,TEST2_OBSTACLE_BYPASS,True,-433.5,2933.2,2965.1,351.59,0.709,0.0,110.5,29.2,-143.16,-179.05,-143.16,155.10,88.01,-0.0138,10.0,13.371,-0.2373,1.2667,1.2888,-10.61,0.6861,-3.9407,4.0000,170.12,0,800.0,26.0,0.4488,-2.6740,2.7114,170.47,-8.41,170.47,178.88,True,BACKWARDS,0.407,0,0,STUCK,False,False,True,0,True,FORCE_AWAY_FROM_PERSON|BACKWARD_TOWARD_FRONT_PERSON|STUCK_DETECTED,0.00,0
1764570628.9904318,38.674,26,TEST2_OBSTACLE_BYPASS,True,-433.5,2933.2,2965.1,351.59,0.709,0.0,115.0,32.6,-143.12,-179.14,-143.12,155.10,88.16,-0.0075,10.0,14.254,-0.2398,1.2685,1.2909,-10.71,0.6861,-3.9407,4.0000,170.12,0,800.0,26.0,0.4463,-2.6722,2.7093,170.52,-8.41,170.52,178.93,True,BACKWARDS,0.406,0,0,STUCK,False,False,True,0,True,FORCE_AWAY_FROM_PERSON|BACKWARD_TOWARD_FRONT_PERSON|STUCK_DETECTED,0.00,0
1764570629.0232522,38.707,27,TEST2_OBSTACLE_BYPASS,True,-433.5,2933.2,2965.1,351.59,0.709,0.0,119.3,32.6,-178.99,-178.84,-178.99,155.43,88.17,-0.0096,10.0,13.689,-0.2415,1.2675,1.2903,-10.79,1.0270,-3.8659,4.0000,165.12,0,800.0,26.0,0.7855,-2.5984,2.7145,163.18,-8.41,163.18,171.59,True,BACKWARDS,0.407,0,0,STUCK,False,False,True,0,True,FORCE_AWAY_FROM_PERSON|BACKWARD_TOWARD_FRONT_PERSON|STUCK_DETECTED,0.00,0
1764570629.0686824,38.752,28,TEST2_OBSTACLE_BYPASS,True,-433.5,2933.2,2965.1,351.59,0.709,0.0,124.4,32.7,-178.97,-178.89,-178.97,155.41,88.08,0.0011,10.0,13.168,-0.2436,1.2663,1.2895,-10.89,1.0270,-3.8659,4.0000,165.12,0,800.0,26.0,0.7834,-2.5996,2.7151,163.23,-8.41,163.23,171.64,True,BACKWARDS,0.407,0,0,STUCK,False,False,True,0,True,FORCE_AWAY_FROM_PERSON|BACKWARD_TOWARD_FRONT_PERSON|STUCK_DETECTED,0.00,0
1764570629.1039464,38.787,29,TEST2_OBSTACLE_BYPASS,True,-433.5,2933.2,2965.1,351.59,0.709,0.0,129.0,32.8,-179.00,-178.65,-179.00,155.67,88.10,-0.0085,10.0,12.682,-0.2454,1.2653,1.2889,-10.97,0.8892,-3.8999,4.0000,167.16,0,800.0,26.0,0.6439,-2.6346,2.7122,166.27,-8.41,166.27,174.67,True,BACKWARDS,0.407,0,0,STUCK,False,False,True,0,True,FORCE_AWAY_FROM_PERSON|BACKWARD_TOWARD_FRONT_PERSON|STUCK_DETECTED,0.00,0
1764570629.1476996,38.831,30,TEST2_OBSTACLE_BYPASS,True,-433.5,2933.2,2965.1,351.59,0.709,0.0,134.1,32.9,-179.02,-178.62,-179.02,155.75,88.15,-0.0138,10.0,12.229,-0.2474,1.2641,1.2881,-11.07,0.8892,-3.8999,4.0000,167.16,0,800.0,26.0,0.6418,-2.6358,2.7128,166.31,-8.41,166.31,174.72,True,BACKWARDS,0.407,0,0,STUCK,False,False,True,0,True,FORCE_AWAY_FROM_PERSON|BACKWARD_TOWARD_FRONT_PERSON|STUCK_DETECTED,0.00,0
1764570629.1841922,38.867,31,TEST2_OBSTACLE_BYPASS,False,0.0,0.0,0.0,0.00,0.000,0.0,138.8,33.0,-178.97,-178.78,-178.97,155.59,88.10,0.0043,10.0,11.808,-0.2492,1.2630,1.2874,-11.16,0.7472,-3.9296,4.0000,169.23,0,800.0,26.0,0.4980,-2.6666,2.7127,169.42,0.00,169.42,0.00,False,BACKWARDS,0.407,0,0,STUCK,False,False,True,0,True,STUCK_DETECTED,0.00,0
1764570629.2262864,38.910,32,TEST2_OBSTACLE_BYPASS,False,0.0,0.0,0.0,0.00,0.000,0.0,143.8,33.1,-178.86,-178.68,-178.86,155.77,88.19,0.0181,10.0,11.418,-0.2512,1.2618,1.2866,-11.26,0.7472,-3.9296,4.0000,169.23,0,800.0,26.0,0.4960,-2.6678,2.7135,169.47,0.00,169.47,0.00,False,BACKWARDS,0.407,0,0,STUCK,False,False,True,0,True,STUCK_DETECTED,0.00,0
1764570629.2659092,38.949,33,TEST2_OBSTACLE_BYPASS,False,0.0,0.0,0.0,0.00,0.000,0.0,148.9,33.2,-178.79,-178.53,-178.79,155.90,88.03,-0.0085,10.0,11.054,-0.2532,1.2606,1.2858,-11.36,0.1499,-3.9972,4.0000,177.85,0,800.0,26.0,-0.1032,-2.7365,2.7385,-177.84,0.00,-177.84,0.00,False,BACKWARDS,0.411,0,0,STUCK,False,False,True,0,True,STUCK_DETECTED,0.00,0
1764570629.3070157,38.990,34,TEST2_OBSTACLE_BYPASS,False,0.0,0.0,0.0,0.00,0.000,0.0,153.6,33.3,-178.77,-178.52,-178.77,155.97,88.10,0.0064,10.0,10.713,-0.2550,1.2595,1.2851,-11.44,0.1499,-3.9972,4.0000,177.85,0,800.0,26.0,-0.1051,-2.7376,2.7397,-177.80,0.00,-177.80,0.00,False,BACKWARDS,0.411,0,0,STUCK,False,False,True,0,True,STUCK_DETECTED,0.00,0
1764570629.3636396,39.047,35,TEST2_OBSTACLE_BYPASS,False,0.0,0.0,0.0,0.00,0.000,0.0,160.2,33.4,-178.72,-178.56,-178.72,155.91,87.99,-0.0107,10.0,10.394,-0.2576,1.2580,1.2841,-11.57,0.4362,-3.9761,4.0000,173.74,0,800.0,26.0,0.1787,-2.7182,2.7240,176.24,0.00,176.24,0.00,False,BACKWARDS,0.409,0,0,STUCK,False,False,True,0,True,STUCK_DETECTED,0.00,0
1764570629.393757,39.077,36,TEST2_OBSTACLE_BYPASS,False,0.0,0.0,0.0,0.00,0.000,0.0,164.4,33.5,-178.64,-178.32,-178.64,156.21,88.07,-0.0149,10.0,10.095,-0.2592,1.2570,1.2834,-11.65,0.4362,-3.9761,4.0000,173.74,0,800.0,26.0,0.1771,-2.7192,2.7249,176.27,0.00,176.27,0.00,False,BACKWARDS,0.409,0,0,STUCK,False,False,True,0,True,STUCK_DETECTED,0.00,0
1764570629.4366436,39.120,37,TEST2_OBSTACLE_BYPASS,False,0.0,0.0,0.0,0.00,0.000,0.0,169.7,33.7,-178.61,-178.54,-178.61,156.02,88.07,0.0021,10.0,9.813,-0.2612,1.2557,1.2826,-11.75,0.9970,-3.8737,4.0000,165.57,0,800.0,26.0,0.7358,-2.6180,2.7195,164.30,0.00,164.30,0.00,False,BACKWARDS,0.408,0,0,STUCK,False,False,True,0,True,STUCK_DETECTED,0.00,0
1764570629.4789026,39.162,38,TEST2_OBSTACLE_BYPASS,False,0.0,0.0,0.0,0.00,0.000,0.0,174.8,33.8,-178.59,-178.70,-178.59,155.94,88.20,-0.0085,10.0,9.547,-0.2632,1.2545,1.2818,-11.85,0.9970,-3.8737,4.0000,165.57,0,800.0,26.0,0.7339,-2.6192,2.7201,164.35,0.00,164.35,0.00,False,BACKWARDS,0.408,0,0,STUCK,False,False,True,0,True,STUCK_DETECTED,0.00,0
1764570629.5215225,39.205,39,TEST2_OBSTACLE_BYPASS,False,0.0,0.0,0.0,0.00,0.000,0.0,180.0,33.9,-178.59,-178.64,-178.59,156.00,88.07,-0.0021,10.0,9.296,-0.2652,1.2532,1.2810,-11.95,1.0331,-3.8643,4.0000,165.03,0,800.0,51.0,0.7679,-2.6110,2.7216,163.61,0.00,163.61,0.00,False,BACKWARDS,0.408,0,0,STUCK,False,False,True,0,True,STUCK_DETECTED,0.00,0
1764570629.5561957,39.239,40,TEST2_OBSTACLE_BYPASS,False,0.0,0.0,0.0,0.00,0.000,0.0,184.6,34.0,-178.57,-178.42,-178.57,156.29,88.17,-0.0085,10.0,9.057,-0.2669,1.2521,1.2803,-12.03,1.0331,-3.8643,4.0000,165.03,0,800.0,51.0,0.7662,-2.6121,2.7222,163.65,0.00,163.65,0.00,False,BACKWARDS,0.408,0,0,STUCK,False,False,True,0,True,STUCK_DETECTED,0.00,0
1764570629.6015513,39.285,41,TEST2_OBSTACLE_BYPASS,False,0.0,0.0,0.0,0.00,0.000,0.0,189.8,34.2,-178.55,-178.56,-178.55,156.20,88.21,0.0011,10.0,8.831,-0.2689,1.2508,1.2794,-12.13,1.6138,-3.6600,4.0000,156.21,0,800.0,51.0,1.3448,-2.4092,2.7591,150.83,0.00,150.83,0.00,False,BACKWARDS_RIGHT,0.414,0,0,STUCK,False,False,True,0,True,STUCK_DETECTED,0.00,0
1764570629.6392431,39.323,42,TEST2_OBSTACLE_BYPASS,False,0.0,0.0,0.0,0.00,0.000,0.0,193.1,34.3,-178.57,-178.94,-178.57,155.88,88.25,-0.0032,10.0,8.616,-0.2702,1.2500,1.2789,-12.20,1.6138,-3.6600,4.0000,156.21,0,800.0,51.0,1.3436,-2.4100,2.7592,150.86,0.00,150.86,0.00,False,BACKWARDS_RIGHT,0.414,0,0,STUCK,False,False,True,0,True,STUCK_DETECTED,0.00,0
1764570629.6809814,39.364,43,TEST2_OBSTACLE_BYPASS,False,0.0,0.0,0.0,0.00,0.000,0.0,196.8,34.4,-178.58,-178.56,-178.58,156.20,88.00,0.0117,10.0,8.411,-0.2716,1.2491,1.2783,-12.27,1.8327,-3.5554,4.0000,152.73,0,800.0,90.0,1.5611,-2.3063,2.7850,145.91,0.00,145.91,0.00,False,BACKWARDS_RIGHT,0.418,0,0,STUCK,False,False,True,0,True,STUCK_DETECTED,0.00,0
1764570629.7197783,39.403,44,TEST2_OBSTACLE_BYPASS,False,0.0,0.0,0.0,0.00,0.000,0.0,200.3,34.4,-178.60,-178.76,-178.60,156.08,88.08,0.0032,10.0,8.214,-0.2729,1.2482,1.2777,-12.33,1.6669,-3.6361,4.0000,155.37,0,800.0,90.0,1.3940,-2.3879,2.7650,149.72,0.00,149.72,0.00,False,BACKWARDS_RIGHT,0.415,0,0,STUCK,False,False,True,0,True,STUCK_DETECTED,0.00,0
1764570629.763972,39.447,45,TEST2_OBSTACLE_BYPASS,False,0.0,0.0,0.0,0.00,0.000,0.0,204.0,34.5,-178.66,-179.17,-178.66,155.68,88.04,-0.0011,10.0,8.026,-0.2743,1.2473,1.2771,-12.40,1.6669,-3.6361,4.0000,155.37,0,800.0,90.0,1.3926,-2.3888,2.7651,149.76,0.00,149.76,0.00,False,BACKWARDS_RIGHT,0.415,0,0,STUCK,False,False,True,0,True,STUCK_DETECTED,0.00,0
1764570629.7993116,39.483,46,TEST2_OBSTACLE_BYPASS,False,0.0,0.0,0.0,0.00,0.000,0.0,207.3,34.6,-178.73,-178.97,-178.73,155.93,88.12,-0.0075,10.0,7.844,-0.2755,1.2465,1.2766,-12.47,1.2805,-3.7895,4.0000,161.33,0,800.0,90.0,1.0050,-2.5430,2.7344,158.44,0.00,158.44,0.00,False,BACKWARDS,0.410,0,0,STUCK,False,False,True,0,True,STUCK_DETECTED,0.00,0
1764570629.8445334,39.528,47,TEST2_OBSTACLE_BYPASS,False,0.0,0.0,0.0,0.00,0.000,0.0,212.6,34.7,-178.75,-178.81,-178.75,156.09,88.04,0.0075,10.0,7.669,-0.2776,1.2451,1.2757,-12.57,1.2805,-3.7895,4.0000,161.33,0,800.0,90.0,1.0029,-2.5444,2.7349,158.49,0.00,158.49,0.00,False,BACKWARDS,0.410,0,0,STUCK,False,False,True,0,True,STUCK_DETECTED,0.00,0
1764570629.8837411,39.567,48,TEST2_OBSTACLE_BYPASS,False,0.0,0.0,0.0,0.00,0.000,0.0,217.5,34.8,-178.78,-179.01,-178.78,155.95,88.06,0.0011,10.0,7.502,-0.2794,1.2439,1.2749,-12.66,1.2380,-3.8036,4.0000,161.97,0,800.0,90.0,0.9586,-2.5597,2.7333,159.47,0.00,159.47,0.00,False,BACKWARDS,0.410,0,0,STUCK,False,False,True,0,True,STUCK_DETECTED,0.00,0
1764570629.9254603,39.609,49,TEST2_OBSTACLE_BYPASS,False,0.0,0.0,0.0,0.00,0.000,0.0,222.3,34.9,-178.83,-179.09,-178.83,155.92,88.10,-0.0128,10.0,7.340,-0.2812,1.2426,1.2740,-12.75,1.2380,-3.8036,4.0000,161.97,0,800.0,90.0,0.9568,-2.5610,2.7339,159.51,0.00,159.51,0.00,False,BACKWARDS,0.410,0,0,STUCK,False,False,True,0,True,STUCK_DETECTED,0.00,0
1764570629.9654424,39.649,50,TEST2_OBSTACLE_BYPASS,False,0.0,0.0,0.0,0.00,0.000,0.0,227.4,35.0,-178.88,-178.96,-178.88,156.10,87.99,0.0138,10.0,7.184,-0.2831,1.2413,1.2731,-12.85,1.5645,-3.6814,4.0000,156.98,0,800.0,90.0,1.2814,-2.4401,2.7561,152.29,0.00,152.29,0.00,False,BACKWARDS_RIGHT,0.413,0,0,STUCK,False,False,True,0,True,STUCK_DETECTED,0.00,0
1764570630.0036118,39.687,51,TEST2_OBSTACLE_BYPASS,False,0.0,0.0,0.0,0.00,0.000,0.0,230.7,35.1,-178.96,-179.37,-178.96,155.73,87.97,0.0011,10.0,7.032,-0.2843,1.2404,1.2726,-12.91,1.5645,-3.6814,4.0000,156.98,0,800.0,90.0,1.2802,-2.4410,2.7563,152.32,0.00,152.32,0.00,False,BACKWARDS_RIGHT,0.413,0,0,STUCK,False,False,True,0,True,STUCK_DETECTED,0.00,0
1764570630.0467136,39.730,52,TEST2_OBSTACLE_BYPASS,False,0.0,0.0,0.0,0.00,0.000,0.0,234.7,35.1,-179.06,-179.90,-179.06,155.12,87.94,-0.0202,10.0,6.885,-0.2857,1.2393,1.2719,-12.98,1.8158,-3.5641,4.0000,153.00,0,800.0,90.0,1.5300,-2.3248,2.7831,146.65,0.00,146.65,0.00,False,BACKWARDS_RIGHT,0.417,0,0,STUCK,False,False,True,0,True,STUCK_DETECTED,0.00,0
1764570630.0856283,39.769,53,TEST2_OBSTACLE_BYPASS,False,0.0,0.0,0.0,0.00,0.000,0.0,237.9,35.2,-179.15,-179.43,-179.15,155.63,88.12,-0.0256,10.0,6.741,-0.2869,1.2385,1.2713,-13.04,1.8158,-3.5641,4.0000,153.00,0,800.0,90.0,1.5288,-2.3257,2.7832,146.68,0.00,146.68,0.00,False,BACKWARDS_RIGHT,0.417,0,0,STUCK,False,False,True,0,True,STUCK_DETECTED,0.00,0
1764570630.1296594,39.813,54,TEST2_OBSTACLE_BYPASS,False,0.0,0.0,0.0,0.00,0.000,0.0,241.6,35.2,-179.13,-178.60,-179.13,156.40,87.98,0.0064,10.0,6.603,-0.2883,1.2375,1.2706,-13.11,1.7012,-3.6202,4.0000,154.83,0,800.0,90.0,1.4130,-2.3827,2.7702,149.33,0.00,149.33,0.00,False,BACKWARDS_RIGHT,0.416,0,0,STUCK,False,False,True,0,True,STUCK_DETECTED,0.00,0
1764570630.1661212,39.849,55,TEST2_OBSTACLE_BYPASS,False,0.0,0.0,0.0,0.00,0.000,0.0,244.9,35.3,-179.10,-178.84,-179.10,156.13,87.96,-0.0043,10.0,6.471,-0.2895,1.2366,1.2700,-13.18,1.7323,-3.6055,4.0000,154.34,0,800.0,90.0,1.4428,-2.3689,2.7737,148.66,0.00,148.66,0.00,False,BACKWARDS_RIGHT,0.416,0,0,STUCK,False,False,True,0,True,STUCK_DETECTED,0.00,0
1764570630.2103212,39.894,56,TEST2_OBSTACLE_BYPASS,False,0.0,0.0,0.0,0.00,0.000,0.0,248.8,35.4,-179.17,-179.65,-179.17,155.36,88.24,-0.0352,10.0,6.343,-0.2909,1.2355,1.2693,-13.25,1.7055,-3.6182,4.0000,154.76,0,800.0,90.0,1.4146,-2.3827,2.7710,149.30,0.00,149.30,0.00,False,BACKWARDS_RIGHT,0.416,0,0,STUCK,False,False,True,0,True,STUCK_DETECTED,0.00,0
1764570630.2466552,39.930,57,TEST2_OBSTACLE_BYPASS,False,0.0,0.0,0.0,0.00,0.000,0.0,251.3,37.2,-143.32,179.68,-143.32,154.70,88.43,-0.0447,10.0,6.859,-0.2924,1.2363,1.2704,-13.30,1.7055,-3.6182,4.0000,154.76,0,800.0,90.0,1.4131,-2.3819,2.7696,149.32,0.00,149.32,0.00,False,BACKWARDS_RIGHT,0.415,0,0,STUCK,False,False,True,0,True,STUCK_DETECTED,0.00,0
1764570630.2895021,39.973,58,TEST2_OBSTACLE_BYPASS,False,0.0,0.0,0.0,0.00,0.000,0.0,254.4,39.5,-143.22,-178.06,-143.22,157.02,88.44,0.0479,10.0,7.359,-0.2941,1.2372,1.2717,-13.37,1.5650,-3.6811,4.0000,156.97,0,800.0,90.0,1.2709,-2.4440,2.7547,152.52,0.00,152.52,0.00,False,BACKWARDS_RIGHT,0.413,0,0,STUCK,False,False,True,0,True,STUCK_DETECTED,0.00,0
1764570630.332312,40.016,59,TEST2_OBSTACLE_BYPASS,True,-433.7,2996.6,3027.9,351.77,0.737,0.0,257.0,41.5,-143.17,-178.60,-143.17,156.47,88.19,0.0852,10.0,7.842,-0.2780,1.1895,1.2215,-13.16,1.5650,-3.6811,4.0000,156.97,0,800.0,90.0,1.2870,-2.4917,2.8044,152.68,-8.23,152.68,160.92,True,BACKWARDS_RIGHT,0.421,0,0,STUCK,False,False,True,0,True,FORCE_AWAY_FROM_PERSON|STUCK_DETECTED,0.00,0
1764570630.3706646,40.054,60,TEST2_OBSTACLE_BYPASS,True,-433.7,2996.6,3027.9,351.77,0.737,0.0,260.1,43.8,-143.24,-179.59,-143.24,155.36,87.71,0.0341,10.0,8.308,-0.2797,1.1903,1.2227,-13.22,1.6956,-3.6229,4.0000,154.92,0,800.0,90.0,1.4159,-2.4325,2.8146,149.80,-8.23,149.80,158.03,True,BACKWARDS_RIGHT,0.422,0,0,STUCK,False,False,True,0,True,FORCE_AWAY_FROM_PERSON|STUCK_DETECTED,0.00,0
1764570630.410448,40.094,61,TEST2_OBSTACLE_BYPASS,True,-433.7,2996.6,3027.9,351.77,0.737,0.0,261.1,47.0,-107.33,179.70,-107.33,154.58,87.74,0.0107,10.0,9.357,-0.2809,1.1924,1.2250,-13.25,1.6956,-3.6229,4.0000,154.92,0,800.0,90.0,1.4147,-2.4304,2.8122,149.80,-8.23,149.80,158.03,True,BACKWARDS_RIGHT,0.422,0,0,STUCK,False,False,True,0,True,FORCE_AWAY_FROM_PERSON|STUCK_DETECTED,0.00,0
1764570630.4523385,40.136,62,TEST2_OBSTACLE_BYPASS,True,-433.7,2996.6,3027.9,351.77,0.737,0.0,259.9,50.5,-71.52,178.16,-71.52,152.87,87.91,-0.0341,10.0,10.959,-0.2814,1.1954,1.2281,-13.25,1.5382,-3.6924,4.0000,157.38,0,800.0,90.0,1.2568,-2.4971,2.7955,153.28,-8.23,153.28,161.52,True,BACKWARDS_RIGHT,0.419,0,0,STUCK,False,False,True,0,True,FORCE_AWAY_FROM_PERSON|STUCK_DETECTED,0.00,0
1764570630.487389,40.171,63,TEST2_OBSTACLE_BYPASS,True,-433.7,2996.6,3027.9,351.77,0.737,0.0,257.2,52.5,-35.76,178.22,-35.76,152.80,88.09,-0.0618,10.0,13.085,-0.2810,1.1976,1.2301,-13.21,1.5382,-3.6924,4.0000,157.38,0,800.0,90.0,1.2572,-2.4949,2.7937,153.26,-8.23,153.26,161.49,True,BACKWARDS_RIGHT,0.419,0,0,STUCK,False,False,True,0,True,FORCE_AWAY_FROM_PERSON|STUCK_DETECTED,0.00,0
1764570630.5291717,40.212,64,TEST2_OBSTACLE_BYPASS,True,-433.7,2996.6,3027.9,351.77,0.737,0.0,254.3,54.5,-35.73,-178.31,-35.73,156.26,88.22,-0.0266,10.0,15.145,-0.2806,1.1999,1.2323,-13.16,1.6474,-3.6450,4.0000,155.68,0,800.0,90.0,1.3668,-2.4451,2.8012,150.79,-8.23,150.79,159.03,True,BACKWARDS_RIGHT,0.420,0,0,STUCK,False,False,True,0,True,FORCE_AWAY_FROM_PERSON|STUCK_DETECTED,0.00,0
1764570630.5677578,40.251,65,TEST2_OBSTACLE_BYPASS,True,-433.7,2996.6,3027.9,351.77,0.737,0.0,251.5,56.5,-35.53,-176.84,-35.53,157.78,88.13,0.0320,10.0,17.143,-0.2802,1.2022,1.2344,-13.12,1.6474,-3.6450,4.0000,155.68,0,800.0,90.0,1.3672,-2.4429,2.7994,150.77,-8.23,150.77,159.00,True,BACKWARDS_RIGHT,0.420,0,0,STUCK,False,False,True,0,True,FORCE_AWAY_FROM_PERSON|STUCK_DETECTED,0.00,0
1764570630.610846,40.294,66,TEST2_OBSTACLE_BYPASS,True,-433.7,2996.6,3027.9,351.77,0.737,0.0,248.5,58.7,-35.53,-179.67,-35.53,154.97,87.87,0.0501,10.0,19.080,-0.2797,1.2046,1.2367,-13.07,2.2220,-3.3261,4.0000,146.26,0,800.0,90.0,1.9423,-2.1215,2.8763,137.52,-8.23,137.52,145.76,True,BACKWARDS_RIGHT,0.431,0,0,STUCK,False,False,True,0,True,FORCE_AWAY_FROM_PERSON|STUCK_DETECTED,0.00,0
1764570630.6484442,40.332,67,TEST2_OBSTACLE_BYPASS,False,0.0,0.0,0.0,0.00,0.000,0.0,245.5,60.8,-35.68,178.14,-35.68,152.61,87.87,-0.0213,10.0,20.956,-0.2792,1.2070,1.2389,-13.03,2.2220,-3.3261,4.0000,146.26,0,800.0,90.0,1.9427,-2.1190,2.8748,137.49,0.00,137.49,0.00,False,BACKWARDS_RIGHT,0.431,0,0,STUCK,False,False,True,0,True,STUCK_DETECTED,0.00,0
1764570630.6904328,40.374,68,TEST2_OBSTACLE_BYPASS,False,0.0,0.0,0.0,0.00,0.000,0.0,242.0,60.8,-0.06,178.14,-0.06,152.42,87.99,-0.0352,10.0,23.307,-0.2780,1.2080,1.2396,-12.96,1.9176,-3.5104,4.0000,151.35,0,800.0,90.0,1.6395,-2.3024,2.8265,144.55,0.00,144.55,0.00,False,BACKWARDS_RIGHT,0.424,0,0,STUCK,False,False,True,0,True,STUCK_DETECTED,0.00,0
1764570630.7292917,40.413,69,TEST2_OBSTACLE_BYPASS,False,0.0,0.0,0.0,0.00,0.000,0.0,238.4,60.8,-0.20,-179.99,-0.20,154.40,88.07,-0.0160,10.0,25.588,-0.2767,1.2090,1.2403,-12.89,1.9176,-3.5104,4.0000,151.35,0,800.0,90.0,1.6408,-2.3014,2.8264,144.51,0.00,144.51,0.00,False,BACKWARDS_RIGHT,0.424,0,0,STUCK,False,False,True,0,True,STUCK_DETECTED,0.00,0
1764570630.7701313,40.453,70,TEST2_OBSTACLE_BYPASS,False,0.0,0.0,0.0,0.00,0.000,0.0,234.8,60.8,-0.15,-179.00,-0.15,155.48,88.05,-0.0032,10.0,27.803,-0.2755,1.2099,1.2409,-12.83,1.7454,-3.5991,4.0000,154.13,0,800.0,90.0,1.4699,-2.3892,2.8051,148.40,0.00,148.40,0.00,False,BACKWARDS_RIGHT,0.421,0,0,STUCK,False,False,True,0,True,STUCK_DETECTED,0.00,0
1764570630.8176796,40.501,71,TEST2_OBSTACLE_BYPASS,False,0.0,0.0,0.0,0.00,0.000,0.0,231.7,63.1,-36.06,-179.39,-36.06,155.08,87.94,0.0170,10.0,29.441,-0.2750,1.2125,1.2433,-12.78,1.7454,-3.5991,4.0000,154.13,0,800.0,90.0,1.4703,-2.3866,2.8032,148.36,0.00,148.36,0.00,False,BACKWARDS_RIGHT,0.420,0,0,STUCK,False,False,True,0,True,STUCK_DETECTED,0.00,0
1764570630.8494499,40.533,72,TEST2_OBSTACLE_BYPASS,False,0.0,0.0,0.0,0.00,0.000,0.0,229.1,65.0,-35.87,179.97,-35.87,154.61,88.14,0.0053,10.0,31.037,-0.2746,1.2146,1.2453,-12.74,1.2245,-3.8079,4.0000,162.17,0,800.0,90.0,0.9499,-2.5933,2.7618,159.88,0.00,159.88,0.00,False,BACKWARDS,0.414,0,0,STUCK,False,False,True,0,True,STUCK_DETECTED,0.00,0
1764570630.8927798,40.576,73,TEST2_OBSTACLE_BYPASS,True,-429.8,3040.2,3070.4,351.95,0.887,0.0,224.9,68.0,-35.74,179.53,-35.74,154.20,88.11,0.0107,10.0,32.589,-0.2613,1.1862,1.2146,-12.42,1.2245,-3.8079,4.0000,162.17,0,800.0,90.0,0.9632,-2.6218,2.7931,159.83,-8.05,159.83,167.87,True,BACKWARDS,0.419,0,0,STUCK,False,False,True,0,True,FORCE_AWAY_FROM_PERSON|BACKWARD_TOWARD_FRONT_PERSON|STUCK_DETECTED,0.00,0
1764570630.9305708,40.614,74,TEST2_OBSTACLE_BYPASS,True,-429.8,3040.2,3070.4,351.95,0.887,0.0,220.1,68.0,0.06,179.78,0.06,154.50,88.10,-0.0011,10.0,34.590,-0.2597,1.1874,1.2154,-12.34,0.7372,-3.9315,4.0000,169.38,0,800.0,90.0,0.4775,-2.7441,2.7853,170.13,-8.05,170.13,178.18,True,BACKWARDS,0.418,0,0,STUCK,False,False,True,0,True,FORCE_AWAY_FROM_PERSON|BACKWARD_TOWARD_FRONT_PERSON|STUCK_DETECTED,0.00,0
1764570630.976813,40.660,75,TEST2_OBSTACLE_BYPASS,True,-428.2,3058.8,3088.7,352.03,0.662,0.0,214.9,68.1,-0.25,-179.99,-0.25,154.75,87.96,-0.0011,10.0,36.532,-0.2527,1.1753,1.2021,-12.13,0.7372,-3.9315,4.0000,169.38,0,800.0,90.0,0.4845,-2.7562,2.7985,170.03,-7.97,170.03,178.00,True,BACKWARDS,0.420,0,0,STUCK,False,False,True,0,True,FORCE_AWAY_FROM_PERSON|BACKWARD_TOWARD_FRONT_PERSON|STUCK_DETECTED,0.00,0
1764570631.0127223,40.696,76,TEST2_OBSTACLE_BYPASS,True,-428.2,3058.8,3088.7,352.03,0.662,0.0,210.8,65.1,35.69,179.77,35.69,154.64,88.12,-0.0032,10.0,38.902,-0.2506,1.1741,1.2006,-12.05,1.1091,-3.8432,4.0000,163.90,0,800.0,90.0,0.8585,-2.6691,2.8037,162.17,-7.97,162.17,170.14,True,BACKWARDS,0.421,0,0,STUCK,False,False,True,0,True,FORCE_AWAY_FROM_PERSON|BACKWARD_TOWARD_FRONT_PERSON|STUCK_DETECTED,0.00,0
1764570631.0582795,40.742,77,TEST2_OBSTACLE_BYPASS,True,-437.9,3055.5,3086.7,351.84,0.798,0.0,206.3,61.9,35.84,179.63,35.84,154.52,87.98,0.0128,10.0,41.211,-0.2524,1.1729,1.1998,-12.14,0.6648,-3.9444,4.0000,170.43,0,800.0,90.0,0.4125,-2.7714,2.8019,171.53,-8.16,171.53,179.69,True,BACKWARDS,0.420,0,0,STUCK,False,False,True,0,True,FORCE_AWAY_FROM_PERSON|BACKWARD_TOWARD_FRONT_PERSON|STUCK_DETECTED,0.00,0
1764570631.093546,40.777,78,TEST2_OBSTACLE_BYPASS,True,-437.9,3055.5,3086.7,351.84,0.798,0.0,202.5,59.2,35.95,179.22,35.95,154.21,87.97,0.0043,10.0,43.462,-0.2505,1.1719,1.1983,-12.06,0.6648,-3.9444,4.0000,170.43,0,800.0,90.0,0.4144,-2.7725,2.8033,171.50,-8.16,171.50,179.65,True,BACKWARDS,0.420,0,0,STUCK,False,False,True,0,True,FORCE_AWAY_FROM_PERSON|BACKWARD_TOWARD_FRONT_PERSON|STUCK_DETECTED,0.00,0
1764570631.1370778,40.820,79,TEST2_OBSTACLE_BYPASS,True,-437.9,3055.5,3086.7,351.84,0.798,0.0,200.8,54.0,71.86,179.04,71.86,154.06,87.87,0.0011,10.0,46.115,-0.2486,1.1685,1.1946,-12.01,0.9522,-3.8850,4.0000,166.23,0,800.0,90.0,0.7035,-2.7165,2.8062,165.48,-8.16,165.48,173.64,True,BACKWARDS,0.421,0,0,STUCK,False,False,True,0,True,FORCE_AWAY_FROM_PERSON|BACKWARD_TOWARD_FRONT_PERSON|STUCK_DETECTED,0.00,0
1764570631.1736355,40.857,80,TEST2_OBSTACLE_BYPASS,True,-437.9,3055.5,3086.7,351.84,0.798,0.0,202.4,49.2,107.65,178.94,107.65,154.07,87.96,-0.0128,10.0,49.155,-0.2480,1.1647,1.1908,-12.02,0.9522,-3.8850,4.0000,166.23,0,800.0,90.0,0.7041,-2.7204,2.8100,165.49,-8.16,165.49,173.64,True,BACKWARDS,0.421,0,0,STUCK,False,False,True,0,True,FORCE_AWAY_FROM_PERSON|BACKWARD_TOWARD_FRONT_PERSON|STUCK_DETECTED,0.00,0
1764570631.2179353,40.901,81,TEST2_OBSTACLE_BYPASS,True,-437.9,3055.5,3086.7,351.84,0.798,0.0,206.6,46.1,143.58,179.87,143.58,154.99,88.11,-0.0160,10.0,52.567,-0.2487,1.1614,1.1877,-12.09,1.0257,-3.8663,4.0000,165.14,0,800.0,90.0,0.7769,-2.7049,2.8142,163.97,-8.16,163.97,172.13,True,BACKWARDS,0.422,0,0,STUCK,False,False,True,0,True,FORCE_AWAY_FROM_PERSON|BACKWARD_TOWARD_FRONT_PERSON|STUCK_DETECTED,0.00,0
1764570631.255647,40.939,82,TEST2_OBSTACLE_BYPASS,True,-437.9,3055.5,3086.7,351.84,0.798,0.0,210.4,43.2,143.49,179.11,143.49,154.29,88.26,0.0021,10.0,55.894,-0.2493,1.1584,1.1850,-12.15,1.0257,-3.8663,4.0000,165.14,0,800.0,90.0,0.7763,-2.7078,2.8169,164.00,-8.16,164.00,172.16,True,BACKWARDS,0.423,0,0,STUCK,False,False,True,0,True,FORCE_AWAY_FROM_PERSON|BACKWARD_TOWARD_FRONT_PERSON|STUCK_DETECTED,0.00,0
1764570631.301526,40.985,83,TEST2_OBSTACLE_BYPASS,True,-437.9,3055.5,3086.7,351.84,0.798,0.0,214.7,40.0,143.13,175.95,143.13,151.35,88.29,0.0234,10.0,59.136,-0.2500,1.1551,1.1819,-12.21,0.4959,-3.9691,4.0000,172.88,0,800.0,90.0,0.2459,-2.8140,2.8247,175.01,-8.16,175.01,-176.84,True,BACKWARDS,0.424,0,0,STUCK,False,False,True,0,True,FORCE_AWAY_FROM_PERSON|BACKWARD_TOWARD_FRONT_PERSON|STUCK_DETECTED,0.00,0
1764570631.335901,41.019,84,TEST2_OBSTACLE_BYPASS,True,-437.9,3055.5,3086.7,351.84,0.798,0.0,218.6,37.1,142.81,176.50,142.81,151.96,88.21,-0.0107,10.0,62.295,-0.2506,1.1521,1.1791,-12.27,0.5172,-3.9664,4.0000,172.57,0,800.0,90.0,0.2667,-2.8143,2.8269,174.59,-8.16,174.59,-177.26,True,BACKWARDS,0.424,0,0,STUCK,False,False,True,0,True,FORCE_AWAY_FROM_PERSON|BACKWARD_TOWARD_FRONT_PERSON|STUCK_DETECTED,0.00,0
1764570631.3773203,41.061,85,TEST2_OBSTACLE_BYPASS,False,0.0,0.0,0.0,0.00,0.000,0.0,222.8,33.9,142.87,-179.34,142.87,156.19,88.11,-0.0149,10.0,65.380,-0.2512,1.1488,1.1760,-12.33,0.5933,-3.9558,4.0000,171.47,0,800.0,90.0,0.3421,-2.8069,2.8277,173.05,0.00,173.05,0.00,False,BACKWARDS,0.424,0,0,STUCK,False,False,True,0,True,STUCK_DETECTED,0.00,0
1764570631.419719,41.103,86,TEST2_OBSTACLE_BYPASS,False,0.0,0.0,0.0,0.00,0.000,0.0,227.1,30.6,142.77,178.80,142.77,154.42,88.06,0.0330,10.0,68.392,-0.2518,1.1455,1.1728,-12.40,0.5933,-3.9558,4.0000,171.47,0,800.0,90.0,0.3415,-2.8103,2.8309,173.07,0.00,173.07,0.00,False,BACKWARDS,0.425,0,0,STUCK,False,False,True,0,True,STUCK_DETECTED,0.00,0
1764570631.455131,41.138,87,TEST2_OBSTACLE_BYPASS,False,0.0,0.0,0.0,0.00,0.000,0.0,230.8,27.8,142.39,175.80,142.39,151.59,88.21,0.0224,10.0,71.328,-0.2523,1.1427,1.1702,-12.45,0.7428,-3.9304,4.0000,169.30,0,800.0,90.0,0.4905,-2.7878,2.8306,170.02,0.00,170.02,0.00,False,BACKWARDS,0.425,0,0,STUCK,False,False,True,0,True,STUCK_DETECTED,0.00,0
1764570631.501041,41.184,88,TEST2_OBSTACLE_BYPASS,False,0.0,0.0,0.0,0.00,0.000,0.0,235.2,24.4,142.14,176.74,142.14,152.51,88.08,-0.0138,10.0,74.195,-0.2530,1.1392,1.1670,-12.52,0.7428,-3.9304,4.0000,169.30,0,800.0,90.0,0.4899,-2.7912,2.8339,170.05,0.00,170.05,0.00,False,BACKWARDS,0.425,0,0,STUCK,False,False,True,0,True,STUCK_DETECTED,0.00,0
1764570631.55207,41.235,89,TEST2_OBSTACLE_BYPASS,False,0.0,0.0,0.0,0.00,0.000,0.0,237.0,18.2,106.26,-179.74,106.26,156.21,88.04,-0.0053,10.0,76.588,-0.2521,1.1345,1.1622,-12.53,0.3603,-3.9837,4.0000,174.83,0,800.0,90.0,0.1082,-2.8492,2.8513,177.82,0.00,177.82,0.00,False,BACKWARDS,0.428,0,0,STUCK,False,False,True,0,True,STUCK_DETECTED,0.00,0
1764570631.592141,41.275,90,TEST2_OBSTACLE_BYPASS,False,0.0,0.0,0.0,0.00,0.000,0.0,238.5,13.0,106.32,179.49,106.32,155.55,88.04,0.0085,10.0,78.929,-0.2513,1.1305,1.1581,-12.53,0.3355,-3.9859,4.0000,175.19,0,800.0,90.0,0.0842,-2.8554,2.8567,178.31,0.00,178.31,0.00,False,BACKWARDS,0.429,0,0,STUCK,False,False,True,0,True,STUCK_DETECTED,0.00,0
1764570631.6295245,41.313,91,TEST2_OBSTACLE_BYPASS,False,0.0,0.0,0.0,0.00,0.000,0.0,239.8,8.4,106.12,177.86,106.12,154.02,88.14,-0.0170,10.0,81.215,-0.2506,1.1270,1.1545,-12.54,-0.0502,-3.9997,4.0000,-179.28,0,800.0,90.0,-0.3009,-2.8727,2.8884,-174.02,0.00,-174.02,0.00,False,BACKWARDS,0.433,0,0,STUCK,False,False,True,0,True,STUCK_DETECTED,0.00,0
1764570631.6781259,41.361,92,TEST2_OBSTACLE_BYPASS,False,0.0,0.0,0.0,0.00,0.000,0.0,241.4,2.9,105.99,177.88,105.99,154.12,88.12,0.0021,10.0,83.450,-0.2499,1.1229,1.1504,-12.55,-0.0502,-3.9997,4.0000,-179.28,0,800.0,90.0,-0.3001,-2.8768,2.8924,-174.05,0.00,-174.05,0.00,False,BACKWARDS,0.434,0,0,STUCK,False,False,True,0,True,STUCK_DETECTED,0.00,0
1764570631.710561,41.394,93,TEST2_OBSTACLE_BYPASS,False,0.0,0.0,0.0,0.00,0.000,0.0,242.7,-1.7,106.29,178.89,106.29,155.23,88.06,0.0011,10.0,85.639,-0.2492,1.1195,1.1469,-12.55,-0.0305,-3.9999,4.0000,-179.56,0,800.0,90.0,-0.2797,-2.8804,2.8940,-174.45,0.00,-174.45,0.00,False,BACKWARDS,0.434,0,0,STUCK,False,False,True,0,True,STUCK_DETECTED,0.00,0
1764570631.7557275,41.439,94,TEST2_OBSTACLE_BYPASS,False,0.0,0.0,0.0,0.00,0.000,0.0,244.3,-6.9,106.50,178.66,106.50,155.15,88.17,-0.0032,10.0,87.783,-0.2485,1.1155,1.1429,-12.56,-0.0305,-3.9999,4.0000,-179.56,0,800.0,90.0,-0.2789,-2.8844,2.8978,-174.48,0.00,-174.48,0.00,False,BACKWARDS,0.435,0,0,STUCK,False,False,True,0,True,STUCK_DETECTED,0.00,0
1764570631.7911618,41.474,95,TEST2_OBSTACLE_BYPASS,False,0.0,0.0,0.0,0.00,0.000,0.0,248.5,-10.2,142.26,178.26,142.26,154.79,88.03,-0.0128,10.0,90.263,-0.2490,1.1123,1.1399,-12.62,-0.1025,-3.9987,4.0000,-178.53,0,800.0,90.0,-0.3515,-2.8863,2.9077,-173.06,0.00,-173.06,0.00,False,BACKWARDS,0.436,0,0,STUCK,False,False,True,0,True,STUCK_DETECTED,0.00,0
1764570631.8369076,41.520,96,TEST2_OBSTACLE_BYPASS,False,0.0,0.0,0.0,0.00,0.000,0.0,253.0,-13.6,142.27,178.90,142.27,155.63,88.16,-0.0117,10.0,92.690,-0.2496,1.1090,1.1367,-12.69,0.0808,-3.9992,4.0000,178.84,0,800.0,90.0,-0.1688,-2.8902,2.8951,-176.66,0.00,-176.66,0.00,False,BACKWARDS,0.434,0,0,STUCK,False,False,True,0,True,STUCK_DETECTED,0.00,0
1764570631.8741448,41.557,97,TEST2_OBSTACLE_BYPASS,False,0.0,0.0,0.0,0.00,0.000,0.0,256.8,-16.6,142.57,178.80,142.57,155.57,88.03,0.0277,10.0,95.070,-0.2501,1.1061,1.1340,-12.74,0.0808,-3.9992,4.0000,178.84,0,800.0,90.0,-0.1693,-2.8931,2.8980,-176.65,0.00,-176.65,0.00,False,BACKWARDS,0.435,0,0,STUCK,False,False,True,0,True,STUCK_DETECTED,0.00,0
1764570631.916748,41.600,98,TEST2_OBSTACLE_BYPASS,False,0.0,0.0,0.0,0.00,0.000,0.0,261.2,-19.9,142.65,177.47,142.65,154.49,88.16,0.0107,10.0,97.401,-0.2507,1.1029,1.1310,-12.81,0.6101,-3.9532,4.0000,171.23,1,750.0,115.0,0.3594,-2.8503,2.8729,172.81,0.00,172.81,0.00,False,BACKWARDS,0.431,0,0,STUCK,False,False,True,0,True,STUCK_DETECTED,0.00,0
1764570631.9549327,41.638,99,TEST2_OBSTACLE_BYPASS,False,0.0,0.0,0.0,0.00,0.000,0.0,266.3,-20.1,178.40,177.74,178.40,154.88,88.20,-0.0266,10.0,100.050,-0.2522,1.1016,1.1301,-12.90,0.6101,-3.9532,4.0000,171.23,1,750.0,115.0,0.3579,-2.8516,2.8740,172.85,0.00,172.85,0.00,False,BACKWARDS,0.431,0,0,STUCK,False,False,True,0,True,STUCK_DETECTED,0.00,0
1764570631.9920201,41.675,100,TEST2_OBSTACLE_BYPASS,False,0.0,0.0,0.0,0.00,0.000,0.0,271.1,-20.2,178.30,178.48,178.30,155.74,88.28,-0.0096,10.0,102.644,-0.2537,1.1004,1.1292,-12.98,0.7754,-3.9241,4.0000,168.82,1,750.0,115.0,0.5217,-2.8238,2.8716,169.53,0.00,169.53,0.00,False,BACKWARDS,0.431,0,0,STUCK,False,False,True,0,True,STUCK_DETECTED,0.00,0
1764570632.0392983,41.723,101,TEST2_OBSTACLE_BYPASS,False,0.0,0.0,0.0,0.00,0.000,0.0,277.1,-20.4,178.33,178.25,178.33,155.59,88.14,0.0021,10.0,105.186,-0.2554,1.0988,1.1281,-13.09,0.7754,-3.9241,4.0000,168.82,1,750.0,115.0,0.5199,-2.8253,2.8727,169.57,0.00,169.57,0.00,False,BACKWARDS,0.431,0,0,STUCK,False,False,True,0,True,STUCK_DETECTED,0.00,0
1764570632.075851,41.759,102,TEST2_OBSTACLE_BYPASS,False,0.0,0.0,0.0,0.00,0.000,0.0,281.9,-20.5,178.31,177.63,178.31,155.09,88.10,0.0000,10.0,108.755,-0.2568,1.0976,1.1273,-13.17,0.7868,-3.9218,4.0000,168.66,1,750.0,115.0,0.5300,-2.8242,2.8735,169.37,0.00,169.37,0.00,False,BACKWARDS,0.431,0,0,STUCK,False,False,True,0,True,STUCK_DETECTED,0.00,0
1764570632.1209023,41.804,103,TEST2_OBSTACLE_BYPASS,False,0.0,0.0,0.0,0.00,0.000,0.0,287.6,-20.7,178.15,177.30,178.15,154.88,88.06,-0.0213,10.0,112.322,-0.2585,1.0961,1.1262,-13.27,0.7868,-3.9218,4.0000,168.66,1,750.0,115.0,0.5283,-2.8257,2.8747,169.41,0.00,169.41,0.00,False,BACKWARDS,0.431,0,0,STUCK,False,False,True,0,True,STUCK_DETECTED,0.00,0
1764570632.1559577,41.839,104,TEST2_OBSTACLE_BYPASS,False,0.0,0.0,0.0,0.00,0.000,0.0,292.2,-20.9,178.06,177.77,178.06,155.52,88.19,0.0043,10.0,115.889,-0.2598,1.0949,1.1253,-13.35,0.6970,-3.9388,4.0000,169.97,3,750.0,115.0,0.4371,-2.8439,2.8773,171.26,0.00,171.26,0.00,False,BACKWARDS,0.432,0,0,STUCK,False,False,True,0,True,STUCK_DETECTED,0.00,0
1764570632.1971734,41.880,105,TEST2_OBSTACLE_BYPASS,False,0.0,0.0,0.0,0.00,0.000,0.0,297.7,-21.1,178.00,177.68,178.00,155.50,88.12,-0.0064,10.0,119.454,-0.2614,1.0935,1.1243,-13.45,0.6970,-3.9388,4.0000,169.97,3,750.0,115.0,0.4355,-2.8453,2.8785,171.30,0.00,171.30,0.00,False,BACKWARDS,0.432,0,0,STUCK,False,False,True,0,True,STUCK_DETECTED,0.00,0
1764570632.2365503,41.920,106,TEST2_OBSTACLE_BYPASS,False,0.0,0.0,0.0,0.00,0.000,0.0,302.8,-21.2,177.89,177.75,177.89,155.72,88.11,-0.0032,10.0,123.019,-0.2629,1.0921,1.1233,-13.53,0.3709,-3.9828,4.0000,174.68,3,750.0,115.0,0.1080,-2.8906,2.8926,177.86,0.00,177.86,0.00,False,BACKWARDS,0.434,0,0,STUCK,False,False,True,0,True,STUCK_DETECTED,0.00,0
1764570632.2770617,41.960,107,TEST2_OBSTACLE_BYPASS,False,0.0,0.0,0.0,0.00,0.000,0.0,308.0,-21.4,177.77,177.61,177.77,155.76,88.22,0.0053,10.0,126.582,-0.2644,1.0907,1.1223,-13.63,0.3709,-3.9828,4.0000,174.68,3,750.0,115.0,0.1065,-2.8920,2.8940,177.89,0.00,177.89,0.00,False,BACKWARDS,0.434,0,0,STUCK,False,False,True,0,True,STUCK_DETECTED,0.00,0
1764570632.3171208,42.000,108,TEST2_OBSTACLE_BYPASS,False,0.0,0.0,0.0,0.00,0.000,0.0,313.2,-21.7,177.73,177.07,177.73,155.35,88.25,0.0032,10.0,130.145,-0.2659,1.0893,1.1213,-13.72,0.4893,-3.9700,4.0000,172.97,7,750.0,115.0,0.2234,-2.8806,2.8893,175.57,0.00,175.57,0.00,False,BACKWARDS,0.433,0,0,STUCK,False,False,True,0,True,STUCK_DETECTED,0.00,0
1764570632.3580496,42.041,109,TEST2_OBSTACLE_BYPASS,False,0.0,0.0,0.0,0.00,0.000,0.0,318.5,-21.9,177.67,177.19,177.67,155.52,88.07,0.0117,10.0,133.707,-0.2674,1.0879,1.1203,-13.81,0.4893,-3.9700,4.0000,172.97,7,750.0,115.0,0.2219,-2.8821,2.8906,175.60,0.00,175.60,0.00,False,BACKWARDS,0.434,0,0,STUCK,False,False,True,0,True,STUCK_DETECTED,0.00,0
1764570632.399294,42.083,110,TEST2_OBSTACLE_BYPASS,False,0.0,0.0,0.0,0.00,0.000,0.0,323.5,-22.1,177.58,177.53,177.58,155.97,88.13,-0.0053,10.0,137.268,-0.2688,1.0865,1.1193,-13.90,0.7537,-3.9283,4.0000,169.14,9,750.0,115.0,0.4849,-2.8418,2.8829,170.32,0.00,170.32,0.00,False,BACKWARDS,0.432,0,0,STUCK,False,False,True,0,True,STUCK_DETECTED,0.00,0
1764570632.43736,42.121,111,TEST2_OBSTACLE_BYPASS,False,0.0,0.0,0.0,0.00,0.000,0.0,329.0,-22.3,177.51,177.54,177.51,156.17,88.30,0.0043,10.0,140.829,-0.2703,1.0850,1.1182,-13.99,0.7537,-3.9283,4.0000,169.14,9,750.0,115.0,0.4834,-2.8433,2.8841,170.35,0.00,170.35,0.00,False,BACKWARDS,0.433,0,0,STUCK,False,False,True,0,True,STUCK_DETECTED,0.00,0
1764570632.4772103,42.160,112,TEST2_OBSTACLE_BYPASS,False,0.0,0.0,0.0,0.00,0.000,0.0,334.1,-22.5,177.49,177.49,177.49,156.15,88.16,0.0075,10.0,144.388,-0.2718,1.0836,1.1172,-14.08,1.3126,-3.7785,4.0000,160.84,10,750.0,115.0,1.0408,-2.6949,2.8889,158.88,0.00,158.88,0.00,False,BACKWARDS,0.433,0,0,STUCK,False,False,True,0,True,STUCK_DETECTED,0.00,0
1764570632.519167,42.202,113,TEST2_OBSTACLE_BYPASS,False,0.0,0.0,0.0,0.00,0.000,0.0,339.5,-22.8,177.46,176.98,177.46,155.74,88.11,0.0000,10.0,147.948,-0.2733,1.0821,1.1161,-14.17,1.3126,-3.7785,4.0000,160.84,10,750.0,115.0,1.0393,-2.6964,2.8898,158.92,0.00,158.92,0.00,False,BACKWARDS,0.433,0,0,STUCK,False,False,True,0,True,STUCK_DETECTED,0.00,0
1764570632.557472,42.241,114,TEST2_OBSTACLE_BYPASS,False,0.0,0.0,0.0,0.00,0.000,0.0,344.5,-23.0,177.36,176.71,177.36,155.59,88.14,-0.0053,10.0,151.507,-0.2746,1.0807,1.1151,-14.26,1.3677,-3.7589,4.0000,160.01,13,750.0,115.0,1.0931,-2.6782,2.8927,157.80,0.00,157.80,0.00,False,BACKWARDS,0.434,0,0,STUCK,False,False,True,0,True,STUCK_DETECTED,0.00,0
1764570632.5984402,42.282,115,TEST2_OBSTACLE_BYPASS,False,0.0,0.0,0.0,0.00,0.000,0.0,349.9,-23.3,177.26,176.75,177.26,155.76,88.14,0.0043,10.0,155.065,-0.2761,1.0792,1.1139,-14.35,1.3677,-3.7589,4.0000,160.01,13,750.0,115.0,1.0916,-2.6797,2.8935,157.84,0.00,157.84,0.00,False,BACKWARDS,0.434,0,0,STUCK,False,False,True,0,True,STUCK_DETECTED,0.00,0
1764570632.6383095,42.322,116,TEST2_OBSTACLE_BYPASS,False,0.0,0.0,0.0,0.00,0.000,0.0,354.9,-23.5,177.15,176.64,177.15,155.78,88.25,0.0085,10.0,158.622,-0.2775,1.0778,1.1129,-14.44,1.3468,-3.7665,4.0000,160.32,16,750.0,115.0,1.0693,-2.6887,2.8935,158.31,0.00,158.31,0.00,False,BACKWARDS,0.434,0,0,STUCK,False,False,True,0,True,STUCK_DETECTED,0.00,0
1764570632.6787686,42.362,117,TEST2_OBSTACLE_BYPASS,False,0.0,0.0,0.0,0.00,0.000,0.0,360.4,-23.8,177.04,176.52,177.04,155.78,88.13,0.0064,10.0,161.821,-0.2790,1.0762,1.1117,-14.53,1.3468,-3.7665,4.0000,160.32,16,750.0,115.0,1.0678,-2.6903,2.8944,158.35,0.00,158.35,0.00,False,BACKWARDS,0.434,0,0,STUCK,False,False,True,0,True,STUCK_DETECTED,0.00,0
1764570632.7187035,42.402,118,TEST2_OBSTACLE_BYPASS,False,0.0,0.0,0.0,0.00,0.000,0.0,365.4,-24.1,176.96,176.25,176.96,155.63,88.18,-0.0032,10.0,165.018,-0.2803,1.0747,1.1107,-14.62,1.2752,-3.7913,4.0000,161.41,21,750.0,115.0,0.9948,-2.7166,2.8930,159.89,0.00,159.89,0.00,False,BACKWARDS,0.434,0,0,STUCK,False,False,True,0,True,STUCK_DETECTED,0.00,0
1764570632.7601304,42.443,119,TEST2_OBSTACLE_BYPASS,False,0.0,0.0,0.0,0.00,0.000,0.0,370.6,-24.4,176.84,176.03,176.84,155.51,88.10,0.0064,10.0,168.215,-0.2817,1.0732,1.1096,-14.71,1.2752,-3.7913,4.0000,161.41,21,750.0,115.0,0.9934,-2.7181,2.8939,159.92,0.00,159.92,0.00,False,BACKWARDS,0.434,0,0,STUCK,False,False,True,0,True,STUCK_DETECTED,0.00,0
1764570632.803148,42.486,120,TEST2_OBSTACLE_BYPASS,False,0.0,0.0,0.0,0.00,0.000,0.0,376.2,-24.7,176.70,176.13,176.70,155.71,88.11,-0.0064,10.0,171.410,-0.2832,1.0716,1.1084,-14.80,1.1582,-3.8287,4.0000,163.17,22,750.0,115.0,0.8750,-2.7571,2.8926,162.39,0.00,162.39,0.00,False,BACKWARDS,0.434,0,0,STUCK,False,False,True,0,True,STUCK_DETECTED,0.00,0
1764570632.840363,42.524,121,TEST2_OBSTACLE_BYPASS,False,0.0,0.0,0.0,0.00,0.000,0.0,381.0,-25.0,176.58,176.26,176.58,155.92,88.05,0.0107,10.0,174.605,-0.2845,1.0702,1.1073,-14.89,1.1582,-3.8287,4.0000,163.17,22,750.0,115.0,0.8737,-2.7585,2.8936,162.43,0.00,162.43,0.00,False,BACKWARDS,0.434,0,0,STUCK,False,False,True,0,True,STUCK_DETECTED,0.00,0
1764570632.8827777,42.566,122,TEST2_OBSTACLE_BYPASS,True,-697.6,2994.9,3075.0,346.89,0.962,0.0,386.5,-25.3,176.40,175.70,176.40,155.48,88.11,0.0085,10.0,177.800,-0.3691,1.0284,1.0926,-19.75,1.1355,-3.8354,4.0000,163.51,24,750.0,115.0,0.7664,-2.8071,2.9098,164.73,-13.11,164.73,177.84,True,BACKWARDS,0.436,0,0,STUCK,False,False,True,0,True,FORCE_AWAY_FROM_PERSON|BACKWARD_TOWARD_FRONT_PERSON|STUCK_DETECTED,0.00,0
1764570632.9216993,42.605,123,TEST2_OBSTACLE_BYPASS,True,-697.6,2994.9,3075.0,346.89,0.962,0.0,391.5,-25.6,176.24,175.44,176.24,155.35,88.17,0.0075,10.0,180.993,-0.3701,1.0265,1.0912,-19.83,1.1355,-3.8354,4.0000,163.51,24,750.0,115.0,0.7654,-2.8089,2.9113,164.76,-13.11,164.76,177.87,True,BACKWARDS,0.437,0,0,STUCK,False,False,True,0,True,FORCE_AWAY_FROM_PERSON|BACKWARD_TOWARD_FRONT_PERSON|STUCK_DETECTED,0.00,0
1764570632.9588938,42.642,124,TEST2_OBSTACLE_BYPASS,True,-697.6,2994.9,3075.0,346.89,0.962,0.0,396.6,-26.0,176.12,175.48,176.12,155.45,88.18,-0.0085,10.0,184.185,-0.3712,1.0247,1.0898,-19.91,1.1164,-3.8410,4.0000,163.79,26,700.0,115.0,0.7453,-2.8164,2.9133,165.18,-13.11,165.18,178.29,True,BACKWARDS,0.437,0,0,STUCK,False,False,True,0,True,FORCE_AWAY_FROM_PERSON|BACKWARD_TOWARD_FRONT_PERSON|STUCK_DETECTED,0.00,0
1764570633.006786,42.690,125,TEST2_OBSTACLE_BYPASS,True,-697.6,2994.9,3075.0,346.89,0.962,0.0,402.4,-26.4,176.05,176.03,176.05,156.12,88.16,-0.0224,10.0,187.377,-0.3723,1.0225,1.0882,-20.01,1.1164,-3.8410,4.0000,163.79,26,700.0,115.0,0.7441,-2.8185,2.9151,165.21,-13.11,165.21,178.32,True,BACKWARDS,0.437,0,0,STUCK,False,False,True,0,True,FORCE_AWAY_FROM_PERSON|BACKWARD_TOWARD_FRONT_PERSON|STUCK_DETECTED,0.00,0
1764570633.0395393,42.723,126,TEST2_OBSTACLE_BYPASS,True,-697.6,2994.9,3075.0,346.89,0.962,0.0,407.3,-26.7,175.97,175.92,175.97,156.06,88.11,0.0053,10.0,190.568,-0.3733,1.0208,1.0869,-20.09,1.3027,-3.7819,4.0000,160.99,32,700.0,115.0,0.9294,-2.7612,2.9134,161.40,-13.11,161.40,174.51,True,BACKWARDS,0.437,0,0,STUCK,False,False,True,0,True,FORCE_AWAY_FROM_PERSON|BACKWARD_TOWARD_FRONT_PERSON|STUCK_DETECTED,0.00,0
1764570633.0832767,42.767,127,TEST2_OBSTACLE_BYPASS,True,-697.6,2994.9,3075.0,346.89,0.962,0.0,412.3,-27.1,175.88,175.56,175.88,155.83,88.10,0.0213,10.0,194.117,-0.3742,1.0189,1.0855,-20.17,1.3027,-3.7819,4.0000,160.99,32,700.0,115.0,0.9285,-2.7630,2.9148,161.43,-13.11,161.43,174.54,True,BACKWARDS,0.437,0,0,STUCK,False,False,True,0,True,FORCE_AWAY_FROM_PERSON|BACKWARD_TOWARD_FRONT_PERSON|STUCK_DETECTED,0.00,0
1764570633.12416,42.807,128,TEST2_OBSTACLE_BYPASS,True,-697.6,2994.9,3075.0,346.89,0.962,0.0,417.9,-27.5,175.77,175.15,175.77,155.54,88.18,0.0021,10.0,197.664,-0.3753,1.0169,1.0839,-20.26,1.3063,-3.7807,4.0000,160.94,36,700.0,115.0,0.9310,-2.7638,2.9164,161.38,-13.11,161.38,174.50,True,BACKWARDS,0.437,0,0,STUCK,False,False,True,0,True,FORCE_AWAY_FROM_PERSON|BACKWARD_TOWARD_FRONT_PERSON|STUCK_DETECTED,0.00,0
1764570633.1612191,42.844,129,TEST2_OBSTACLE_BYPASS,True,-697.6,2994.9,3075.0,346.89,0.962,0.0,422.9,-27.9,175.66,174.96,175.66,155.42,88.11,-0.0117,10.0,201.211,-0.3763,1.0150,1.0825,-20.34,1.3063,-3.7807,4.0000,160.94,36,700.0,115.0,0.9300,-2.7657,2.9178,161.41,-13.11,161.41,174.53,True,BACKWARDS,0.438,0,0,STUCK,False,False,True,0,True,FORCE_AWAY_FROM_PERSON|BACKWARD_TOWARD_FRONT_PERSON|STUCK_DETECTED,0.00,0
1764570633.2023902,42.886,130,TEST2_OBSTACLE_BYPASS,False,0.0,0.0,0.0,0.00,0.000,0.0,428.5,-28.3,175.57,175.27,175.57,155.84,88.07,-0.0096,10.0,204.757,-0.3773,1.0130,1.0809,-20.43,1.5189,-3.7004,4.0000,157.68,37,700.0,115.0,1.1416,-2.6874,2.9199,156.98,0.00,156.98,0.00,False,BACKWARDS_RIGHT,0.438,0,0,STUCK,False,False,True,0,True,STUCK_DETECTED,0.00,0
1764570633.2450826,42.928,131,TEST2_OBSTACLE_BYPASS,False,0.0,0.0,0.0,0.00,0.000,0.0,432.3,-28.6,175.46,175.14,175.46,155.83,88.11,0.0032,10.0,208.301,-0.3780,1.0115,1.0798,-20.49,1.4660,-3.7217,4.0000,158.50,39,700.0,115.0,1.0879,-2.7102,2.9204,158.13,0.00,158.13,0.00,False,BACKWARDS,0.438,0,0,STUCK,False,False,True,0,True,STUCK_DETECTED,0.00,0
1764570633.284148,42.967,132,TEST2_OBSTACLE_BYPASS,False,0.0,0.0,0.0,0.00,0.000,0.0,437.7,-29.1,175.38,174.84,175.38,155.73,88.20,0.0000,10.0,211.844,-0.3790,1.0095,1.0783,-20.58,1.4660,-3.7217,4.0000,158.50,39,700.0,115.0,1.0870,-2.7122,2.9219,158.16,0.00,158.16,0.00,False,BACKWARDS,0.438,0,0,STUCK,False,False,True,0,True,STUCK_DETECTED,0.00,0
1764570633.3240547,43.007,133,TEST2_OBSTACLE_BYPASS,False,0.0,0.0,0.0,0.00,0.000,0.0,442.7,-29.5,175.36,175.23,175.36,156.23,88.20,-0.0117,10.0,215.385,-0.3799,1.0076,1.0769,-20.66,1.5178,-3.7009,4.0000,157.70,40,700.0,115.0,1.1378,-2.6932,2.9237,157.10,0.00,157.10,0.00,False,BACKWARDS_RIGHT,0.439,0,0,STUCK,False,False,True,0,True,STUCK_DETECTED,0.00,0
1764570633.3667574,43.050,134,TEST2_OBSTACLE_BYPASS,False,0.0,0.0,0.0,0.00,0.000,0.0,446.8,-29.8,175.34,175.36,175.34,156.51,88.30,0.0096,10.0,218.926,-0.3807,1.0061,1.0757,-20.73,1.5178,-3.7009,4.0000,157.70,40,700.0,115.0,1.1371,-2.6948,2.9249,157.12,0.00,157.12,0.00,False,BACKWARDS_RIGHT,0.439,0,0,RECOVERING,True,False,True,0,True,STUCK_DETECTED,0.00,0
1764570633.4059355,43.089,135,TEST2_OBSTACLE_BYPASS,False,0.0,0.0,0.0,0.00,0.000,0.0,450.3,-30.1,175.28,175.34,175.28,156.59,88.25,0.0096,10.0,222.466,-0.3813,1.0048,1.0747,-20.78,1.2872,-3.7872,4.0000,161.23,40,700.0,115.0,0.9059,-2.7824,2.9262,161.97,0.00,161.97,0.00,False,BACKWARDS,0.439,0,0,RECOVERING,False,False,True,0,True,STUCK_DETECTED,0.00,0
1764570633.4471407,43.130,136,TEST2_OBSTACLE_BYPASS,False,0.0,0.0,0.0,0.00,0.000,0.0,455.7,-30.5,175.20,175.16,175.20,156.56,88.32,-0.0043,10.0,226.005,-0.3823,1.0027,1.0731,-20.87,1.2872,-3.7872,4.0000,161.23,40,700.0,115.0,0.9049,-2.7845,2.9278,162.00,0.00,162.00,0.00,False,BACKWARDS,0.439,0,0,RECOVERING,False,False,True,0,True,STUCK_DETECTED,0.00,0
1764570633.4887433,43.172,137,TEST2_OBSTACLE_BYPASS,False,0.0,0.0,0.0,0.00,0.000,0.0,460.8,-31.0,175.15,175.04,175.15,156.50,88.32,-0.0064,10.0,229.542,-0.3832,1.0008,1.0717,-20.95,1.2216,-3.8089,4.0000,162.22,40,700.0,115.0,0.8384,-2.8080,2.9306,163.38,0.00,163.38,0.00,False,BACKWARDS,0.440,0,0,RECOVERING,False,False,True,0,True,STUCK_DETECTED,0.00,0
1764570633.5272279,43.211,138,TEST2_OBSTACLE_BYPASS,False,0.0,0.0,0.0,0.00,0.000,0.0,466.3,-31.4,175.16,175.29,175.16,156.87,88.26,0.0192,10.0,233.080,-0.3841,0.9988,1.0701,-21.04,1.2216,-3.8089,4.0000,162.22,40,700.0,115.0,0.8375,-2.8101,2.9323,163.40,0.00,163.40,0.00,False,BACKWARDS,0.440,0,0,RECOVERING,False,False,True,0,True,STUCK_DETECTED,0.00,0
1764570633.5706975,43.254,139,TEST2_OBSTACLE_BYPASS,False,0.0,0.0,0.0,0.00,0.000,0.0,471.6,-31.9,175.16,174.97,175.16,156.64,88.16,0.0043,10.0,236.617,-0.3851,0.9968,1.0685,-21.12,1.1736,-3.8240,4.0000,162.94,40,700.0,115.0,0.7885,-2.8272,2.9351,164.42,0.00,164.42,0.00,False,BACKWARDS,0.440,0,0,RECOVERING,False,False,True,0,True,STUCK_DETECTED,0.00,0
1764570633.6064663,43.290,140,TEST2_OBSTACLE_BYPASS,False,0.0,0.0,0.0,0.00,0.000,0.0,476.5,-32.3,175.05,174.15,175.05,155.83,88.18,-0.0309,10.0,240.153,-0.3859,0.9949,1.0671,-21.20,1.1736,-3.8240,4.0000,162.94,40,700.0,115.0,0.7877,-2.8291,2.9367,164.44,0.00,164.44,0.00,False,BACKWARDS,0.441,0,0,RECOVERING,False,False,True,0,True,STUCK_DETECTED,0.00,0
1764570633.6456552,43.329,141,TEST2_OBSTACLE_BYPASS,False,0.0,0.0,0.0,0.00,0.000,0.0,481.9,-32.8,174.94,173.97,174.94,155.77,88.35,0.0064,10.0,243.688,-0.3868,0.9929,1.0655,-21.29,1.1619,-3.8275,4.0000,163.11,44,650.0,115.0,0.7751,-2.8347,2.9387,164.71,0.00,164.71,0.00,False,BACKWARDS,0.441,0,0,RECOVERING,False,False,True,0,True,STUCK_DETECTED,0.00,0
1764570633.6885982,43.372,142,TEST2_OBSTACLE_BYPASS,True,-729.9,3040.4,3126.8,346.50,0.921,0.0,487.2,-33.3,174.93,174.73,174.93,156.62,88.18,0.0522,10.0,247.223,-0.3790,0.9571,1.0294,-21.60,1.1619,-3.8275,4.0000,163.11,44,650.0,115.0,0.7829,-2.8704,2.9753,164.74,-13.50,164.74,178.24,True,BACKWARDS,0.446,0,0,RECOVERING,False,False,True,0,True,FORCE_AWAY_FROM_PERSON|BACKWARD_TOWARD_FRONT_PERSON|STUCK_DETECTED,0.00,0
1764570633.7308483,43.414,143,TEST2_OBSTACLE_BYPASS,True,-729.9,3040.4,3126.8,346.50,0.921,0.0,492.8,-33.8,174.89,174.86,174.89,156.82,88.03,0.0011,10.0,250.758,-0.3798,0.9551,1.0278,-21.69,1.5084,-3.7047,4.0000,157.85,48,650.0,115.0,1.1286,-2.7496,2.9722,157.68,-13.50,157.68,171.18,True,BACKWARDS,0.446,0,0,RECOVERING,False,False,True,0,True,FORCE_AWAY_FROM_PERSON|BACKWARD_TOWARD_FRONT_PERSON|STUCK_DETECTED,0.00,0
1764570633.7672307,43.451,144,TEST2_OBSTACLE_BYPASS,True,-729.9,3040.4,3126.8,346.50,0.921,0.0,497.8,-34.2,174.77,174.16,174.77,156.17,88.33,-0.0117,10.0,254.292,-0.3806,0.9532,1.0264,-21.77,1.5084,-3.7047,4.0000,157.85,48,650.0,115.0,1.1278,-2.7515,2.9736,157.71,-13.50,157.71,171.21,True,BACKWARDS,0.446,0,0,RECOVERING,False,False,True,0,True,FORCE_AWAY_FROM_PERSON|BACKWARD_TOWARD_FRONT_PERSON|STUCK_DETECTED,0.00,0
1764570633.80652,43.490,145,TEST2_OBSTACLE_BYPASS,True,-729.9,3040.4,3126.8,346.50,0.921,0.0,503.2,-34.7,174.54,173.09,174.54,155.01,88.31,-0.0437,10.0,257.824,-0.3814,0.9512,1.0248,-21.85,1.5717,-3.6783,4.0000,156.86,49,650.0,117.0,1.1903,-2.7271,2.9755,156.42,-13.50,156.42,169.92,True,BACKWARDS_RIGHT,0.446,0,0,RECOVERING,False,False,True,0,True,FORCE_AWAY_FROM_PERSON|STUCK_DETECTED,0.00,0
1764570633.857372,43.541,146,TEST2_OBSTACLE_BYPASS,True,-729.9,3040.4,3126.8,346.50,0.921,0.0,507.6,-35.2,174.40,173.75,174.40,155.88,88.62,0.0000,10.0,261.355,-0.3821,0.9496,1.0236,-21.92,1.5717,-3.6783,4.0000,156.86,49,650.0,117.0,1.1896,-2.7287,2.9767,156.44,-13.50,156.44,169.94,True,BACKWARDS_RIGHT,0.447,0,0,RECOVERING,False,False,True,0,True,FORCE_AWAY_FROM_PERSON|STUCK_DETECTED,0.00,0
1764570633.8864012,43.570,147,TEST2_OBSTACLE_BYPASS,True,-729.9,3040.4,3126.8,346.50,0.921,0.0,510.7,-35.5,174.35,174.54,174.35,156.69,88.43,0.0213,10.0,264.886,-0.3825,0.9485,1.0227,-21.96,1.5866,-3.6719,4.0000,156.63,52,650.0,117.0,1.2041,-2.7234,2.9777,156.15,-13.50,156.15,169.65,True,BACKWARDS_RIGHT,0.447,0,0,RECOVERING,False,False,True,0,True,FORCE_AWAY_FROM_PERSON|STUCK_DETECTED,0.00,0
1764570633.9304225,43.614,148,TEST2_OBSTACLE_BYPASS,True,-729.9,3040.4,3126.8,346.50,0.921,0.0,514.6,-35.9,174.30,174.78,174.30,157.04,88.19,0.0011,10.0,268.417,-0.3831,0.9470,1.0216,-22.03,1.5866,-3.6719,4.0000,156.63,52,650.0,117.0,1.2035,-2.7249,2.9788,156.17,-13.50,156.17,169.67,True,BACKWARDS_RIGHT,0.447,0,0,RECOVERING,False,False,True,0,True,FORCE_AWAY_FROM_PERSON|STUCK_DETECTED,0.00,0
1764570633.9723673,43.656,149,TEST2_OBSTACLE_BYPASS,True,-729.9,3040.4,3126.8,346.50,0.921,0.0,518.5,-36.3,174.19,173.87,174.19,156.28,88.44,0.0053,10.0,271.947,-0.3837,0.9456,1.0205,-22.08,1.5652,-3.6811,4.0000,156.97,53,650.0,117.0,1.1815,-2.7355,2.9797,156.64,-13.50,156.64,170.14,True,BACKWARDS_RIGHT,0.447,0,0,RECOVERING,False,False,True,0,True,FORCE_AWAY_FROM_PERSON|STUCK_DETECTED,0.00,0
1764570634.0079868,43.691,150,TEST2_OBSTACLE_BYPASS,False,0.0,0.0,0.0,0.00,0.000,0.0,521.9,-36.6,174.12,173.45,174.12,155.94,88.45,-0.0128,10.0,275.477,-0.3842,0.9443,1.0195,-22.14,1.5652,-3.6811,4.0000,156.97,53,650.0,117.0,1.1810,-2.7368,2.9807,156.66,0.00,156.66,0.00,False,BACKWARDS_RIGHT,0.447,0,0,RECOVERING,False,False,True,0,True,STUCK_DETECTED,0.00,0
1764570634.0486898,43.732,151,TEST2_OBSTACLE_BYPASS,False,0.0,0.0,0.0,0.00,0.000,0.0,525.9,-37.0,174.13,174.11,174.13,156.68,88.33,0.0075,10.0,279.008,-0.3847,0.9428,1.0183,-22.20,1.5267,-3.6972,4.0000,157.56,52,650.0,117.0,1.1420,-2.7543,2.9817,157.48,0.00,157.48,0.00,False,BACKWARDS_RIGHT,0.447,0,0,RECOVERING,False,False,True,0,True,STUCK_DETECTED,0.00,0
1764570634.0900064,43.773,152,TEST2_OBSTACLE_BYPASS,False,0.0,0.0,0.0,0.00,0.000,0.0,529.6,-37.4,174.11,174.49,174.11,157.22,88.41,0.0053,10.0,282.540,-0.3853,0.9415,1.0172,-22.25,1.5267,-3.6972,4.0000,157.56,52,650.0,117.0,1.1414,-2.7557,2.9828,157.50,0.00,157.50,0.00,False,BACKWARDS,0.447,0,0,RECOVERING,False,False,True,0,True,STUCK_DETECTED,0.00,0
1764570634.1327274,43.816,153,TEST2_OBSTACLE_BYPASS,False,0.0,0.0,0.0,0.00,0.000,0.0,535.2,-38.0,174.02,174.00,174.02,156.82,88.39,0.0138,10.0,286.071,-0.3860,0.9394,1.0156,-22.34,1.5004,-3.7079,4.0000,157.97,49,650.0,117.0,1.1144,-2.7686,2.9844,158.07,0.00,158.07,0.00,False,BACKWARDS,0.448,0,0,RECOVERING,False,False,True,0,True,STUCK_DETECTED,0.00,0
1764570634.1742644,43.858,154,TEST2_OBSTACLE_BYPASS,False,0.0,0.0,0.0,0.00,0.000,0.0,540.4,-38.5,173.95,173.43,173.95,156.35,88.21,0.0075,10.0,289.602,-0.3867,0.9374,1.0141,-22.42,1.5004,-3.7079,4.0000,157.97,49,650.0,117.0,1.1137,-2.7705,2.9859,158.10,0.00,158.10,0.00,False,BACKWARDS,0.448,0,0,RECOVERING,False,False,True,0,True,STUCK_DETECTED,0.00,0
1764570634.21242,43.896,155,TEST2_OBSTACLE_BYPASS,False,0.0,0.0,0.0,0.00,0.000,0.0,546.0,-39.1,173.95,173.07,173.95,156.05,88.15,-0.0032,10.0,293.133,-0.3875,0.9353,1.0124,-22.50,1.3710,-3.7577,4.0000,159.96,47,650.0,117.0,0.9835,-2.8224,2.9888,160.79,0.00,160.79,0.00,False,BACKWARDS,0.448,0,0,RECOVERING,False,False,True,0,True,STUCK_DETECTED,0.00,0
1764570634.25842,43.942,156,TEST2_OBSTACLE_BYPASS,False,0.0,0.0,0.0,0.00,0.000,0.0,551.9,-39.8,173.87,173.01,173.87,156.03,88.25,-0.0117,10.0,296.663,-0.3883,0.9332,1.0107,-22.59,1.3627,-3.7607,4.0000,160.08,45,650.0,117.0,0.9744,-2.8276,2.9907,160.99,0.00,160.99,0.00,False,BACKWARDS,0.449,0,0,RECOVERING,False,False,True,0,True,STUCK_DETECTED,0.00,0
1764570634.3008091,43.984,157,TEST2_OBSTACLE_BYPASS,False,0.0,0.0,0.0,0.00,0.000,0.0,557.7,-40.4,173.81,173.84,173.81,156.90,88.29,-0.0064,10.0,299.834,-0.3891,0.9310,1.0090,-22.68,1.3627,-3.7607,4.0000,160.08,45,650.0,117.0,0.9737,-2.8297,2.9925,161.01,0.00,161.01,0.00,False,BACKWARDS,0.449,0,0,RECOVERING,False,False,True,0,True,STUCK_DETECTED,0.00,0
1764570634.3481047,44.031,158,TEST2_OBSTACLE_BYPASS,False,0.0,0.0,0.0,0.00,0.000,0.0,563.1,-41.0,173.70,173.75,173.70,156.78,88.22,0.0117,10.0,303.004,-0.3898,0.9290,1.0074,-22.76,1.3627,-3.7607,4.0000,160.08,45,650.0,117.0,0.9729,-2.8317,2.9942,161.04,0.00,161.04,0.00,False,BACKWARDS,0.449,0,0,RECOVERING,False,False,True,0,True,STUCK_DETECTED,0.00,0
1764570634.3778768,44.061,159,TEST2_OBSTACLE_BYPASS,False,0.0,0.0,0.0,0.00,0.000,0.0,568.2,-41.6,173.60,172.86,173.60,155.90,88.28,0.0053,10.0,306.171,-0.3905,0.9271,1.0059,-22.84,1.4262,-3.7371,4.0000,159.11,46,650.0,117.0,1.0357,-2.8101,2.9949,159.77,0.00,159.77,0.00,False,BACKWARDS,0.449,0,0,RECOVERING,False,False,True,0,True,STUCK_DETECTED,0.00,0
1764570634.422398,44.106,160,TEST2_OBSTACLE_BYPASS,False,0.0,0.0,0.0,0.00,0.000,0.0,574.1,-42.2,173.50,172.44,173.50,155.37,88.15,-0.0202,10.0,309.339,-0.3912,0.9248,1.0042,-22.93,1.4577,-3.7249,4.0000,158.63,47,650.0,117.0,1.0665,-2.8001,2.9963,159.15,0.00,159.15,0.00,False,BACKWARDS,0.449,0,0,RECOVERING,False,False,True,0,True,STUCK_DETECTED,0.00,0
