timestamp,elapsed_time,log_number,test_mode,person_detected,person_x_mm,person_y_mm,person_distance_mm,person_angle_deg,person_confidence,time_since_person_update_ms,robot_x_mm,robot_y_mm,robot_orientation_deg,imu_yaw_raw,imu_yaw_smoothed,imu_roll,imu_pitch,imu_angular_vel_z,imu_update_rate,imu_drift_estimate,attr_force_x,attr_force_y,attr_force_magnitude,attr_force_direction_deg,repul_force_x,repul_force_y,repul_force_magnitude,repul_force_direction_deg,num_obstacles_in_range,closest_obstacle_dist_mm,closest_obstacle_angle_deg,total_force_x,total_force_y,total_force_magnitude,total_force_direction_deg,expected_direction_to_person_deg,force_direction_deg,direction_error_deg,direction_mismatch_flag,commanded_direction,commanded_speed,motor_1_speed,motor_2_speed,nav_state,nav_state_changed,goal_reached,stuck_detected,time_in_current_state_s,anomaly_detected,anomaly_type,calculation_time_ms,obstacles_filtered_for_person
1764560521.097258,36.936,1,TEST1_DIRECT_FORWARD,False,0.0,0.0,0.0,0.00,0.000,0.0,626.3,-241.5,145.47,145.47,145.47,168.24,87.40,0.0075,10.0,0.000,-0.4718,1.7666,1.8285,-14.95,0.0000,0.0000,0.0000,0.00,0,800.0,16.0,-0.4718,1.7666,1.8285,-14.95,0.00,-14.95,0.00,False,FORWARDS,0.549,0,0,SEARCHING,True,False,False,0,False,,0.00,0
1764560521.145327,36.984,2,TEST1_DIRECT_FORWARD,False,0.0,0.0,0.0,0.00,0.000,0.0,620.0,-237.1,145.47,145.47,145.47,168.24,87.40,-0.0096,10.0,0.000,-0.4701,1.7778,1.8389,-14.81,0.0000,0.0000,0.0000,0.00,0,800.0,16.0,-0.4701,1.7778,1.8389,-14.81,0.00,-14.81,0.00,False,FORWARDS,0.552,0,0,SEARCHING,False,False,False,0,False,,0.00,0
1764560521.1772935,37.016,3,TEST1_DIRECT_FORWARD,False,0.0,0.0,0.0,0.00,0.000,0.0,615.4,-233.9,145.47,145.47,145.47,168.24,87.40,0.0043,10.0,0.000,-0.4689,1.7859,1.8465,-14.71,0.0000,0.0000,0.0000,0.00,0,800.0,16.0,-0.4689,1.7859,1.8465,-14.71,0.00,-14.71,0.00,False,FORWARDS,0.554,0,0,SEARCHING,False,False,False,0,False,,0.00,0
1764560521.220183,37.059,4,TEST1_DIRECT_FORWARD,False,0.0,0.0,0.0,0.00,0.000,0.0,609.5,-229.9,145.47,145.47,145.47,168.24,87.40,0.0021,10.0,0.000,-0.4673,1.7963,1.8561,-14.58,0.0000,0.0000,0.0000,0.00,0,800.0,16.0,-0.4673,1.7963,1.8561,-14.58,0.00,-14.58,0.00,False,FORWARDS,0.557,0,0,SEARCHING,False,False,False,0,False,,0.00,0
1764560521.257476,37.096,5,TEST1_DIRECT_FORWARD,False,0.0,0.0,0.0,0.00,0.000,0.0,604.4,-226.4,145.47,145.47,145.47,168.24,87.40,0.0096,10.0,0.000,-0.4659,1.8055,1.8646,-14.47,0.0000,0.0000,0.0000,0.00,0,800.0,16.0,-0.4659,1.8055,1.8646,-14.47,0.00,-14.47,0.00,False,FORWARDS,0.559,0,0,SEARCHING,False,False,False,0,False,,0.00,0
1764560521.3023143,37.141,6,TEST1_DIRECT_FORWARD,True,86.4,1759.8,1761.9,2.81,0.999,0.0,598.5,-222.3,145.47,145.47,145.47,168.24,87.40,0.0032,10.0,0.000,-0.4700,1.8193,1.8790,-14.49,0.0000,0.0000,0.0000,0.00,0,800.0,16.0,-0.4700,1.8193,1.8790,-14.49,2.81,-14.49,-17.30,False,FORWARDS,0.564,0,0,NAVIGATING,True,False,False,0,False,,0.00,1
1764560521.340128,37.179,7,TEST1_DIRECT_FORWARD,True,86.4,1759.8,1761.9,2.81,0.999,0.0,593.2,-218.7,145.47,145.47,145.47,168.24,87.40,0.0032,10.0,0.000,-0.4685,1.8289,1.8879,-14.37,0.0000,0.0000,0.0000,0.00,0,800.0,16.0,-0.4685,1.8289,1.8879,-14.37,2.81,-14.37,-17.18,False,FORWARDS,0.566,0,0,NAVIGATING,False,False,False,0,False,,0.00,1
1764560521.384446,37.223,8,TEST1_DIRECT_FORWARD,True,92.2,1760.9,1763.3,3.00,0.998,0.0,586.9,-214.4,145.47,145.47,145.47,168.24,87.40,0.0096,10.0,0.000,-0.4614,1.8424,1.8993,-14.06,0.0000,0.0000,0.0000,0.00,0,800.0,16.0,-0.4614,1.8424,1.8993,-14.06,3.00,-14.06,-17.06,False,FORWARDS,0.570,0,0,NAVIGATING,False,False,False,0,False,,0.00,1
1764560521.4242816,37.263,9,TEST1_DIRECT_FORWARD,True,92.2,1760.9,1763.3,3.00,0.998,0.0,581.5,-210.6,145.47,145.47,145.47,168.24,87.40,-0.0053,10.0,0.000,-0.4597,1.8523,1.9085,-13.94,0.0000,0.0000,0.0000,0.00,0,800.0,16.0,-0.4597,1.8523,1.9085,-13.94,3.00,-13.94,-16.94,False,FORWARDS,0.573,0,0,NAVIGATING,False,False,False,0,False,,0.00,1
1764560521.4680166,37.307,10,TEST1_DIRECT_FORWARD,True,92.2,1760.9,1763.3,3.00,0.998,0.0,575.5,-206.5,145.47,145.47,145.47,168.24,87.40,-0.0032,10.0,0.000,-0.4577,1.8634,1.9188,-13.80,0.0000,0.0000,0.0000,0.00,0,800.0,16.0,-0.4577,1.8634,1.9188,-13.80,3.00,-13.80,-16.80,False,FORWARDS,0.576,0,0,STUCK,True,False,True,0,True,STUCK_DETECTED,0.00,1
1764560521.5070443,37.346,11,TEST1_DIRECT_FORWARD,True,92.2,1760.9,1763.3,3.00,0.998,0.0,569.8,-202.6,145.44,145.20,145.44,167.98,87.32,0.0170,10.0,0.000,-0.4558,1.8740,1.9286,-13.67,0.0000,0.0000,0.0000,0.00,0,800.0,16.0,-0.4558,1.8740,1.9286,-13.67,3.00,-13.67,-16.67,False,FORWARDS,0.579,0,0,STUCK,False,False,True,0,True,STUCK_DETECTED,0.00,1
1764560521.5453393,37.384,12,TEST1_DIRECT_FORWARD,True,92.2,1760.9,1763.3,3.00,0.998,0.0,564.4,-198.8,145.33,144.43,145.33,167.19,87.37,0.0277,10.0,-0.014,-0.4539,1.8842,1.9381,-13.55,0.0000,0.0000,0.0000,0.00,0,800.0,16.0,-0.4539,1.8842,1.9381,-13.55,3.00,-13.55,-16.54,False,FORWARDS,0.581,0,0,STUCK,False,False,True,0,True,STUCK_DETECTED,0.00,2
1764560521.5922503,37.431,13,TEST1_DIRECT_FORWARD,True,92.2,1760.9,1763.3,3.00,0.998,0.0,558.1,-194.5,145.36,145.73,145.36,168.55,87.27,-0.0021,10.0,-0.022,-0.4517,1.8959,1.9489,-13.40,0.0000,0.0000,0.0000,0.00,0,800.0,16.0,-0.4517,1.8959,1.9489,-13.40,3.00,-13.40,-16.40,False,FORWARDS,0.585,0,0,STUCK,False,False,True,0,True,STUCK_DETECTED,0.00,2
1764560521.6238775,37.463,14,TEST1_DIRECT_FORWARD,True,92.2,1760.9,1763.3,3.00,0.998,0.0,552.7,-190.8,145.64,148.28,145.64,171.17,86.95,-0.0245,10.0,-0.006,-0.4497,1.9061,1.9585,-13.27,0.0000,0.0000,0.0000,0.00,0,800.0,16.0,-0.4497,1.9061,1.9585,-13.27,3.00,-13.27,-16.27,False,FORWARDS,0.588,0,0,STUCK,False,False,True,0,True,STUCK_DETECTED,0.00,1
1764560521.6729352,37.512,15,TEST1_DIRECT_FORWARD,True,92.2,1760.9,1763.3,3.00,0.998,0.0,546.4,-186.6,145.93,148.36,145.93,171.32,86.95,0.0256,10.0,0.027,-0.4473,1.9179,1.9694,-13.13,0.0000,0.0000,0.0000,0.00,0,800.0,16.0,-0.4473,1.9179,1.9694,-13.13,3.00,-13.13,-16.13,False,FORWARDS,0.591,0,0,STUCK,False,False,True,0,True,STUCK_DETECTED,0.00,1
1764560521.7058716,37.545,16,TEST1_DIRECT_FORWARD,False,0.0,0.0,0.0,0.00,0.000,0.0,541.0,-182.9,145.97,145.81,145.97,168.76,87.26,0.0490,10.0,0.059,-0.4452,1.9280,1.9787,-13.00,0.0000,0.0000,0.0000,0.00,0,800.0,16.0,-0.4452,1.9280,1.9787,-13.00,0.00,-13.00,0.00,False,FORWARDS,0.594,0,0,STUCK,False,False,True,0,True,STUCK_DETECTED,0.00,0
1764560521.752304,37.591,17,TEST1_DIRECT_FORWARD,False,0.0,0.0,0.0,0.00,0.000,0.0,534.8,-178.7,145.71,142.92,145.71,165.81,87.54,-0.0032,10.0,0.071,-0.4427,1.9398,1.9897,-12.85,0.0000,0.0000,0.0000,0.00,0,800.0,16.0,-0.4427,1.9398,1.9897,-12.85,0.00,-12.85,0.00,False,FORWARDS,0.597,0,0,STUCK,False,False,True,0,True,STUCK_DETECTED,0.00,0
1764560521.7847984,37.624,18,TEST1_DIRECT_FORWARD,False,0.0,0.0,0.0,0.00,0.000,0.0,529.2,-174.8,145.63,144.67,145.63,167.60,87.40,-0.0330,10.0,0.077,-0.4403,1.9508,1.9999,-12.72,0.0000,0.0000,0.0000,0.00,0,800.0,16.0,-0.4403,1.9508,1.9999,-12.72,0.00,-12.72,0.00,False,FORWARDS,0.600,0,0,STUCK,False,False,True,0,True,STUCK_DETECTED,0.00,0
1764560521.8278766,37.667,19,TEST1_DIRECT_FORWARD,False,0.0,0.0,0.0,0.00,0.000,0.0,522.7,-170.4,145.79,146.99,145.79,169.95,87.21,0.0021,10.0,0.090,-0.4376,1.9632,2.0114,-12.56,0.0000,0.0000,0.0000,0.00,0,800.0,16.0,-0.4376,1.9632,2.0114,-12.56,0.00,-12.56,0.00,False,FORWARDS,0.603,0,0,STUCK,False,False,True,0,True,STUCK_DETECTED,0.00,0
1764560521.8667388,37.706,20,TEST1_DIRECT_FORWARD,False,0.0,0.0,0.0,0.00,0.000,0.0,517.1,-166.6,145.93,146.91,145.93,169.91,87.18,0.0213,10.0,0.110,-0.4351,1.9740,2.0214,-12.43,0.0000,0.0000,0.0000,0.00,0,800.0,16.0,-0.4351,1.9740,2.0214,-12.43,0.00,-12.43,0.00,False,FORWARDS,0.606,0,0,STUCK,False,False,True,0,True,STUCK_DETECTED,0.00,0
1764560521.912379,37.751,21,TEST1_DIRECT_FORWARD,False,0.0,0.0,0.0,0.00,0.000,0.0,510.8,-162.4,146.01,146.00,146.01,169.07,87.27,0.0245,10.0,0.132,-0.4322,1.9863,2.0328,-12.28,0.0000,0.0000,0.0000,0.00,0,800.0,16.0,-0.4322,1.9863,2.0328,-12.28,0.00,-12.28,0.00,False,FORWARDS,0.610,0,0,STUCK,False,False,True,0,True,STUCK_DETECTED,0.00,0
1764560521.9485133,37.787,22,TEST1_DIRECT_FORWARD,False,0.0,0.0,0.0,0.00,0.000,0.0,504.7,-158.3,146.14,145.71,146.14,168.84,87.37,0.0011,10.0,0.157,-0.4294,1.9981,2.0437,-12.13,0.0000,0.0000,0.0000,0.00,0,800.0,16.0,-0.4294,1.9981,2.0437,-12.13,0.00,-12.13,0.00,False,FORWARDS,0.613,0,0,STUCK,False,False,True,0,True,STUCK_DETECTED,0.00,0
1764560521.9896243,37.828,23,TEST1_DIRECT_FORWARD,False,0.0,0.0,0.0,0.00,0.000,0.0,498.9,-154.4,146.16,145.92,146.16,169.11,87.42,-0.0096,10.0,0.182,-0.4266,2.0093,2.0541,-11.99,0.0000,0.0000,0.0000,0.00,0,800.0,16.0,-0.4266,2.0093,2.0541,-11.99,0.00,-11.99,0.00,False,FORWARDS,0.616,0,0,STUCK,False,False,True,0,True,STUCK_DETECTED,0.00,0
1764560522.0306365,37.869,24,TEST1_DIRECT_FORWARD,True,91.8,1754.5,1756.9,2.99,0.998,0.0,492.3,-149.9,145.95,146.22,145.95,169.54,87.25,-0.0117,10.0,0.195,-0.4279,2.0348,2.0793,-11.88,0.0000,0.0000,0.0000,0.00,0,800.0,118.0,-0.4279,2.0348,2.0793,-11.88,2.99,-11.88,-14.87,False,FORWARDS,0.624,0,0,STUCK,False,False,True,0,True,STUCK_DETECTED,0.00,1
1764560522.0699983,37.909,25,TEST1_DIRECT_FORWARD,True,91.8,1754.5,1756.9,2.99,0.998,0.0,486.6,-146.1,145.76,146.44,145.76,169.80,87.24,-0.0053,10.0,0.199,-0.4251,2.0463,2.0900,-11.74,0.0000,0.0000,0.0000,0.00,0,800.0,118.0,-0.4251,2.0463,2.0900,-11.74,2.99,-11.74,-14.73,False,FORWARDS,0.627,0,0,STUCK,False,False,True,0,True,STUCK_DETECTED,0.00,1
1764560522.1106977,37.950,26,TEST1_DIRECT_FORWARD,True,91.8,1754.5,1756.9,2.99,0.998,0.0,479.9,-141.5,145.81,146.28,145.81,169.74,87.19,-0.0085,10.0,0.205,-0.4217,2.0598,2.1025,-11.57,0.0000,0.0000,0.0000,0.00,0,850.0,118.0,-0.4217,2.0598,2.1025,-11.57,2.99,-11.57,-14.56,False,FORWARDS,0.631,0,0,STUCK,False,False,True,0,True,STUCK_DETECTED,0.00,2
1764560522.1488788,37.988,27,TEST1_DIRECT_FORWARD,True,86.9,1743.3,1745.5,2.85,0.998,0.0,473.6,-137.3,146.17,146.53,146.17,170.07,87.28,-0.0085,10.0,0.224,-0.4303,2.0925,2.1363,-11.62,0.0000,0.0000,0.0000,0.00,0,850.0,118.0,-0.4303,2.0925,2.1363,-11.62,2.85,-11.62,-14.47,False,FORWARDS,0.641,0,0,STUCK,False,False,True,0,True,STUCK_DETECTED,0.00,2
1764560522.1936853,38.033,28,TEST1_DIRECT_FORWARD,True,86.9,1743.3,1745.5,2.85,0.998,0.0,466.8,-132.7,146.38,146.77,146.38,170.46,87.25,-0.0043,10.0,0.249,-0.4266,2.1066,2.1494,-11.45,0.0000,0.0000,0.0000,0.00,0,850.0,118.0,-0.4266,2.1066,2.1494,-11.45,2.85,-11.45,-14.30,False,FORWARDS,0.645,0,0,STUCK,False,False,True,0,True,STUCK_DETECTED,0.00,2
1764560522.2300863,38.069,29,TEST1_DIRECT_FORWARD,True,86.9,1743.3,1745.5,2.85,0.998,0.0,460.7,-128.7,146.38,146.99,146.38,170.75,87.27,-0.0107,10.0,0.273,-0.4231,2.1192,2.1611,-11.29,0.0000,0.0000,0.0000,0.00,0,800.0,118.0,-0.4231,2.1192,2.1611,-11.29,2.85,-11.29,-14.14,False,FORWARDS,0.648,0,0,STUCK,False,False,True,0,True,STUCK_DETECTED,0.00,2
1764560522.2740924,38.113,30,TEST1_DIRECT_FORWARD,True,86.9,1743.3,1745.5,2.85,0.998,0.0,453.7,-124.0,146.39,147.01,146.39,170.90,87.29,-0.0160,10.0,0.296,-0.4191,2.1337,2.1745,-11.11,0.0000,0.0000,0.0000,0.00,0,800.0,118.0,-0.4191,2.1337,2.1745,-11.11,2.85,-11.11,-13.97,False,FORWARDS,0.652,0,0,STUCK,False,False,True,0,True,STUCK_DETECTED,0.00,2
1764560522.3098433,38.149,31,TEST1_DIRECT_FORWARD,True,86.9,1743.3,1745.5,2.85,0.998,0.0,447.6,-120.0,146.49,147.02,146.49,171.03,87.26,0.0053,10.0,0.320,-0.4155,2.1464,2.1863,-10.96,0.0000,0.0000,0.0000,0.00,0,800.0,118.0,-0.4155,2.1464,2.1863,-10.96,2.85,-10.96,-13.81,False,FORWARDS,0.656,0,0,STUCK,False,False,True,0,True,STUCK_DETECTED,0.00,3
1764560522.3536763,38.193,32,TEST1_DIRECT_FORWARD,True,86.9,1743.3,1745.5,2.85,0.998,0.0,440.7,-115.5,146.61,146.86,146.61,170.95,87.39,-0.0107,10.0,0.346,-0.4113,2.1608,2.1996,-10.78,0.0000,0.0000,0.0000,0.00,0,800.0,118.0,-0.4113,2.1608,2.1996,-10.78,2.85,-10.78,-13.63,False,FORWARDS,0.660,0,0,STUCK,False,False,True,0,True,STUCK_DETECTED,0.00,3
1764560522.3922467,38.231,33,TEST1_DIRECT_FORWARD,True,86.9,1743.3,1745.5,2.85,0.998,0.0,434.3,-111.3,146.70,146.86,146.70,171.10,87.32,-0.0192,10.0,0.374,-0.4073,2.1741,2.2119,-10.61,0.0000,0.0000,0.0000,0.00,0,800.0,118.0,-0.4073,2.1741,2.2119,-10.61,2.85,-10.61,-13.46,False,FORWARDS,0.664,0,0,STUCK,False,False,True,0,True,STUCK_DETECTED,0.00,3
1764560522.43602,38.275,34,TEST1_DIRECT_FORWARD,True,86.9,1743.3,1745.5,2.85,0.998,0.0,427.1,-106.6,146.80,147.26,146.80,171.59,87.34,0.0075,10.0,0.403,-0.4027,2.1892,2.2259,-10.42,0.0000,0.0000,0.0000,0.00,0,800.0,118.0,-0.4027,2.1892,2.2259,-10.42,2.85,-10.42,-13.28,False,FORWARDS,0.668,0,0,STUCK,False,False,True,0,True,STUCK_DETECTED,0.00,3
1764560522.4714963,38.310,35,TEST1_DIRECT_FORWARD,False,0.0,0.0,0.0,0.00,0.000,0.0,421.0,-102.6,146.86,147.04,146.86,171.47,87.37,0.0064,10.0,0.433,-0.3986,2.2022,2.2379,-10.26,0.0000,0.0000,0.0000,0.00,0,800.0,118.0,-0.3986,2.2022,2.2379,-10.26,0.00,-10.26,0.00,False,FORWARDS,0.671,0,0,STUCK,False,False,True,0,True,STUCK_DETECTED,0.00,0
1764560522.513427,38.352,36,TEST1_DIRECT_FORWARD,False,0.0,0.0,0.0,0.00,0.000,0.0,413.6,-97.7,146.89,146.55,146.89,171.11,87.33,0.0107,10.0,0.461,-0.3936,2.2178,2.2524,-10.06,0.0000,0.0000,0.0000,0.00,0,800.0,118.0,-0.3936,2.2178,2.2524,-10.06,0.00,-10.06,0.00,False,FORWARDS,0.676,0,0,STUCK,False,False,True,0,True,STUCK_DETECTED,0.00,0
1764560522.55968,38.399,37,TEST1_DIRECT_FORWARD,False,0.0,0.0,0.0,0.00,0.000,0.0,405.9,-92.7,146.88,146.46,146.88,171.14,87.36,-0.0011,10.0,0.487,-0.3882,2.2342,2.2676,-9.86,0.0000,0.0000,0.0000,0.00,0,800.0,118.0,-0.3882,2.2342,2.2676,-9.86,0.00,-9.86,0.00,False,FORWARDS,0.680,0,0,STUCK,False,False,True,0,True,STUCK_DETECTED,0.00,0
1764560522.5976164,38.436,38,TEST1_DIRECT_FORWARD,False,0.0,0.0,0.0,0.00,0.000,0.0,399.2,-88.4,146.86,146.57,146.86,171.37,87.33,-0.0117,10.0,0.512,-0.3834,2.2484,2.2809,-9.68,0.0000,0.0000,0.0000,0.00,0,800.0,118.0,-0.3834,2.2484,2.2809,-9.68,0.00,-9.68,0.00,False,FORWARDS,0.684,0,0,STUCK,False,False,True,0,True,STUCK_DETECTED,0.00,0
1764560522.6416752,38.481,39,TEST1_DIRECT_FORWARD,True,55.8,1691.1,1692.0,1.89,0.999,0.0,392.1,-83.7,146.81,146.50,146.81,171.39,87.39,-0.0021,10.0,0.534,-0.4493,2.3712,2.4134,-10.73,0.0000,0.0000,0.0000,0.00,0,800.0,118.0,-0.4493,2.3712,2.4134,-10.73,1.89,-10.73,-12.62,False,FORWARDS,0.724,0,0,STUCK,False,False,True,0,True,STUCK_DETECTED,0.00,4
1764560522.6837132,38.523,40,TEST1_DIRECT_FORWARD,True,55.8,1691.1,1692.0,1.89,0.999,0.0,384.7,-78.9,146.73,146.23,146.73,171.24,87.29,-0.0107,10.0,0.553,-0.4440,2.3888,2.4297,-10.53,0.0000,0.0000,0.0000,0.00,0,800.0,118.0,-0.4440,2.3888,2.4297,-10.53,1.89,-10.53,-12.42,False,FORWARDS,0.729,0,0,STUCK,False,False,True,0,True,STUCK_DETECTED,0.00,4
1764560522.724472,38.563,41,TEST1_DIRECT_FORWARD,True,15.3,1645.9,1646.0,0.53,1.000,0.0,377.1,-73.9,146.63,145.95,146.63,171.07,87.33,0.0149,10.0,0.568,-0.5249,2.4951,2.5497,-11.88,0.0000,0.0000,0.0000,0.00,0,800.0,118.0,-0.5249,2.4951,2.5497,-11.88,0.53,-11.88,-12.41,False,FORWARDS,0.765,0,0,STUCK,False,False,True,0,True,STUCK_DETECTED,0.00,3
1764560522.7679408,38.607,42,TEST1_DIRECT_FORWARD,True,15.3,1645.9,1646.0,0.53,1.000,0.0,369.8,-69.0,146.53,145.91,146.53,171.09,87.37,0.0138,10.0,0.580,-0.5198,2.5147,2.5679,-11.68,0.0000,0.0000,0.0000,0.00,0,800.0,118.0,-0.5198,2.5147,2.5679,-11.68,0.53,-11.68,-12.21,False,FORWARDS,0.770,0,0,STUCK,False,False,True,0,True,STUCK_DETECTED,0.00,3
1764560522.802721,38.642,43,TEST1_DIRECT_FORWARD,True,7.1,1612.7,1612.7,0.25,1.000,0.0,361.7,-63.6,146.40,145.54,146.40,170.83,87.43,-0.0021,10.0,0.589,-0.5551,2.6245,2.6825,-11.94,0.0000,0.0000,0.0000,0.00,0,800.0,118.0,-0.5551,2.6245,2.6825,-11.94,0.25,-11.94,-12.20,False,FORWARDS,0.805,0,0,STUCK,False,False,True,0,True,STUCK_DETECTED,0.00,2
1764560522.8451629,38.684,44,TEST1_DIRECT_FORWARD,True,7.1,1612.7,1612.7,0.25,1.000,0.0,353.5,-58.1,146.22,145.42,146.22,170.83,87.29,0.0128,10.0,0.592,-0.5491,2.6484,2.7047,-11.71,0.0000,0.0000,0.0000,0.00,0,800.0,118.0,-0.5491,2.6484,2.7047,-11.71,0.25,-11.71,-11.96,False,FORWARDS,0.811,0,0,STUCK,False,False,True,0,True,STUCK_DETECTED,0.00,2
1764560522.8886602,38.727,45,TEST1_DIRECT_FORWARD,True,5.7,1595.8,1595.8,0.20,1.000,0.0,344.8,-52.3,146.01,144.98,146.01,170.48,87.31,0.0149,10.0,0.591,-0.5605,2.7245,2.7816,-11.63,0.0000,0.0000,0.0000,0.00,0,800.0,118.0,-0.5605,2.7245,2.7816,-11.63,0.20,-11.63,-11.83,False,FORWARDS,0.834,0,0,STUCK,False,False,True,0,True,STUCK_DETECTED,0.00,2
1764560522.9311993,38.770,46,TEST1_DIRECT_FORWARD,True,-25.6,1595.6,1595.8,359.08,1.000,0.0,335.9,-46.2,145.82,144.66,145.82,170.24,87.34,-0.0032,10.0,0.586,-0.5992,2.7211,2.7863,-12.42,0.0000,0.0000,0.0000,0.00,0,800.0,235.0,-0.5992,2.7211,2.7863,-12.42,-0.92,-12.42,-11.50,False,FORWARDS,0.836,0,0,STUCK,False,False,True,0,True,STUCK_DETECTED,0.00,3
1764560522.9771385,38.816,47,TEST1_DIRECT_FORWARD,True,-25.6,1595.6,1595.8,359.08,1.000,0.0,326.5,-39.8,145.63,144.56,145.63,170.23,87.39,-0.0043,10.0,0.577,-0.5923,2.7509,2.8140,-12.15,0.0000,0.0000,0.0000,0.00,0,800.0,235.0,-0.5923,2.7509,2.8140,-12.15,-0.92,-12.15,-11.23,False,FORWARDS,0.844,0,0,STUCK,False,False,True,0,True,STUCK_DETECTED,0.00,3
1764560523.0184472,38.857,48,TEST1_DIRECT_FORWARD,True,-25.6,1595.6,1595.8,359.08,1.000,0.0,318.0,-33.9,145.42,144.42,145.42,170.20,87.33,0.0096,10.0,0.564,-0.5858,2.7783,2.8394,-11.91,0.0000,0.0000,0.0000,0.00,0,800.0,235.0,-0.5858,2.7783,2.8394,-11.91,-0.92,-11.91,-10.99,False,FORWARDS,0.852,0,0,STUCK,False,False,True,0,True,STUCK_DETECTED,0.00,3
1764560523.0721526,38.911,49,TEST1_DIRECT_FORWARD,True,-25.6,1595.6,1595.8,359.08,1.000,0.0,308.3,-27.2,145.19,144.27,145.19,170.17,87.28,0.0107,10.0,0.546,-0.5782,2.8099,2.8687,-11.63,0.0000,0.0000,0.0000,0.00,0,800.0,235.0,-0.5782,2.8099,2.8687,-11.63,-0.92,-11.63,-10.71,False,FORWARDS,0.861,0,0,STUCK,False,False,True,0,True,STUCK_DETECTED,0.00,3
1764560523.1051075,38.944,50,TEST1_DIRECT_FORWARD,True,-25.6,1595.6,1595.8,359.08,1.000,0.0,299.5,-21.1,145.02,144.47,145.02,170.38,87.26,-0.0053,10.0,0.526,-0.5710,2.8390,2.8959,-11.37,0.0000,0.0000,0.0000,0.00,0,800.0,235.0,-0.5710,2.8390,2.8959,-11.37,-0.92,-11.37,-10.45,False,FORWARDS,0.869,0,0,NAVIGATING,True,False,False,0,False,,0.00,4
1764560523.1445444,38.983,51,TEST1_DIRECT_FORWARD,True,-57.0,1594.8,1595.8,357.95,1.000,0.0,291.3,-15.2,144.87,144.46,144.87,170.40,87.31,-0.0053,10.0,0.503,-0.6135,2.8365,2.9021,-12.20,0.0000,0.0000,0.0000,0.00,0,800.0,235.0,-0.6135,2.8365,2.9021,-12.20,-2.05,-12.20,-10.16,False,FORWARDS,0.871,0,0,NAVIGATING,False,False,False,0,False,,0.00,4
1764560523.184296,39.023,52,TEST1_DIRECT_FORWARD,True,-57.0,1594.8,1595.8,357.95,1.000,0.0,282.3,-8.9,144.78,145.01,144.78,170.97,87.34,-0.0245,10.0,0.480,-0.6066,2.8672,2.9306,-11.95,0.0000,0.0000,0.0000,0.00,0,800.0,235.0,-0.6066,2.8672,2.9306,-11.95,-2.05,-11.95,-9.90,False,FORWARDS,0.879,0,0,NAVIGATING,False,False,False,0,False,,0.00,4
1764560523.222594,39.061,53,TEST1_DIRECT_FORWARD,False,0.0,0.0,0.0,0.00,0.000,0.0,274.0,-3.1,144.81,145.85,144.81,171.88,87.34,-0.0202,10.0,0.458,-0.5998,2.8960,2.9575,-11.70,0.0000,0.0000,0.0000,0.00,0,800.0,235.0,-0.5998,2.8960,2.9575,-11.70,0.00,-11.70,0.00,False,FORWARDS,0.887,0,0,SEARCHING,True,False,False,0,False,,0.00,0
1764560523.2691717,39.108,54,TEST1_DIRECT_FORWARD,True,-75.0,1530.5,1532.3,357.19,1.000,0.0,264.2,3.8,144.95,146.81,144.95,172.90,87.37,0.0011,10.0,0.440,-0.6983,3.1433,3.2199,-12.53,0.0000,0.0000,0.0000,0.00,0,800.0,235.0,-0.6983,3.1433,3.2199,-12.53,-2.81,-12.53,-9.72,False,FORWARDS,0.966,0,0,NAVIGATING,True,False,False,0,False,,0.00,5
1764560523.3094716,39.148,55,TEST1_DIRECT_FORWARD,True,-75.0,1530.5,1532.3,357.19,1.000,0.0,255.1,10.1,145.13,146.78,145.13,172.88,87.39,0.0011,10.0,0.426,-0.6904,3.1793,3.2534,-12.25,0.0000,0.0000,0.0000,0.00,0,800.0,235.0,-0.6904,3.1793,3.2534,-12.25,-2.81,-12.25,-9.45,False,FORWARDS,0.976,0,0,NAVIGATING,False,False,False,0,False,,0.00,5
1764560523.3504295,39.189,56,TEST1_DIRECT_FORWARD,True,-104.7,1478.6,1482.3,355.95,1.000,0.0,245.0,17.1,145.25,145.88,145.25,171.93,87.47,0.0192,10.0,0.414,-0.8117,3.3916,3.4874,-13.46,0.0000,0.0000,0.0000,0.00,3,750.0,235.0,-0.8117,3.3916,3.4874,-13.46,-4.05,-13.46,-9.41,False,FORWARDS,1.000,0,0,NAVIGATING,False,False,False,0,False,,0.00,3
1764560523.3944843,39.233,57,TEST1_DIRECT_FORWARD,True,-104.7,1478.6,1482.3,355.95,1.000,0.0,235.4,23.8,145.29,144.94,145.29,170.92,87.46,0.0075,10.0,0.403,-0.7919,3.3875,3.4789,-13.16,0.0000,0.0000,0.0000,0.00,3,750.0,235.0,-0.7919,3.3875,3.4789,-13.16,-4.05,-13.16,-9.11,False,FORWARDS,1.000,0,0,NAVIGATING,False,False,False,0,False,,0.00,3
1764560523.4328732,39.272,58,TEST1_DIRECT_FORWARD,True,-107.8,1437.8,1441.8,355.71,1.000,0.0,224.6,31.3,145.28,144.33,145.28,170.20,87.45,0.0096,10.0,0.393,-0.7608,3.2197,3.3083,-13.29,0.0000,0.0000,0.0000,0.00,5,750.0,105.0,-0.7608,3.2197,3.3083,-13.29,-4.29,-13.29,-9.01,False,FORWARDS,0.993,0,0,NAVIGATING,False,False,False,0,False,,0.00,1
1764560523.4712982,39.310,59,TEST1_DIRECT_FORWARD,True,-107.8,1437.8,1441.8,355.71,1.000,0.0,214.6,38.2,145.30,144.49,145.30,170.20,87.47,-0.0181,10.0,0.383,-0.7355,3.1933,3.2769,-12.97,0.0000,0.0000,0.0000,0.00,7,750.0,105.0,-0.7355,3.1933,3.2769,-12.97,-4.29,-12.97,-8.69,False,FORWARDS,0.983,0,0,NAVIGATING,False,False,False,0,False,,0.00,3
1764560523.5164227,39.355,60,TEST1_DIRECT_FORWARD,True,-107.8,1437.8,1441.8,355.71,1.000,0.0,204.2,45.3,145.48,146.25,145.48,171.51,87.47,-0.0405,10.0,0.377,-0.7094,3.1660,3.2445,-12.63,0.0000,0.0000,0.0000,0.00,7,750.0,105.0,-0.7094,3.1660,3.2445,-12.63,-4.29,-12.63,-8.34,False,FORWARDS,0.973,0,0,NAVIGATING,False,False,False,0,False,,0.00,3
1764560523.5547848,39.394,61,TEST1_DIRECT_FORWARD,True,-136.0,1435.4,1441.8,354.59,1.000,0.0,194.4,52.0,145.84,148.03,145.84,172.74,87.49,-0.0170,10.0,0.377,-0.7498,3.1398,3.2281,-13.43,0.0000,0.0000,0.0000,0.00,9,750.0,106.0,-0.7498,3.1398,3.2281,-13.43,-5.41,-13.43,-8.02,False,FORWARDS,0.968,0,0,NAVIGATING,False,False,False,0,False,,0.00,3
1764560523.5990024,39.438,62,TEST1_DIRECT_FORWARD,True,-136.0,1435.4,1441.8,354.59,1.000,0.0,184.9,58.4,146.08,147.45,146.08,171.94,87.58,0.0021,10.0,0.381,-0.7259,3.1153,3.1987,-13.12,0.0000,0.0000,0.0000,0.00,9,750.0,106.0,-0.7259,3.1153,3.1987,-13.12,-5.41,-13.12,-7.71,False,FORWARDS,0.960,0,0,NAVIGATING,False,False,False,0,False,,0.00,3
1764560523.635611,39.474,63,TEST1_DIRECT_FORWARD,True,-136.0,1435.4,1441.8,354.59,1.000,0.0,174.9,65.1,146.25,147.49,146.25,172.06,87.53,-0.0096,10.0,0.387,-0.7009,3.0895,3.1680,-12.78,0.0000,0.0000,0.0000,0.00,11,750.0,108.0,-0.7009,3.0895,3.1680,-12.78,-5.41,-12.78,-7.37,False,FORWARDS,0.950,0,0,NAVIGATING,False,False,False,0,False,,0.00,4
1764560523.6734238,39.512,64,TEST1_DIRECT_FORWARD,True,-136.0,1435.4,1441.8,354.59,1.000,0.0,166.0,71.0,146.31,147.43,146.31,171.93,87.47,-0.0064,10.0,0.395,-0.6786,3.0667,3.1408,-12.48,0.0000,0.0000,0.0000,0.00,11,750.0,108.0,-0.6786,3.0667,3.1408,-12.48,-5.41,-12.48,-7.07,False,FORWARDS,0.942,0,0,NAVIGATING,False,False,False,0,False,,0.00,4
1764560523.716195,39.555,65,TEST1_DIRECT_FORWARD,True,-136.0,1435.4,1441.8,354.59,1.000,0.0,155.9,77.8,146.33,146.96,146.33,171.16,87.43,0.0213,10.0,0.402,-0.6536,3.0408,3.1103,-12.13,0.0000,0.0000,0.0000,0.00,13,750.0,295.0,-0.6536,3.0408,3.1103,-12.13,-5.41,-12.13,-6.72,False,FORWARDS,0.933,0,0,NAVIGATING,False,False,False,0,False,,0.00,3
1764560523.7540777,39.593,66,TEST1_DIRECT_FORWARD,False,0.0,0.0,0.0,0.00,0.000,0.0,147.0,83.7,146.37,146.35,146.37,170.31,87.47,0.0085,10.0,0.410,-0.6318,3.0182,3.0836,-11.82,0.0000,0.0000,0.0000,0.00,13,750.0,295.0,-0.6318,3.0182,3.0836,-11.82,0.00,-11.82,0.00,False,FORWARDS,0.925,0,0,SEARCHING,True,False,False,0,False,,0.00,0
1764560523.796067,39.635,67,TEST1_DIRECT_FORWARD,False,0.0,0.0,0.0,0.00,0.000,0.0,137.1,90.3,146.46,145.82,146.46,169.62,87.48,0.0053,10.0,0.419,-0.6075,2.9930,3.0541,-11.47,0.0000,0.0000,0.0000,0.00,14,750.0,292.0,-0.6075,2.9930,3.0541,-11.47,0.00,-11.47,0.00,False,FORWARDS,0.916,0,0,SEARCHING,False,False,False,0,False,,0.00,0
1764560523.8396058,39.678,68,TEST1_DIRECT_FORWARD,False,0.0,0.0,0.0,0.00,0.000,0.0,127.8,96.3,146.64,146.09,146.64,170.00,87.38,-0.0181,10.0,0.430,-0.5850,2.9698,3.0269,-11.14,0.0000,0.0000,0.0000,0.00,14,750.0,292.0,-0.5850,2.9698,3.0269,-11.14,0.00,-11.14,0.00,False,FORWARDS,0.908,0,0,SEARCHING,False,False,False,0,False,,0.00,0
1764560523.874173,39.713,69,TEST1_DIRECT_FORWARD,False,0.0,0.0,0.0,0.00,0.000,0.0,119.4,101.8,146.91,147.20,146.91,171.12,87.31,-0.0138,10.0,0.445,-0.5646,2.9487,3.0023,-10.84,0.0000,0.0000,0.0000,0.00,14,750.0,292.0,-0.5646,2.9487,3.0023,-10.84,0.00,-10.84,0.00,False,FORWARDS,0.901,0,0,SEARCHING,False,False,False,0,False,,0.00,0
1764560523.916175,39.755,70,TEST1_DIRECT_FORWARD,True,-148.5,1334.0,1342.3,353.65,1.000,0.0,109.9,108.0,147.09,148.10,147.09,171.83,87.46,-0.0192,10.0,0.462,-0.5436,2.5789,2.6355,-11.90,0.0000,0.0000,0.0000,0.00,14,750.0,292.0,-0.5436,2.5789,2.6355,-11.90,-6.35,-11.90,-5.55,False,FORWARDS,0.791,0,0,NAVIGATING,True,False,False,0,False,,0.00,4
1764560523.9591606,39.798,71,TEST1_DIRECT_FORWARD,True,-148.5,1334.0,1342.3,353.65,1.000,0.0,102.0,113.0,147.14,148.50,147.14,172.08,87.26,0.0043,10.0,0.479,-0.5252,2.5591,2.6125,-11.60,0.0000,0.0000,0.0000,0.00,20,750.0,292.0,-0.5252,2.5591,2.6125,-11.60,-6.35,-11.60,-5.24,False,FORWARDS,0.784,0,0,NAVIGATING,False,False,False,0,False,,0.00,6
1764560524.0078728,39.847,72,TEST1_DIRECT_FORWARD,True,-158.9,1264.4,1274.3,352.84,1.000,0.0,93.1,118.8,147.28,148.89,147.28,172.10,87.24,-0.0085,10.0,0.498,-0.5059,2.3003,2.3552,-12.40,0.0000,0.0000,0.0000,0.00,20,750.0,292.0,-0.5059,2.3003,2.3552,-12.40,-7.16,-12.40,-5.24,False,FORWARDS,0.707,0,0,NAVIGATING,False,False,False,0,False,,0.00,6
1764560524.0434837,39.882,73,TEST1_DIRECT_FORWARD,True,-158.9,1264.4,1274.3,352.84,1.000,0.0,86.1,123.3,147.43,148.91,147.43,171.85,87.31,-0.0053,10.0,0.518,-0.4900,2.2827,2.3347,-12.12,0.0000,0.0000,0.0000,0.00,32,750.0,292.0,-0.4900,2.2827,2.3347,-12.12,-7.16,-12.12,-4.95,False,FORWARDS,0.700,0,0,NAVIGATING,False,False,False,0,False,,0.00,4
1764560524.0899374,39.929,74,TEST1_DIRECT_FORWARD,True,-158.9,1264.4,1274.3,352.84,1.000,0.0,78.5,128.1,147.53,148.47,147.53,171.20,87.40,0.0149,10.0,0.540,-0.4729,2.2638,2.3126,-11.80,0.0000,0.0000,0.0000,0.00,32,750.0,292.0,-0.4729,2.2638,2.3126,-11.80,-7.16,-11.80,-4.64,False,FORWARDS,0.694,0,0,STUCK,True,False,True,0,True,STUCK_DETECTED,0.00,4
1764560524.125088,39.964,75,TEST1_DIRECT_FORWARD,True,-158.9,1264.4,1274.3,352.84,1.000,0.0,71.8,132.4,147.56,147.23,147.56,169.97,87.39,0.0309,10.0,0.560,-0.4579,2.2471,2.2933,-11.52,0.0000,0.0000,0.0000,0.00,43,700.0,292.0,-0.4579,2.2471,2.2933,-11.52,-7.16,-11.52,-4.35,False,FORWARDS,0.688,0,0,STUCK,False,False,True,0,True,STUCK_DETECTED,0.00,4
1764560524.167849,40.007,76,TEST1_DIRECT_FORWARD,True,-158.9,1264.4,1274.3,352.84,1.000,0.0,63.8,137.4,147.56,146.40,147.56,169.10,87.44,0.0107,10.0,0.581,-0.4403,2.2275,2.2706,-11.18,0.0000,0.0000,0.0000,0.00,55,700.0,292.0,-0.4403,2.2275,2.2706,-11.18,-7.16,-11.18,-4.02,False,FORWARDS,0.681,0,0,STUCK,False,False,True,0,True,STUCK_DETECTED,0.00,3
1764560524.2060685,40.045,77,TEST1_DIRECT_FORWARD,True,-183.7,1261.0,1274.3,351.71,1.000,0.0,57.1,141.7,147.61,146.30,147.61,168.72,87.35,0.0064,10.0,0.602,-0.4747,2.2067,2.2572,-12.14,0.0000,0.0000,0.0000,0.00,55,700.0,292.0,-0.4747,2.2067,2.2572,-12.14,-8.29,-12.14,-3.85,False,FORWARDS,0.677,0,0,STUCK,False,False,True,0,True,STUCK_DETECTED,0.00,3
1764560524.2481027,40.087,78,TEST1_DIRECT_FORWARD,True,-183.7,1261.0,1274.3,351.71,1.000,0.0,49.8,146.3,147.66,146.61,147.66,168.20,87.24,0.0096,10.0,0.622,-0.4585,2.1886,2.2361,-11.83,0.0000,0.0000,0.0000,0.00,60,700.0,245.0,-0.4585,2.1886,2.2361,-11.83,-8.29,-11.83,-3.54,False,FORWARDS,0.671,0,0,STUCK,False,False,True,0,True,STUCK_DETECTED,0.00,3
1764560524.2892299,40.128,79,TEST1_DIRECT_FORWARD,True,-183.7,1261.0,1274.3,351.71,1.000,0.0,42.9,150.7,147.52,145.84,147.52,166.57,87.23,0.0075,10.0,0.641,-0.4432,2.1714,2.2162,-11.54,0.0000,0.0000,0.0000,0.00,60,700.0,245.0,-0.4432,2.1714,2.2162,-11.54,-8.29,-11.54,-3.25,False,FORWARDS,0.665,0,0,STUCK,False,False,True,0,True,STUCK_DETECTED,0.00,3
1764560524.3264227,40.165,80,TEST1_DIRECT_FORWARD,False,0.0,0.0,0.0,0.00,0.000,0.0,36.5,154.8,147.17,144.53,147.17,164.56,87.49,-0.0053,10.0,0.654,-0.4291,2.1553,2.1976,-11.26,0.0000,0.0000,0.0000,0.00,62,650.0,245.0,-0.4291,2.1553,2.1976,-11.26,0.00,-11.26,0.00,False,FORWARDS,0.659,0,0,STUCK,False,False,True,0,True,STUCK_DETECTED,0.00,0
1764560524.3667326,40.206,81,TEST1_DIRECT_FORWARD,False,0.0,0.0,0.0,0.00,0.000,0.0,29.8,159.3,146.74,144.19,146.74,163.87,87.45,-0.0064,10.0,0.662,-0.4142,2.1380,2.1777,-10.96,0.0000,0.0000,0.0000,0.00,58,650.0,116.0,-0.4142,2.1380,2.1777,-10.96,0.00,-10.96,0.00,False,FORWARDS,0.653,0,0,STUCK,False,False,True,0,True,STUCK_DETECTED,0.00,0
1764560524.4068694,40.246,82,TEST1_DIRECT_FORWARD,False,0.0,0.0,0.0,0.00,0.000,0.0,23.4,163.5,146.40,145.50,146.40,164.96,87.40,0.0021,10.0,0.665,-0.4003,2.1216,2.1591,-10.69,0.0000,0.0000,0.0000,0.00,60,650.0,116.0,-0.4003,2.1216,2.1591,-10.69,0.00,-10.69,0.00,False,FORWARDS,0.648,0,0,STUCK,False,False,True,0,True,STUCK_DETECTED,0.00,0
1764560524.4472766,40.286,83,TEST1_DIRECT_FORWARD,False,0.0,0.0,0.0,0.00,0.000,0.0,16.6,168.0,146.06,145.54,146.06,165.02,87.25,0.0128,10.0,0.664,-0.3856,2.1040,2.1390,-10.39,0.0000,0.0000,0.0000,0.00,60,650.0,116.0,-0.3856,2.1040,2.1390,-10.39,0.00,-10.39,0.00,False,FORWARDS,0.642,0,0,STUCK,False,False,True,0,True,STUCK_DETECTED,0.00,0
1764560524.4857428,40.325,84,TEST1_DIRECT_FORWARD,False,0.0,0.0,0.0,0.00,0.000,0.0,10.7,172.1,145.72,145.05,145.72,164.50,87.26,0.0181,10.0,0.659,-0.3728,2.0884,2.1214,-10.12,0.0000,0.0000,0.0000,0.00,56,650.0,244.0,-0.3728,2.0884,2.1214,-10.12,0.00,-10.12,0.00,False,FORWARDS,0.636,0,0,STUCK,False,False,True,0,True,STUCK_DETECTED,0.00,0
1764560524.5279222,40.367,85,TEST1_DIRECT_FORWARD,False,0.0,0.0,0.0,0.00,0.000,0.0,3.9,176.8,145.38,143.80,145.38,163.23,87.33,0.0170,10.0,0.650,-0.3582,2.0703,2.1011,-9.82,0.0000,0.0000,0.0000,0.00,56,650.0,244.0,-0.3582,2.0703,2.1011,-9.82,0.00,-9.82,0.00,False,FORWARDS,0.630,0,0,STUCK,False,False,True,0,True,STUCK_DETECTED,0.00,0
1764560524.5647874,40.404,86,TEST1_DIRECT_FORWARD,False,0.0,0.0,0.0,0.00,0.000,0.0,-1.8,180.7,145.12,143.83,145.12,163.21,87.35,0.0011,10.0,0.639,-0.3461,2.0552,2.0841,-9.56,0.0000,0.0000,0.0000,0.00,51,600.0,244.0,-0.3461,2.0552,2.0841,-9.56,0.00,-9.56,0.00,False,FORWARDS,0.625,0,0,STUCK,False,False,True,0,True,STUCK_DETECTED,0.00,0
1764560524.6112,40.450,87,TEST1_DIRECT_FORWARD,True,-178.8,1104.0,1118.4,350.80,1.000,0.0,-8.4,185.4,144.94,144.49,144.94,163.60,87.31,0.0075,10.0,0.625,-0.2771,1.4944,1.5199,-10.50,0.0000,0.0000,0.0000,0.00,51,600.0,244.0,-0.2771,1.4944,1.5199,-10.50,-9.20,-10.50,-1.31,False,FORWARDS,0.456,0,0,STUCK,False,False,True,0,True,STUCK_DETECTED,0.00,4
1764560524.6455753,40.484,88,TEST1_DIRECT_FORWARD,True,-200.4,1100.3,1118.4,349.68,1.000,0.0,-12.6,188.4,144.72,144.40,144.72,163.32,87.30,0.0160,10.0,0.609,-0.3044,1.4778,1.5088,-11.64,0.0000,0.0000,0.0000,0.00,61,600.0,244.0,-0.3044,1.4778,1.5088,-11.64,-10.32,-11.64,-1.31,False,FORWARDS,0.453,0,0,STUCK,False,False,True,0,True,STUCK_DETECTED,0.00,5
1764560524.6888144,40.528,89,TEST1_DIRECT_FORWARD,True,-200.4,1100.3,1118.4,349.68,1.000,0.0,-17.3,191.7,144.59,144.57,144.59,163.27,87.29,-0.0043,10.0,0.593,-0.2952,1.4647,1.4941,-11.40,0.0000,0.0000,0.0000,0.00,61,600.0,244.0,-0.2952,1.4647,1.4941,-11.40,-10.32,-11.40,-1.07,False,FORWARDS,0.448,0,0,STUCK,False,False,True,0,True,STUCK_DETECTED,0.00,5
1764560524.7309818,40.570,90,TEST1_DIRECT_FORWARD,True,-174.6,1007.5,1022.6,350.17,1.000,0.0,-21.7,194.8,144.61,144.73,144.61,163.36,87.15,-0.0138,10.0,0.576,-0.2116,1.1248,1.1445,-10.65,0.0000,0.0000,0.0000,0.00,64,600.0,242.0,-0.2116,1.1248,1.1445,-10.65,-9.83,-10.65,-0.82,False,FORWARDS,0.343,0,0,STUCK,False,False,True,0,True,STUCK_DETECTED,0.00,4
1764560524.7689834,40.608,91,TEST1_DIRECT_FORWARD,True,-174.6,1007.5,1022.6,350.17,1.000,0.0,-24.9,197.1,144.68,144.88,144.68,163.52,87.30,0.0107,10.0,0.561,-0.2061,1.1158,1.1347,-10.46,0.0000,0.0000,0.0000,0.00,64,600.0,242.0,-0.2061,1.1158,1.1347,-10.46,-9.83,-10.46,-0.64,False,FORWARDS,0.340,0,0,STUCK,False,False,True,0,True,STUCK_DETECTED,0.00,4
1764560524.8124497,40.651,92,TEST1_DIRECT_FORWARD,True,-174.6,1007.5,1022.6,350.17,1.000,0.0,-28.5,199.7,144.60,144.73,144.60,163.36,87.14,0.0043,10.0,0.546,-0.1999,1.1055,1.1235,-10.25,0.0000,0.0000,0.0000,0.00,59,550.0,242.0,-0.1999,1.1055,1.1235,-10.25,-9.83,-10.25,-0.42,False,FORWARDS,0.337,0,0,STUCK,False,False,True,0,True,STUCK_DETECTED,0.00,4
1764560524.8491132,40.688,93,TEST1_DIRECT_FORWARD,True,-194.3,1003.9,1022.6,349.05,1.000,0.0,-31.6,201.8,144.53,144.75,144.53,163.04,87.10,0.0085,10.0,0.529,-0.2216,1.0922,1.1145,-11.47,0.0000,0.0000,0.0000,0.00,59,550.0,242.0,-0.2216,1.0922,1.1145,-11.47,-10.95,-11.47,-0.51,False,FORWARDS,0.334,0,0,STUCK,False,False,True,0,True,STUCK_DETECTED,0.00,4
1764560524.8950775,40.734,94,TEST1_DIRECT_FORWARD,True,-194.3,1003.9,1022.6,349.05,1.000,0.0,-35.2,204.4,144.39,143.73,144.39,161.35,87.18,0.0234,10.0,0.512,-0.2153,1.0818,1.1030,-11.25,0.0000,0.0000,0.0000,0.00,60,550.0,242.0,-0.2153,1.0818,1.1030,-11.25,-10.95,-11.25,-0.30,False,FORWARDS,0.331,0,0,STUCK,False,False,True,0,True,STUCK_DETECTED,0.00,4
1764560524.9348388,40.774,95,TEST1_DIRECT_FORWARD,True,-194.3,1003.9,1022.6,349.05,1.000,0.0,-38.7,206.9,144.26,142.50,144.26,159.42,87.14,0.0160,10.0,0.494,-0.2093,1.0719,1.0921,-11.05,0.0000,0.0000,0.0000,0.00,60,550.0,242.0,-0.2093,1.0719,1.0921,-11.05,-10.95,-11.05,-0.09,False,FORWARDS,0.328,0,0,STUCK,False,False,True,0,True,STUCK_DETECTED,0.00,4
1764560524.9775655,40.816,96,TEST1_DIRECT_FORWARD,True,-194.3,1003.9,1022.6,349.05,1.000,0.0,-41.9,209.2,144.08,142.04,144.08,158.31,87.27,-0.0256,10.0,0.474,-0.2039,1.0627,1.0821,-10.86,0.0000,0.0000,0.0000,0.00,61,550.0,242.0,-0.2039,1.0627,1.0821,-10.86,-10.95,-10.86,0.09,False,FORWARDS,0.325,0,0,STUCK,False,False,True,0,True,STUCK_DETECTED,0.00,4
1764560525.020029,40.859,97,TEST1_DIRECT_FORWARD,True,-194.3,1003.9,1022.6,349.05,1.000,0.0,-44.9,211.5,143.85,142.15,143.85,157.83,87.40,-0.0256,10.0,0.452,-0.1987,1.0539,1.0724,-10.68,0.0000,0.0000,0.0000,0.00,61,550.0,242.0,-0.1987,1.0539,1.0724,-10.68,-10.95,-10.68,0.28,False,FORWARDS,0.322,0,0,STUCK,False,False,True,0,True,STUCK_DETECTED,0.00,4
1764560525.0609088,40.900,98,TEST1_DIRECT_FORWARD,False,0.0,0.0,0.0,0.00,0.000,0.0,-48.4,214.0,143.66,142.48,143.66,157.91,87.40,0.0128,10.0,0.429,-0.1929,1.0438,1.0615,-10.47,0.0000,0.0000,0.0000,0.00,61,550.0,241.0,-0.1929,1.0438,1.0615,-10.47,0.00,-10.47,0.00,False,FORWARDS,0.318,0,0,STUCK,False,False,True,0,True,STUCK_DETECTED,0.00,0
1764560525.0962887,40.935,99,TEST1_DIRECT_FORWARD,False,0.0,0.0,0.0,0.00,0.000,0.0,-51.1,216.0,143.48,142.84,143.48,158.29,87.36,0.0075,10.0,0.404,-0.1882,1.0358,1.0527,-10.30,0.0000,0.0000,0.0000,0.00,61,550.0,241.0,-0.1882,1.0358,1.0527,-10.30,0.00,-10.30,0.00,False,FORWARDS,0.316,0,0,STUCK,False,False,True,0,True,STUCK_DETECTED,0.00,0
1764560525.1377742,40.977,100,TEST1_DIRECT_FORWARD,False,0.0,0.0,0.0,0.00,0.000,0.0,-54.4,218.5,143.32,143.13,143.32,158.55,87.44,0.0011,10.0,0.379,-0.1827,1.0260,1.0421,-10.10,0.0000,0.0000,0.0000,0.00,46,550.0,241.0,-0.1827,1.0260,1.0421,-10.10,0.00,-10.10,0.00,False,FORWARDS,0.313,0,0,STUCK,False,False,True,0,True,STUCK_DETECTED,0.00,0
1764560525.176425,41.015,101,TEST1_DIRECT_FORWARD,False,0.0,0.0,0.0,0.00,0.000,0.0,-57.4,220.8,143.14,143.01,143.14,158.43,87.37,-0.0160,10.0,0.352,-0.1777,1.0171,1.0325,-9.91,0.0000,0.0000,0.0000,0.00,41,550.0,241.0,-0.1777,1.0171,1.0325,-9.91,0.00,-9.91,0.00,False,FORWARDS,0.310,0,0,STUCK,False,False,True,0,True,STUCK_DETECTED,0.00,0
1764560525.2195258,41.058,102,TEST1_DIRECT_FORWARD,True,-143.5,910.4,921.7,351.04,0.999,0.0,-60.5,223.1,143.01,143.49,143.01,158.50,87.36,-0.0085,10.0,0.327,-0.0807,0.6682,0.6730,-6.88,0.0000,0.0000,0.0000,0.00,41,550.0,241.0,-0.0807,0.6682,0.6730,-6.88,-8.96,-6.88,2.07,False,FORWARDS,0.202,0,0,STUCK,False,False,True,0,True,STUCK_DETECTED,0.00,4
1764560525.2631946,41.102,103,TEST1_DIRECT_FORWARD,True,-118.2,864.1,872.2,352.21,0.999,0.0,-62.6,224.6,143.01,144.69,143.01,158.98,87.28,0.0192,10.0,0.303,-0.0431,0.4947,0.4966,-4.97,0.0000,0.0000,0.0000,0.00,33,550.0,241.0,-0.0431,0.4947,0.4966,-4.97,-7.79,-4.97,2.82,False,FORWARDS,0.149,0,0,STUCK,False,False,True,0,True,STUCK_DETECTED,0.00,11
1764560525.3006806,41.140,104,TEST1_DIRECT_FORWARD,True,-118.2,864.1,872.2,352.21,0.999,0.0,-63.9,225.6,143.08,144.43,143.08,158.07,87.08,0.0085,10.0,0.279,-0.0418,0.4910,0.4927,-4.86,0.0000,0.0000,0.0000,0.00,33,550.0,241.0,-0.0418,0.4910,0.4927,-4.86,-7.79,-4.86,2.93,False,FORWARDS,0.148,0,0,STUCK,False,False,True,0,True,STUCK_DETECTED,0.00,11
1764560525.3422573,41.181,105,TEST1_DIRECT_FORWARD,True,-105.0,830.9,837.5,352.79,0.999,0.0,-65.4,226.8,143.19,143.64,143.19,156.14,87.21,-0.0320,10.0,0.256,-0.0242,0.3682,0.3690,-3.76,0.0000,0.0000,0.0000,0.00,21,550.0,241.0,-0.0242,0.3682,0.3690,-3.76,-7.21,-3.76,3.45,False,FORWARDS,0.111,0,0,STUCK,False,False,True,0,True,STUCK_DETECTED,0.00,19
1764560525.3788362,41.218,106,TEST1_DIRECT_FORWARD,True,-105.0,830.9,837.5,352.79,0.999,0.0,-66.4,227.5,143.32,143.34,143.32,155.21,87.32,-0.0170,10.0,0.234,-0.0234,0.3655,0.3663,-3.67,0.0000,0.0000,0.0000,0.00,21,550.0,241.0,-0.0234,0.3655,0.3663,-3.67,-7.21,-3.67,3.54,False,FORWARDS,0.110,0,0,STUCK,False,False,True,0,True,STUCK_DETECTED,0.00,19
1764560525.4213243,41.260,107,TEST1_DIRECT_FORWARD,True,-91.1,816.1,821.2,353.63,0.999,0.0,-67.5,228.3,143.43,143.22,143.43,154.71,87.34,0.0128,10.0,0.214,-0.0124,0.3086,0.3088,-2.30,-1.3996,-0.0979,1.4030,-94.00,19,500.0,241.0,-1.4120,0.2107,1.4276,-81.51,-6.37,-81.51,-75.14,False,NONE,0.000,0,0,STUCK,False,True,True,0,True,STUCK_DETECTED,0.00,25
1764560525.4592745,41.298,108,TEST1_DIRECT_FORWARD,True,-91.1,816.1,821.2,353.63,0.999,0.0,-68.5,229.1,143.55,143.68,143.55,155.18,87.37,0.0053,10.0,0.195,-0.0118,0.3058,0.3060,-2.20,-1.3996,-0.0979,1.4030,-94.00,19,500.0,241.0,-1.4114,0.2079,1.4266,-81.62,-6.37,-81.62,-75.25,False,NONE,0.000,0,0,STUCK,False,True,True,0,True,STUCK_DETECTED,0.00,25
1764560525.5004513,41.339,109,TEST1_DIRECT_FORWARD,True,-91.1,816.1,821.2,353.63,0.999,0.0,-69.6,229.9,143.74,144.71,143.74,156.24,87.31,0.0021,10.0,0.178,-0.0111,0.3029,0.3031,-2.10,-2.3352,-0.1224,2.3384,-93.00,17,500.0,303.0,-2.3463,0.1805,2.3532,-85.60,-6.37,-85.60,-79.23,False,NONE,0.000,0,0,STUCK,False,True,True,0,True,STUCK_DETECTED,0.00,25
1764560525.5377553,41.377,110,TEST1_DIRECT_FORWARD,True,-91.1,816.1,821.2,353.63,0.999,0.0,-70.6,230.6,143.90,144.74,143.90,156.25,87.26,-0.0011,10.0,0.162,-0.0105,0.3002,0.3004,-2.00,-2.3352,-0.1224,2.3384,-93.00,17,500.0,303.0,-2.3457,0.1779,2.3524,-85.66,-6.37,-85.66,-79.29,False,NONE,0.000,0,0,STUCK,False,True,True,0,True,STUCK_DETECTED,0.00,25
1764560525.5812652,41.420,111,TEST1_DIRECT_FORWARD,True,-91.1,816.1,821.2,353.63,0.999,0.0,-71.8,231.5,143.98,143.86,143.98,155.41,87.42,-0.0426,10.0,0.147,-0.0098,0.2972,0.2973,-1.89,-1.3996,-0.0979,1.4030,-94.00,18,500.0,303.0,-1.4094,0.1993,1.4235,-81.95,-6.37,-81.95,-75.58,False,NONE,0.000,0,0,STUCK,False,True,True,0,True,STUCK_DETECTED,0.00,23
1764560525.6183362,41.457,112,TEST1_DIRECT_FORWARD,True,-91.1,816.1,821.2,353.63,0.999,0.0,-72.8,232.2,144.03,143.99,144.03,155.55,87.48,-0.0138,10.0,0.134,-0.0092,0.2945,0.2947,-1.80,-1.3996,-0.0979,1.4030,-94.00,18,500.0,303.0,-1.4089,0.1967,1.4225,-82.05,-6.37,-82.05,-75.68,False,NONE,0.000,0,0,STUCK,False,True,True,0,True,STUCK_DETECTED,0.00,23
1764560525.66299,41.502,113,TEST1_DIRECT_FORWARD,True,-91.1,816.1,821.2,353.63,0.999,0.0,-73.9,233.0,144.01,144.53,144.01,156.06,87.54,0.0181,10.0,0.121,-0.0086,0.2915,0.2917,-1.69,-2.3352,-0.1224,2.3384,-93.00,19,500.0,303.0,-2.3438,0.1692,2.3499,-85.87,-6.37,-85.87,-79.50,False,NONE,0.000,0,0,STUCK,False,True,True,0,True,STUCK_DETECTED,0.00,21
1764560525.6989286,41.538,114,TEST1_DIRECT_FORWARD,True,-91.1,816.1,821.2,353.63,0.999,0.0,-74.9,233.7,144.00,144.26,144.00,155.80,87.37,0.0234,10.0,0.104,-0.0080,0.2889,0.2890,-1.59,-1.3996,-0.0979,1.4030,-94.00,19,500.0,303.0,-1.4076,0.1910,1.4205,-82.27,-6.37,-82.27,-75.90,False,NONE,0.000,0,0,STUCK,False,True,True,0,True,STUCK_DETECTED,0.00,21
1764560525.740089,41.579,115,TEST1_DIRECT_FORWARD,False,0.0,0.0,0.0,0.00,0.000,0.0,-76.1,234.6,144.06,144.23,144.06,155.79,87.43,-0.0043,10.0,0.086,-0.0074,0.2859,0.2860,-1.48,-2.3352,-0.1224,2.3384,-93.00,35,500.0,303.0,-2.3426,0.1636,2.3483,-86.01,0.00,-86.01,0.00,False,NONE,0.000,0,0,STUCK,False,True,True,0,True,STUCK_DETECTED,0.00,0
1764560525.7826989,41.622,116,TEST1_DIRECT_FORWARD,False,0.0,0.0,0.0,0.00,0.000,0.0,-77.2,235.4,144.19,144.69,144.19,156.19,87.23,0.0085,10.0,0.068,-0.0068,0.2831,0.2832,-1.38,-1.3996,-0.0979,1.4030,-94.00,35,500.0,303.0,-1.4064,0.1852,1.4186,-82.50,0.00,-82.50,0.00,False,NONE,0.000,0,0,STUCK,False,True,True,0,True,STUCK_DETECTED,0.00,0
1764560525.8172872,41.656,117,TEST1_DIRECT_FORWARD,False,0.0,0.0,0.0,0.00,0.000,0.0,-78.1,236.1,144.28,144.14,144.28,155.58,87.37,-0.0202,10.0,0.054,-0.0063,0.2806,0.2807,-1.28,-1.3996,-0.0979,1.4030,-94.00,34,500.0,303.0,-1.4059,0.1827,1.4177,-82.60,0.00,-82.60,0.00,False,NONE,0.000,0,0,STUCK,False,True,True,0,True,STUCK_DETECTED,0.00,0
1764560525.8611972,41.700,118,TEST1_DIRECT_FORWARD,True,-43.4,797.2,798.4,356.88,0.992,0.0,-79.3,236.9,144.31,143.97,144.31,155.43,87.47,-0.0234,10.0,0.040,0.0137,0.2147,0.2151,3.66,-1.3996,-0.0979,1.4030,-94.00,13,500.0,303.0,-1.3859,0.1168,1.3908,-85.18,-3.12,-85.18,-82.06,False,NONE,0.000,0,0,STUCK,False,True,True,0,True,STUCK_DETECTED,0.00,21
1764560525.8983352,41.737,119,TEST1_DIRECT_FORWARD,True,-43.4,797.2,798.4,356.88,0.992,0.0,-80.3,237.6,144.26,144.17,144.26,155.64,87.50,-0.0085,10.0,0.025,0.0140,0.2124,0.2128,3.76,-1.3996,-0.0979,1.4030,-94.00,13,500.0,303.0,-1.3856,0.1145,1.3904,-85.28,-3.12,-85.28,-82.16,False,NONE,0.000,0,0,STUCK,False,True,True,0,True,STUCK_DETECTED,0.00,21
1764560525.9389954,41.778,120,TEST1_DIRECT_FORWARD,True,-43.4,797.2,798.4,356.88,0.992,0.0,-81.3,238.4,144.21,144.23,144.21,155.70,87.49,0.0149,10.0,0.008,0.0142,0.2099,0.2104,3.88,-1.3996,-0.0979,1.4030,-94.00,13,500.0,303.0,-1.3854,0.1120,1.3899,-85.38,-3.12,-85.38,-82.26,False,NONE,0.000,0,0,STUCK,False,True,True,0,True,STUCK_DETECTED,0.00,21
1764560525.9840434,41.823,121,TEST1_DIRECT_FORWARD,True,-47.5,776.2,777.7,356.50,0.997,0.0,-82.6,239.2,144.26,144.38,144.26,155.83,87.41,0.0096,10.0,-0.010,0.0087,0.1332,0.1334,3.73,0.0000,0.0000,0.0000,0.00,6,550.0,303.0,0.0087,0.1332,0.1334,3.73,-3.50,3.73,7.24,False,NONE,0.000,0,0,STUCK,False,True,True,0,True,STUCK_DETECTED,0.00,30
1764560526.0256054,41.864,122,TEST1_DIRECT_FORWARD,True,-37.6,768.0,768.9,357.20,0.993,0.0,-83.7,240.0,144.27,144.12,144.27,155.58,87.43,-0.0202,10.0,-0.028,0.0091,0.1045,0.1049,4.98,0.0000,0.0000,0.0000,0.00,6,550.0,303.0,0.0091,0.1045,0.1049,4.98,-2.80,4.98,7.79,False,NONE,0.000,0,0,STUCK,False,True,True,0,True,STUCK_DETECTED,0.00,30
1764560526.0625315,41.901,123,TEST1_DIRECT_FORWARD,True,-37.6,768.0,768.9,357.20,0.993,0.0,-84.7,240.8,144.23,144.10,144.23,155.56,87.45,-0.0117,10.0,-0.047,0.0091,0.1023,0.1027,5.10,0.0000,0.0000,0.0000,0.00,5,550.0,303.0,0.0091,0.1023,0.1027,5.10,-2.80,5.10,7.90,False,NONE,0.000,0,0,STUCK,False,True,True,0,True,STUCK_DETECTED,0.00,31
1764560526.1044185,41.943,124,TEST1_DIRECT_FORWARD,True,-37.6,768.0,768.9,357.20,0.993,0.0,-85.8,241.6,144.23,144.27,144.23,155.73,87.49,-0.0064,10.0,-0.065,0.0091,0.0998,0.1003,5.23,0.0000,0.0000,0.0000,0.00,5,550.0,303.0,0.0091,0.0998,0.1003,5.23,-2.80,5.23,8.03,False,NONE,0.000,0,0,STUCK,False,True,True,0,True,STUCK_DETECTED,0.00,31
1764560526.1428692,41.982,125,TEST1_DIRECT_FORWARD,True,-37.6,768.0,768.9,357.20,0.993,0.0,-86.8,242.3,144.27,144.60,144.27,156.04,87.58,0.0011,10.0,-0.080,0.0091,0.0976,0.0980,5.34,0.0000,0.0000,0.0000,0.00,5,550.0,303.0,0.0091,0.0976,0.0980,5.34,-2.80,5.34,0.00,False,NONE,0.000,0,0,STUCK,False,True,True,0,True,NO_FORCE_WITH_PERSON|STUCK_DETECTED,0.00,30
1764560526.1848173,42.024,126,TEST1_DIRECT_FORWARD,True,-37.6,768.0,768.9,357.20,0.993,0.0,-87.9,243.1,144.22,144.20,144.22,155.66,87.46,0.0160,10.0,-0.095,0.0091,0.0951,0.0956,5.47,0.0000,0.0000,0.0000,0.00,5,550.0,303.0,0.0091,0.0951,0.0956,5.47,-2.80,5.47,0.00,False,NONE,0.000,0,0,STUCK,False,True,True,0,True,NO_FORCE_WITH_PERSON|STUCK_DETECTED,0.00,30
1764560526.224608,42.063,127,TEST1_DIRECT_FORWARD,True,-37.6,768.0,768.9,357.20,0.993,0.0,-89.0,243.9,144.21,144.02,144.21,155.46,87.58,0.0000,10.0,-0.115,0.0091,0.0928,0.0932,5.60,0.0000,0.0000,0.0000,0.00,5,550.0,303.0,0.0091,0.0928,0.0932,5.60,-2.80,5.60,0.00,False,NONE,0.000,0,0,STUCK,False,True,True,0,True,NO_FORCE_WITH_PERSON|STUCK_DETECTED,0.00,30
1764560526.2725298,42.111,128,TEST1_DIRECT_FORWARD,True,-37.6,768.0,768.9,357.20,0.993,0.0,-90.2,244.8,144.23,144.24,144.23,155.69,87.61,-0.0117,10.0,-0.137,0.0091,0.0901,0.0906,5.74,0.0000,0.0000,0.0000,0.00,5,550.0,303.0,0.0091,0.0901,0.0906,5.74,-2.80,5.74,0.00,False,NONE,0.000,0,0,STUCK,False,True,True,0,True,NO_FORCE_WITH_PERSON|STUCK_DETECTED,0.00,30
1764560526.3101118,42.149,129,TEST1_DIRECT_FORWARD,True,-37.6,768.0,768.9,357.20,0.993,0.0,-91.3,245.5,144.26,144.41,144.26,155.86,87.61,0.0064,10.0,-0.158,0.0090,0.0879,0.0883,5.86,0.0000,0.0000,0.0000,0.00,5,550.0,303.0,0.0090,0.0879,0.0883,5.86,-2.80,5.86,0.00,False,NONE,0.000,0,0,STUCK,False,True,True,0,True,NO_FORCE_WITH_PERSON|STUCK_DETECTED,0.00,30
1764560526.3461916,42.185,130,TEST1_DIRECT_FORWARD,False,0.0,0.0,0.0,0.00,0.000,0.0,-92.3,246.2,144.26,144.23,144.26,155.70,87.50,0.0149,10.0,-0.179,0.0090,0.0857,0.0862,5.98,-1.3996,-0.0979,1.4030,-94.00,37,500.0,303.0,-1.3906,-0.0122,1.3907,-90.50,0.00,-90.50,0.00,False,NONE,0.000,0,0,STUCK,False,True,True,0,True,STUCK_DETECTED,0.00,0
1764560526.3883545,42.227,131,TEST1_DIRECT_FORWARD,False,0.0,0.0,0.0,0.00,0.000,0.0,-93.4,247.1,144.22,144.03,144.22,155.47,87.59,-0.0032,10.0,-0.202,0.0089,0.0833,0.0838,6.11,-2.3352,-0.1224,2.3384,-93.00,37,500.0,303.0,-2.3263,-0.0391,2.3266,-90.96,0.00,-90.96,0.00,False,NONE,0.000,0,0,STUCK,False,True,True,0,True,STUCK_DETECTED,0.00,0
1764560526.4268394,42.266,132,TEST1_DIRECT_FORWARD,False,0.0,0.0,0.0,0.00,0.000,0.0,-94.4,247.8,144.20,143.87,144.20,155.32,87.60,-0.0117,10.0,-0.226,0.0089,0.0811,0.0816,6.23,-1.3996,-0.0979,1.4030,-94.00,35,500.0,303.0,-1.3908,-0.0168,1.3909,-90.69,0.00,-90.69,0.00,False,NONE,0.000,0,0,STUCK,False,True,True,0,True,STUCK_DETECTED,0.00,0
1764560526.4731238,42.312,133,TEST1_DIRECT_FORWARD,False,0.0,0.0,0.0,0.00,0.000,0.0,-95.6,248.6,144.21,144.26,144.21,155.71,87.63,-0.0117,10.0,-0.251,0.0088,0.0786,0.0791,6.37,-1.3996,-0.0979,1.4030,-94.00,35,500.0,303.0,-1.3908,-0.0193,1.3910,-90.79,0.00,-90.79,0.00,False,NONE,0.000,0,0,STUCK,False,True,True,0,True,STUCK_DETECTED,0.00,0
1764560526.5082424,42.347,134,TEST1_DIRECT_FORWARD,False,0.0,0.0,0.0,0.00,0.000,0.0,-96.6,249.4,144.22,144.36,144.22,155.82,87.64,0.0075,10.0,-0.277,0.0087,0.0765,0.0770,6.49,-1.8676,-0.0979,1.8702,-93.00,36,500.0,303.0,-1.8589,-0.0214,1.8590,-90.66,0.00,-90.66,0.00,False,NONE,0.000,0,0,STUCK,False,True,True,0,True,STUCK_DETECTED,0.00,0
1764560526.5507467,42.390,135,TEST1_DIRECT_FORWARD,False,0.0,0.0,0.0,0.00,0.000,0.0,-97.7,250.2,144.18,144.14,144.18,155.61,87.54,-0.0064,10.0,-0.303,0.0086,0.0741,0.0746,6.62,-1.8676,-0.0979,1.8702,-93.00,36,500.0,303.0,-1.8590,-0.0238,1.8592,-90.73,0.00,-90.73,0.00,False,NONE,0.000,0,0,STUCK,False,True,True,0,True,STUCK_DETECTED,0.00,0
1764560526.5945034,42.433,136,TEST1_DIRECT_FORWARD,True,-44.7,761.9,763.2,356.64,0.996,0.0,-98.9,251.0,144.17,144.15,144.17,155.60,87.65,0.0053,10.0,-0.331,0.0051,0.0480,0.0482,6.05,0.0000,0.0000,0.0000,0.00,3,550.0,303.0,0.0051,0.0480,0.0482,6.05,-3.36,6.05,0.00,False,NONE,0.000,0,0,STUCK,False,True,True,0,True,NO_FORCE_WITH_PERSON|STUCK_DETECTED,0.00,35
1764560526.6319659,42.471,137,TEST1_DIRECT_FORWARD,True,-44.7,761.9,763.2,356.64,0.996,0.0,-99.9,251.7,144.21,144.43,144.21,155.89,87.66,-0.0053,10.0,-0.357,0.0050,0.0458,0.0461,6.17,0.0000,0.0000,0.0000,0.00,3,550.0,303.0,0.0050,0.0458,0.0461,6.17,-3.36,6.17,0.00,False,NONE,0.000,0,0,STUCK,False,True,True,0,True,NO_FORCE_WITH_PERSON|STUCK_DETECTED,0.00,35
1764560526.6751974,42.514,138,TEST1_DIRECT_FORWARD,True,-44.7,761.9,763.2,356.64,0.996,0.0,-101.0,252.5,144.23,144.40,144.23,155.87,87.70,0.0043,10.0,-0.384,0.0048,0.0434,0.0437,6.31,0.0000,0.0000,0.0000,0.00,3,550.0,303.0,0.0048,0.0434,0.0437,6.31,-3.36,6.31,0.00,False,NONE,0.000,0,0,STUCK,False,True,True,0,True,NO_FORCE_WITH_PERSON|STUCK_DETECTED,0.00,35
1764560526.7128963,42.552,139,TEST1_DIRECT_FORWARD,True,-44.7,761.9,763.2,356.64,0.996,0.0,-102.1,253.3,144.22,144.28,144.22,155.75,87.70,-0.0043,10.0,-0.410,0.0046,0.0412,0.0415,6.43,0.0000,0.0000,0.0000,0.00,3,550.0,303.0,0.0046,0.0412,0.0415,6.43,-3.36,6.43,0.00,False,NONE,0.000,0,0,STUCK,False,True,True,0,True,NO_FORCE_WITH_PERSON|STUCK_DETECTED,0.00,35
1764560526.755123,42.594,140,TEST1_DIRECT_FORWARD,True,-28.8,762.4,763.0,357.83,0.972,0.0,-103.2,254.1,144.22,144.28,144.22,155.75,87.70,-0.0011,10.0,-0.435,0.0070,0.0475,0.0480,8.32,0.0000,0.0000,0.0000,0.00,5,550.0,303.0,0.0070,0.0475,0.0480,8.32,-2.17,8.32,0.00,False,NONE,0.000,0,0,STUCK,False,True,True,0,True,NO_FORCE_WITH_PERSON|STUCK_DETECTED,0.00,31
1764560526.7926314,42.631,141,TEST1_DIRECT_FORWARD,True,-28.8,762.4,763.0,357.83,0.972,0.0,-104.2,254.8,144.25,144.28,144.25,155.75,87.70,-0.0021,10.0,-0.459,0.0068,0.0455,0.0460,8.44,0.0000,0.0000,0.0000,0.00,5,550.0,303.0,0.0068,0.0455,0.0460,8.44,-2.17,8.44,0.00,False,NONE,0.000,0,0,STUCK,False,True,True,0,True,NO_FORCE_WITH_PERSON|STUCK_DETECTED,0.00,31
1764560526.8368967,42.676,142,TEST1_DIRECT_FORWARD,True,-28.8,762.4,763.0,357.83,0.972,0.0,-105.4,255.7,144.29,144.34,144.29,155.81,87.70,-0.0043,10.0,-0.481,0.0065,0.0432,0.0437,8.59,0.0000,0.0000,0.0000,0.00,5,550.0,303.0,0.0065,0.0432,0.0437,8.59,-2.17,8.59,0.00,False,NONE,0.000,0,0,STUCK,False,True,True,0,True,NO_FORCE_WITH_PERSON|STUCK_DETECTED,0.00,31
1764560526.8749912,42.714,143,TEST1_DIRECT_FORWARD,True,-28.8,762.4,763.0,357.83,0.972,0.0,-106.4,256.4,144.31,144.43,144.31,155.89,87.71,0.0107,10.0,-0.502,0.0063,0.0412,0.0417,8.71,0.0000,0.0000,0.0000,0.00,5,550.0,303.0,0.0063,0.0412,0.0417,8.71,-2.17,8.71,0.00,False,NONE,0.000,0,0,STUCK,False,True,True,0,True,NO_FORCE_WITH_PERSON|STUCK_DETECTED,0.00,31
1764560526.9159024,42.755,144,TEST1_DIRECT_FORWARD,True,-28.8,762.4,763.0,357.83,0.972,0.0,-107.5,257.2,144.32,144.43,144.32,155.89,87.71,0.0138,10.0,-0.521,0.0061,0.0391,0.0396,8.85,0.0000,0.0000,0.0000,0.00,5,550.0,303.0,0.0061,0.0391,0.0396,8.85,-2.17,8.85,0.00,False,NONE,0.000,0,0,STUCK,False,True,True,0,True,NO_FORCE_WITH_PERSON|STUCK_DETECTED,0.00,31
1764560526.9576468,42.796,145,TEST1_DIRECT_FORWARD,True,-28.8,762.4,763.0,357.83,0.972,0.0,-108.6,258.0,144.32,144.21,144.32,155.67,87.68,-0.0085,10.0,-0.538,0.0058,0.0369,0.0374,8.99,0.0000,0.0000,0.0000,0.00,5,550.0,303.0,0.0058,0.0369,0.0374,8.99,-2.17,8.99,0.00,False,NONE,0.000,0,0,STUCK,False,True,True,0,True,NO_FORCE_WITH_PERSON|STUCK_DETECTED,0.00,31
1764560526.9987562,42.838,146,TEST1_DIRECT_FORWARD,True,-28.8,762.4,763.0,357.83,0.972,0.0,-109.7,258.8,144.33,144.19,144.33,155.66,87.70,0.0011,10.0,-0.553,0.0056,0.0348,0.0353,9.12,0.0000,0.0000,0.0000,0.00,5,550.0,303.0,0.0056,0.0348,0.0353,9.12,-2.17,9.12,0.00,False,NONE,0.000,0,0,STUCK,False,True,True,0,True,NO_FORCE_WITH_PERSON|STUCK_DETECTED,0.00,31
1764560527.0434732,42.882,147,TEST1_DIRECT_FORWARD,True,-28.8,762.4,763.0,357.83,0.972,0.0,-110.9,259.6,144.28,143.97,144.28,155.43,87.72,0.0011,10.0,-0.566,0.0053,0.0326,0.0330,9.27,0.0000,0.0000,0.0000,0.00,5,550.0,303.0,0.0053,0.0326,0.0330,9.27,-2.17,9.27,0.00,False,NONE,0.000,0,0,STUCK,False,True,True,0,True,NO_FORCE_WITH_PERSON|STUCK_DETECTED,0.00,32
1764560527.0800378,42.919,148,TEST1_DIRECT_FORWARD,False,0.0,0.0,0.0,0.00,0.000,0.0,-111.9,260.4,144.24,143.94,144.24,155.43,87.61,-0.0128,10.0,-0.578,0.0051,0.0306,0.0310,9.40,-2.8005,-0.1467,2.8043,-93.00,37,500.0,303.0,-2.7954,-0.1161,2.7978,-92.38,0.00,-92.38,0.00,False,NONE,0.000,0,0,STUCK,False,True,True,0,True,STUCK_DETECTED,0.00,0
1764560527.125927,42.965,149,TEST1_DIRECT_FORWARD,False,0.0,0.0,0.0,0.00,0.000,0.0,-113.1,261.2,144.21,144.03,144.21,155.52,87.62,-0.0043,10.0,-0.588,0.0048,0.0284,0.0288,9.55,-2.8005,-0.1467,2.8043,-93.00,37,500.0,303.0,-2.7957,-0.1184,2.7982,-92.42,0.00,-92.42,0.00,False,NONE,0.000,0,0,STUCK,False,True,True,0,True,STUCK_DETECTED,0.00,0
1764560527.162991,43.002,150,TEST1_DIRECT_FORWARD,False,0.0,0.0,0.0,0.00,0.000,0.0,-114.1,262.0,144.22,144.38,144.22,155.85,87.74,-0.0117,10.0,-0.596,0.0045,0.0264,0.0268,9.67,-2.9977,-0.1163,3.0000,-92.22,37,500.0,303.0,-2.9932,-0.0898,2.9946,-91.72,0.00,-91.72,0.00,False,NONE,0.000,0,0,STUCK,False,True,True,0,True,STUCK_DETECTED,0.00,0
1764560527.2070565,43.046,151,TEST1_DIRECT_FORWARD,True,-52.4,754.1,755.9,356.02,0.987,0.0,-115.3,262.8,144.23,144.36,144.23,155.84,87.76,-0.0043,10.0,-0.602,0.0444,0.3472,0.3500,7.29,0.0000,0.0000,0.0000,0.00,2,550.0,303.0,0.0444,0.3472,0.3500,7.29,-3.98,7.29,11.27,False,NONE,0.000,0,0,STUCK,False,True,True,0,True,STUCK_DETECTED,0.00,35
1764560527.244337,43.083,152,TEST1_DIRECT_FORWARD,True,-52.4,754.1,755.9,356.02,0.987,0.0,-116.3,263.5,144.23,144.34,144.23,155.81,87.75,0.0043,10.0,-0.608,0.0452,0.3471,0.3500,7.41,0.0000,0.0000,0.0000,0.00,2,550.0,303.0,0.0452,0.3471,0.3500,7.41,-3.98,7.41,11.39,False,NONE,0.000,0,0,STUCK,False,True,True,0,True,STUCK_DETECTED,0.00,35
1764560527.2885146,43.127,153,TEST1_DIRECT_FORWARD,True,-52.4,754.1,755.9,356.02,0.987,0.0,-117.4,264.4,144.19,144.08,144.19,155.58,87.66,0.0075,10.0,-0.614,0.0460,0.3470,0.3500,7.56,0.0000,0.0000,0.0000,0.00,2,550.0,303.0,0.0460,0.3470,0.3500,7.56,-3.98,7.56,11.54,False,NONE,0.000,0,0,STUCK,False,True,True,0,True,STUCK_DETECTED,0.00,33
1764560527.3257663,43.165,154,TEST1_DIRECT_FORWARD,True,-52.4,754.1,755.9,356.02,0.987,0.0,-118.4,265.1,144.17,144.22,144.17,155.70,87.78,0.0032,10.0,-0.622,0.0468,0.3469,0.3500,7.69,0.0000,0.0000,0.0000,0.00,2,550.0,303.0,0.0468,0.3469,0.3500,7.69,-3.98,7.69,11.66,False,NONE,0.000,0,0,STUCK,False,True,True,0,True,STUCK_DETECTED,0.00,33
1764560527.3680406,43.207,155,TEST1_DIRECT_FORWARD,True,-52.4,754.1,755.9,356.02,0.987,0.0,-119.6,265.9,144.17,144.20,144.17,155.69,87.80,0.0000,10.0,-0.631,0.0477,0.3467,0.3500,7.83,0.0000,0.0000,0.0000,0.00,2,550.0,303.0,0.0477,0.3467,0.3500,7.83,-3.98,7.83,11.81,False,NONE,0.000,0,0,STUCK,False,True,True,0,True,STUCK_DETECTED,0.00,34
1764560527.4057477,43.245,156,TEST1_DIRECT_FORWARD,True,-52.4,754.1,755.9,356.02,0.987,0.0,-120.6,266.6,144.17,144.18,144.17,155.66,87.79,0.0085,10.0,-0.642,0.0485,0.3466,0.3500,7.96,0.0000,0.0000,0.0000,0.00,2,550.0,303.0,0.0485,0.3466,0.3500,7.96,-3.98,7.96,11.94,False,NONE,0.000,0,0,STUCK,False,True,True,0,True,STUCK_DETECTED,0.00,34
1764560527.4479153,43.287,157,TEST1_DIRECT_FORWARD,True,-52.4,754.1,755.9,356.02,0.987,0.0,-121.7,267.4,144.19,144.18,144.19,155.66,87.79,0.0021,10.0,-0.653,0.0493,0.3465,0.3500,8.10,0.0000,0.0000,0.0000,0.00,2,550.0,303.0,0.0493,0.3465,0.3500,8.10,-3.98,8.10,12.08,False,NONE,0.000,0,0,STUCK,False,True,True,0,True,STUCK_DETECTED,0.00,33
1764560527.48584,43.325,158,TEST1_DIRECT_FORWARD,True,-52.4,754.1,755.9,356.02,0.987,0.0,-122.7,268.2,144.22,144.28,144.22,155.76,87.78,0.0000,10.0,-0.663,0.0501,0.3464,0.3500,8.23,0.0000,0.0000,0.0000,0.00,2,550.0,303.0,0.0501,0.3464,0.3500,8.23,-3.98,8.23,12.21,False,NONE,0.000,0,0,STUCK,False,True,True,0,True,STUCK_DETECTED,0.00,33
1764560527.5245054,43.363,159,TEST1_DIRECT_FORWARD,False,0.0,0.0,0.0,0.00,0.000,0.0,-123.8,269.0,144.24,144.16,144.24,155.65,87.81,0.0021,10.0,-0.674,0.0509,0.3463,0.3500,8.37,-2.9942,-0.1868,3.0000,-93.57,37,500.0,303.0,-2.9432,0.1595,2.9475,-86.90,0.00,-86.90,0.00,False,NONE,0.000,0,0,STUCK,False,True,True,0,True,STUCK_DETECTED,0.00,0
1764560527.56719,43.406,160,TEST1_DIRECT_FORWARD,False,0.0,0.0,0.0,0.00,0.000,0.0,-124.9,269.8,144.22,144.16,144.22,155.65,87.81,0.0064,10.0,-0.687,0.0518,0.3461,0.3500,8.52,-2.9942,-0.1868,3.0000,-93.57,37,500.0,303.0,-2.9424,0.1593,2.9467,-86.90,0.00,-86.90,0.00,False,NONE,0.000,0,0,STUCK,False,True,True,0,True,STUCK_DETECTED,0.00,0
1764560527.603877,43.443,161,TEST1_DIRECT_FORWARD,False,0.0,0.0,0.0,0.00,0.000,0.0,-125.9,270.5,144.18,144.03,144.18,155.52,87.82,-0.0075,10.0,-0.703,0.0526,0.3460,0.3500,8.64,-2.9942,-0.1868,3.0000,-93.57,36,500.0,303.0,-2.9416,0.1592,2.9459,-86.90,0.00,-86.90,0.00,False,NONE,0.000,0,0,STUCK,False,True,True,0,True,STUCK_DETECTED,0.00,0
1764560527.6486676,43.487,162,TEST1_DIRECT_FORWARD,False,0.0,0.0,0.0,0.00,0.000,0.0,-127.1,271.3,144.14,143.90,144.14,155.39,87.82,0.0011,10.0,-0.723,0.0535,0.3459,0.3500,8.79,-2.9942,-0.1868,3.0000,-93.57,36,500.0,303.0,-2.9407,0.1591,2.9450,-86.90,0.00,-86.90,0.00,False,NONE,0.000,0,0,STUCK,False,True,True,0,True,STUCK_DETECTED,0.00,0
1764560527.6841905,43.523,163,TEST1_DIRECT_FORWARD,False,0.0,0.0,0.0,0.00,0.000,0.0,-128.1,272.1,144.14,144.13,144.14,155.62,87.85,-0.0064,10.0,-0.744,0.0543,0.3458,0.3500,8.92,-2.9967,-0.1412,3.0000,-92.70,37,500.0,303.0,-2.9424,0.2045,2.9495,-86.02,0.00,-86.02,0.00,False,NONE,0.000,0,0,STUCK,False,True,True,0,True,STUCK_DETECTED,0.00,0
1764560527.728608,43.567,164,TEST1_DIRECT_FORWARD,False,0.0,0.0,0.0,0.00,0.000,0.0,-129.2,272.9,144.12,144.02,144.12,155.50,87.83,-0.0064,10.0,-0.766,0.0552,0.3456,0.3500,9.07,-2.9942,-0.1868,3.0000,-93.57,37,500.0,303.0,-2.9390,0.1588,2.9433,-86.91,0.00,-86.91,0.00,False,NONE,0.000,0,0,STUCK,False,True,True,0,True,STUCK_DETECTED,0.00,0
1764560527.765615,43.604,165,TEST1_DIRECT_FORWARD,False,0.0,0.0,0.0,0.00,0.000,0.0,-130.2,273.6,144.09,143.87,144.09,155.39,87.71,-0.0043,10.0,-0.788,0.0559,0.3455,0.3500,9.20,-2.9942,-0.1868,3.0000,-93.57,36,500.0,303.0,-2.9382,0.1587,2.9425,-86.91,0.00,-86.91,0.00,False,NONE,0.000,0,0,STUCK,False,True,True,0,True,STUCK_DETECTED,0.00,0
1764560527.8084805,43.647,166,TEST1_DIRECT_FORWARD,False,0.0,0.0,0.0,0.00,0.000,0.0,-131.4,274.4,144.08,144.10,144.08,155.60,87.84,-0.0043,10.0,-0.811,0.0568,0.3454,0.3500,9.35,-2.9942,-0.1868,3.0000,-93.57,36,500.0,303.0,-2.9373,0.1585,2.9416,-86.91,0.00,-86.91,0.00,False,NONE,0.000,0,0,STUCK,False,True,True,0,True,STUCK_DETECTED,0.00,0
1764560527.8460598,43.685,167,TEST1_DIRECT_FORWARD,False,0.0,0.0,0.0,0.00,0.000,0.0,-132.4,275.2,144.08,144.10,144.08,155.60,87.84,-0.0021,10.0,-0.835,0.0576,0.3452,0.3500,9.48,-2.9967,-0.1412,3.0000,-92.70,35,500.0,303.0,-2.9390,0.2040,2.9461,-86.03,0.00,-86.03,0.00,False,NONE,0.000,0,0,STUCK,False,True,True,0,True,STUCK_DETECTED,0.00,0
1764560527.8905,43.729,168,TEST1_DIRECT_FORWARD,True,-47.7,750.0,751.5,356.36,0.989,0.0,-133.5,276.0,144.05,143.97,144.05,155.46,87.85,-0.0138,10.0,-0.861,0.0624,0.3444,0.3500,10.26,0.0000,0.0000,0.0000,0.00,2,550.0,303.0,0.0624,0.3444,0.3500,10.26,-3.64,10.26,13.90,False,NONE,0.000,0,0,STUCK,False,True,True,0,True,STUCK_DETECTED,0.00,33
1764560527.9290574,43.768,169,TEST1_DIRECT_FORWARD,True,-47.7,750.0,751.5,356.36,0.989,0.0,-134.6,276.8,144.05,144.20,144.05,155.69,87.85,0.0096,10.0,-0.889,0.0632,0.3442,0.3500,10.41,0.0000,0.0000,0.0000,0.00,2,550.0,303.0,0.0632,0.3442,0.3500,10.41,-3.64,10.41,14.05,False,NONE,0.000,0,0,STUCK,False,True,True,0,True,STUCK_DETECTED,0.00,33
1764560527.9705868,43.809,170,TEST1_DIRECT_FORWARD,True,-47.7,750.0,751.5,356.36,0.989,0.0,-135.7,277.5,144.05,144.20,144.05,155.69,87.85,-0.0170,10.0,-0.920,0.0640,0.3441,0.3500,10.54,0.0000,0.0000,0.0000,0.00,2,550.0,303.0,0.0640,0.3441,0.3500,10.54,-3.64,10.54,14.18,False,NONE,0.000,0,0,STUCK,False,True,True,0,True,STUCK_DETECTED,0.00,33
