timestamp,elapsed_time,log_number,test_mode,person_detected,person_x_mm,person_y_mm,person_distance_mm,person_angle_deg,person_confidence,time_since_person_update_ms,robot_x_mm,robot_y_mm,robot_orientation_deg,imu_yaw_raw,imu_yaw_smoothed,imu_roll,imu_pitch,imu_angular_vel_z,imu_update_rate,imu_drift_estimate,attr_force_x,attr_force_y,attr_force_magnitude,attr_force_direction_deg,repul_force_x,repul_force_y,repul_force_magnitude,repul_force_direction_deg,num_obstacles_in_range,closest_obstacle_dist_mm,closest_obstacle_angle_deg,total_force_x,total_force_y,total_force_magnitude,total_force_direction_deg,expected_direction_to_person_deg,force_direction_deg,direction_error_deg,direction_mismatch_flag,commanded_direction,commanded_speed,motor_1_speed,motor_2_speed,nav_state,nav_state_changed,goal_reached,stuck_detected,time_in_current_state_s,anomaly_detected,anomaly_type,calculation_time_ms,obstacles_filtered_for_person
1764559993.6077197,128.421,1,TEST1_DIRECT_FORWARD,False,0.0,0.0,0.0,0.00,0.000,0.0,1361.8,25.0,137.23,137.17,137.23,164.18,87.57,0.0138,10.0,0.000,-1.0553,1.4172,1.7669,-36.67,0.9898,0.4616,1.0922,65.00,1,300.0,108.0,-0.0654,1.8788,1.8799,-1.99,0.00,-1.99,0.00,False,FORWARDS,0.564,0,0,SEARCHING,True,False,False,0,False,,0.00,0
1764559993.648733,128.462,2,TEST1_DIRECT_FORWARD,False,0.0,0.0,0.0,0.00,0.000,0.0,1356.6,29.8,137.22,137.19,137.22,164.16,87.69,-0.0032,10.0,0.000,-1.0614,1.4272,1.7786,-36.64,0.9898,0.4616,1.0922,65.00,1,300.0,108.0,-0.0716,1.8888,1.8902,-2.17,0.00,-2.17,0.00,False,FORWARDS,0.567,0,0,SEARCHING,False,False,False,0,False,,0.00,0
1764559993.6870074,128.500,3,TEST1_DIRECT_FORWARD,False,0.0,0.0,0.0,0.00,0.000,0.0,1351.8,34.2,137.21,137.19,137.21,164.16,87.69,0.0000,10.0,0.000,-1.0670,1.4365,1.7894,-36.60,0.9898,0.4616,1.0922,65.00,1,300.0,108.0,-0.0772,1.8981,1.8996,-2.33,0.00,-2.33,0.00,False,FORWARDS,0.570,0,0,SEARCHING,False,False,False,0,False,,0.00,0
1764559993.7293768,128.542,4,TEST1_DIRECT_FORWARD,False,0.0,0.0,0.0,0.00,0.000,0.0,1346.5,39.2,137.20,137.19,137.20,164.16,87.69,0.0000,10.0,0.000,-1.0735,1.4471,1.8018,-36.57,0.9898,0.4616,1.0922,65.00,1,300.0,108.0,-0.0836,1.9087,1.9105,-2.51,0.00,-2.51,0.00,False,FORWARDS,0.573,0,0,SEARCHING,False,False,False,0,False,,0.00,0
1764559993.7707849,128.584,5,TEST1_DIRECT_FORWARD,False,0.0,0.0,0.0,0.00,0.000,0.0,1341.3,43.9,137.19,137.19,137.19,164.16,87.69,-0.0011,10.0,0.000,-1.0797,1.4574,1.8137,-36.53,0.9898,0.4616,1.0922,65.00,1,300.0,108.0,-0.0898,1.9189,1.9210,-2.68,0.00,-2.68,0.00,False,FORWARDS,0.576,0,0,SEARCHING,False,False,False,0,False,,0.00,0
1764559993.813869,128.627,6,TEST1_DIRECT_FORWARD,False,0.0,0.0,0.0,0.00,0.000,0.0,1335.9,48.9,137.18,137.19,137.18,164.16,87.69,0.0096,10.0,0.000,-1.0862,1.4682,1.8264,-36.49,1.2176,0.6332,1.3724,62.52,2,300.0,108.0,0.1313,2.1014,2.1055,3.58,0.00,3.58,0.00,False,FORWARDS,0.632,0,0,SEARCHING,False,False,False,0,False,,0.00,0
1764559993.8523338,128.665,7,TEST1_DIRECT_FORWARD,False,0.0,0.0,0.0,0.00,0.000,0.0,1330.6,53.8,137.18,137.19,137.18,164.16,87.69,-0.0053,10.0,0.000,-1.0927,1.4790,1.8389,-36.46,1.2176,0.6332,1.3724,62.52,2,300.0,108.0,0.1248,2.1122,2.1159,3.38,0.00,3.38,0.00,False,FORWARDS,0.635,0,0,SEARCHING,False,False,False,0,False,,0.00,0
1764559993.8905752,128.704,8,TEST1_DIRECT_FORWARD,False,0.0,0.0,0.0,0.00,0.000,0.0,1324.9,59.1,137.19,137.19,137.19,164.16,87.69,0.0011,10.0,0.000,-1.0998,1.4907,1.8525,-36.42,1.2176,0.6332,1.3724,62.52,2,300.0,108.0,0.1178,2.1239,2.1272,3.17,0.00,3.17,0.00,False,FORWARDS,0.638,0,0,SEARCHING,False,False,False,0,False,,0.00,0
1764559993.9300735,128.743,9,TEST1_DIRECT_FORWARD,False,0.0,0.0,0.0,0.00,0.000,0.0,1319.5,64.1,137.19,137.19,137.19,164.16,87.69,-0.0011,10.0,0.000,-1.1065,1.5020,1.8656,-36.38,1.2176,0.6332,1.3724,62.52,2,300.0,108.0,0.1110,2.1352,2.1381,2.98,0.00,2.98,0.00,False,FORWARDS,0.641,0,0,SEARCHING,False,False,False,0,False,,0.00,0
1764559993.9742281,128.787,10,TEST1_DIRECT_FORWARD,False,0.0,0.0,0.0,0.00,0.000,0.0,1313.5,69.7,137.20,137.31,137.20,164.30,87.52,0.0053,10.0,0.000,-1.1142,1.5148,1.8804,-36.34,1.2176,0.6332,1.3724,62.52,2,300.0,108.0,0.1034,2.1480,2.1504,2.76,0.00,2.76,0.00,False,FORWARDS,0.645,0,0,SEARCHING,False,False,True,0,True,STUCK_DETECTED,0.00,0
1764559994.0094604,128.823,11,TEST1_DIRECT_FORWARD,False,0.0,0.0,0.0,0.00,0.000,0.0,1308.3,74.5,137.22,137.34,137.22,164.26,87.63,0.0096,10.0,0.000,-1.1207,1.5257,1.8931,-36.30,1.2176,0.6332,1.3724,62.52,2,300.0,108.0,0.0969,2.1589,2.1611,2.57,0.00,2.57,0.00,False,FORWARDS,0.648,0,0,SEARCHING,False,False,True,0,True,STUCK_DETECTED,0.00,0
1764559994.0551374,128.868,12,TEST1_DIRECT_FORWARD,False,0.0,0.0,0.0,0.00,0.000,0.0,1302.1,80.2,137.25,137.55,137.25,164.50,87.47,-0.0011,10.0,-0.029,-1.1287,1.5392,1.9087,-36.25,0.0000,0.0000,0.0000,0.00,0,850.0,108.0,-1.1287,1.5392,1.9087,-36.25,0.00,-36.25,0.00,False,FORWARDS_LEFT,0.573,0,0,SEARCHING,False,False,True,0,True,STUCK_DETECTED,0.00,0
1764559994.0930948,128.906,13,TEST1_DIRECT_FORWARD,False,0.0,0.0,0.0,0.00,0.000,0.0,1298.8,83.3,137.31,137.75,137.31,164.68,87.33,0.0107,10.0,-0.020,-1.1330,1.5464,1.9170,-36.23,0.0000,0.0000,0.0000,0.00,0,850.0,108.0,-1.1330,1.5464,1.9170,-36.23,0.00,-36.23,0.00,False,FORWARDS_LEFT,0.575,0,0,SEARCHING,False,False,True,0,True,STUCK_DETECTED,0.00,0
1764559994.139097,128.952,14,TEST1_DIRECT_FORWARD,False,0.0,0.0,0.0,0.00,0.000,0.0,1294.6,87.1,137.37,137.78,137.37,164.64,87.33,0.0000,10.0,-0.008,-1.1384,1.5555,1.9275,-36.20,0.0000,0.0000,0.0000,0.00,0,850.0,108.0,-1.1384,1.5555,1.9275,-36.20,0.00,-36.20,0.00,False,FORWARDS_LEFT,0.578,0,0,SEARCHING,False,False,True,0,True,STUCK_DETECTED,0.00,0
1764559994.183839,128.997,15,TEST1_DIRECT_FORWARD,False,0.0,0.0,0.0,0.00,0.000,0.0,1291.1,90.4,137.42,137.67,137.42,164.50,87.39,-0.0107,10.0,0.006,-1.1430,1.5633,1.9366,-36.17,0.0000,0.0000,0.0000,0.00,0,850.0,108.0,-1.1430,1.5633,1.9366,-36.17,0.00,-36.17,0.00,False,FORWARDS_LEFT,0.581,0,0,SEARCHING,False,False,True,0,True,STUCK_DETECTED,0.00,0
1764559994.2163389,129.029,16,TEST1_DIRECT_FORWARD,False,0.0,0.0,0.0,0.00,0.000,0.0,1287.7,93.5,137.45,137.54,137.45,164.38,87.40,-0.0202,10.0,0.020,-1.1474,1.5708,1.9452,-36.15,0.0000,0.0000,0.0000,0.00,0,850.0,108.0,-1.1474,1.5708,1.9452,-36.15,0.00,-36.15,0.00,False,FORWARDS_LEFT,0.584,0,0,SEARCHING,False,False,True,0,True,STUCK_DETECTED,0.00,0
1764559994.2637846,129.077,17,TEST1_DIRECT_FORWARD,False,0.0,0.0,0.0,0.00,0.000,0.0,1283.9,97.0,137.60,138.64,137.60,165.46,87.58,-0.0309,10.0,0.041,-1.1524,1.5794,1.9551,-36.12,0.0000,0.0000,0.0000,0.00,0,850.0,108.0,-1.1524,1.5794,1.9551,-36.12,0.00,-36.12,0.00,False,FORWARDS_LEFT,0.587,0,0,SEARCHING,False,False,True,0,True,STUCK_DETECTED,0.00,0
1764559994.2969847,129.110,18,TEST1_DIRECT_FORWARD,False,0.0,0.0,0.0,0.00,0.000,0.0,1280.4,100.1,137.84,139.63,137.84,166.44,87.55,0.0096,10.0,0.075,-1.1569,1.5871,1.9640,-36.09,0.0000,0.0000,0.0000,0.00,0,850.0,108.0,-1.1569,1.5871,1.9640,-36.09,0.00,-36.09,0.00,False,FORWARDS_LEFT,0.589,0,0,SEARCHING,False,False,True,0,True,STUCK_DETECTED,0.00,0
1764559994.3446572,129.158,19,TEST1_DIRECT_FORWARD,False,0.0,0.0,0.0,0.00,0.000,0.0,1276.1,104.0,138.09,139.68,138.09,166.50,87.40,-0.0053,10.0,0.118,-1.1625,1.5969,1.9753,-36.05,0.0000,0.0000,0.0000,0.00,0,850.0,108.0,-1.1625,1.5969,1.9753,-36.05,0.00,-36.05,0.00,False,FORWARDS_LEFT,0.593,0,0,SEARCHING,False,False,True,0,True,STUCK_DETECTED,0.00,0
1764559994.3920128,129.205,20,TEST1_DIRECT_FORWARD,False,0.0,0.0,0.0,0.00,0.000,0.0,1271.7,107.9,138.40,140.40,138.40,167.13,87.49,-0.0085,10.0,0.173,-1.1683,1.6069,1.9867,-36.02,0.9898,0.4616,1.0922,65.00,1,300.0,108.0,-0.1784,2.0685,2.0762,-4.93,0.00,-4.93,0.00,False,FORWARDS,0.623,0,0,SEARCHING,False,False,True,0,True,STUCK_DETECTED,0.00,0
1764559994.4301848,129.243,21,TEST1_DIRECT_FORWARD,False,0.0,0.0,0.0,0.00,0.000,0.0,1266.3,112.6,138.77,141.09,138.77,167.60,87.35,-0.0064,10.0,0.242,-1.1752,1.6191,2.0006,-35.97,0.9898,0.4616,1.0922,65.00,1,300.0,108.0,-0.1853,2.0807,2.0889,-5.09,0.00,-5.09,0.00,False,FORWARDS,0.627,0,0,SEARCHING,False,False,True,0,True,STUCK_DETECTED,0.00,0
1764559994.4724936,129.286,22,TEST1_DIRECT_FORWARD,False,0.0,0.0,0.0,0.00,0.000,0.0,1260.3,117.8,139.10,140.87,139.10,167.21,87.29,0.0107,10.0,0.319,-1.1829,1.6328,2.0163,-35.92,0.9898,0.4616,1.0922,65.00,1,300.0,108.0,-0.1930,2.0944,2.1033,-5.27,0.00,-5.27,0.00,False,FORWARDS,0.631,0,0,SEARCHING,False,False,True,0,True,STUCK_DETECTED,0.00,0
1764559994.5146122,129.328,23,TEST1_DIRECT_FORWARD,False,0.0,0.0,0.0,0.00,0.000,0.0,1254.2,123.0,139.40,140.68,139.40,166.84,87.28,0.0032,10.0,0.403,-1.1907,1.6470,2.0323,-35.87,0.9898,0.4616,1.0922,65.00,1,300.0,108.0,-0.2009,2.1085,2.1181,-5.44,0.00,-5.44,0.00,False,FORWARDS,0.635,0,0,SEARCHING,False,False,True,0,True,STUCK_DETECTED,0.00,0
1764559994.556957,129.370,24,TEST1_DIRECT_FORWARD,True,105.5,1699.4,1702.7,3.55,0.683,0.0,1248.1,128.2,139.70,140.77,139.70,166.72,87.23,-0.0011,10.0,0.493,-1.2272,1.6876,2.0866,-36.02,0.9898,0.4616,1.0922,65.00,1,300.0,108.0,-0.2374,2.1491,2.1622,-6.30,3.55,-6.30,-9.86,False,FORWARDS,0.649,0,0,NAVIGATING,True,False,True,0,True,STUCK_DETECTED,0.00,0
1764559994.5946136,129.408,25,TEST1_DIRECT_FORWARD,True,105.5,1699.4,1702.7,3.55,0.683,0.0,1242.4,133.0,140.02,140.89,140.02,166.64,87.26,-0.0053,10.0,0.588,-1.2348,1.7013,2.1022,-35.97,0.0000,0.0000,0.0000,0.00,0,850.0,108.0,-1.2348,1.7013,2.1022,-35.97,3.55,-35.97,-39.53,False,FORWARDS_LEFT,0.631,0,0,STUCK,True,False,True,0,True,STUCK_DETECTED,0.00,0
1764559994.6372452,129.450,26,TEST1_DIRECT_FORWARD,True,105.5,1699.4,1702.7,3.55,0.683,0.0,1238.2,136.5,140.36,140.95,140.36,166.50,87.26,0.0128,10.0,0.690,-1.2404,1.7115,2.1137,-35.93,0.0000,0.0000,0.0000,0.00,0,850.0,108.0,-1.2404,1.7115,2.1137,-35.93,3.55,-35.93,-39.49,False,FORWARDS_LEFT,0.634,0,0,STUCK,False,False,True,0,True,STUCK_DETECTED,0.00,0
1764559994.6793284,129.492,27,TEST1_DIRECT_FORWARD,True,90.2,1671.4,1673.8,3.09,0.662,0.0,1234.1,139.9,140.56,140.68,140.56,166.01,87.19,0.0213,10.0,0.791,-1.2896,1.7268,2.1552,-36.75,0.0000,0.0000,0.0000,0.00,0,850.0,108.0,-1.2896,1.7268,2.1552,-36.75,3.09,-36.75,-39.84,False,FORWARDS_LEFT,0.647,0,0,STUCK,False,False,True,0,True,STUCK_DETECTED,0.00,4
1764559994.7250774,129.538,28,TEST1_DIRECT_FORWARD,True,90.2,1671.4,1673.8,3.09,0.662,0.0,1229.6,143.5,140.59,139.90,140.59,165.10,87.14,0.0288,10.0,0.886,-1.2960,1.7378,2.1679,-36.71,0.0000,0.0000,0.0000,0.00,0,850.0,108.0,-1.2960,1.7378,2.1679,-36.71,3.09,-36.71,-39.80,False,FORWARDS_LEFT,0.650,0,0,STUCK,False,False,True,0,True,STUCK_DETECTED,0.00,4
1764559994.7666304,129.580,29,TEST1_DIRECT_FORWARD,True,90.2,1671.4,1673.8,3.09,0.662,0.0,1224.6,147.6,140.54,139.17,140.54,164.27,87.26,0.0128,10.0,0.973,-1.3031,1.7504,2.1822,-36.67,0.0000,0.0000,0.0000,0.00,0,850.0,108.0,-1.3031,1.7504,2.1822,-36.67,3.09,-36.67,-39.76,False,FORWARDS_LEFT,0.655,0,0,STUCK,False,False,True,0,True,STUCK_DETECTED,0.00,4
1764559994.8098714,129.623,30,TEST1_DIRECT_FORWARD,True,90.2,1671.4,1673.8,3.09,0.662,0.0,1220.2,151.3,140.37,138.74,140.37,163.85,87.29,0.0032,10.0,1.048,-1.3096,1.7618,2.1952,-36.63,0.0000,0.0000,0.0000,0.00,0,850.0,108.0,-1.3096,1.7618,2.1952,-36.63,3.09,-36.63,-39.71,False,FORWARDS_LEFT,0.659,0,0,STUCK,False,False,True,0,True,STUCK_DETECTED,0.00,4
1764559994.8478055,129.661,31,TEST1_DIRECT_FORWARD,True,90.2,1671.4,1673.8,3.09,0.662,0.0,1216.1,154.7,140.15,138.83,140.15,163.91,87.29,0.0011,10.0,1.110,-1.3155,1.7721,2.2070,-36.59,0.0000,0.0000,0.0000,0.00,0,850.0,108.0,-1.3155,1.7721,2.2070,-36.59,3.09,-36.59,-39.68,False,FORWARDS_LEFT,0.662,0,0,STUCK,False,False,True,0,True,STUCK_DETECTED,0.00,4
1764559994.8908355,129.704,32,TEST1_DIRECT_FORWARD,True,90.2,1671.4,1673.8,3.09,0.662,0.0,1211.7,158.4,139.98,139.15,139.98,164.17,87.09,0.0234,10.0,1.162,-1.3222,1.7837,2.2203,-36.55,0.0000,0.0000,0.0000,0.00,0,850.0,108.0,-1.3222,1.7837,2.2203,-36.55,3.09,-36.55,-39.64,False,FORWARDS_LEFT,0.666,0,0,STUCK,False,False,True,0,True,STUCK_DETECTED,0.00,4
1764559994.9322565,129.745,33,TEST1_DIRECT_FORWARD,True,90.2,1671.4,1673.8,3.09,0.662,0.0,1207.3,162.2,139.83,139.24,139.83,164.20,87.00,-0.0053,10.0,1.207,-1.3288,1.7954,2.2337,-36.51,0.0000,0.0000,0.0000,0.00,0,850.0,108.0,-1.3288,1.7954,2.2337,-36.51,3.09,-36.51,-39.60,False,FORWARDS_LEFT,0.670,0,0,STUCK,False,False,True,0,True,STUCK_DETECTED,0.00,4
1764559994.97126,129.784,34,TEST1_DIRECT_FORWARD,True,90.2,1671.4,1673.8,3.09,0.662,0.0,1203.2,165.6,139.72,139.64,139.72,164.48,87.01,-0.0128,10.0,1.246,-1.3350,1.8062,2.2460,-36.47,0.0000,0.0000,0.0000,0.00,0,850.0,108.0,-1.3350,1.8062,2.2460,-36.47,3.09,-36.47,-39.56,False,FORWARDS_LEFT,0.674,0,0,STUCK,False,False,True,0,True,STUCK_DETECTED,0.00,3
1764559995.0177083,129.831,35,TEST1_DIRECT_FORWARD,False,0.0,0.0,0.0,0.00,0.000,0.0,1197.7,170.3,139.60,139.70,139.60,164.12,86.86,0.0181,10.0,1.279,-1.3435,1.8210,2.2630,-36.42,0.0000,0.0000,0.0000,0.00,0,850.0,108.0,-1.3435,1.8210,2.2630,-36.42,0.00,-36.42,0.00,False,FORWARDS_LEFT,0.679,0,0,STUCK,False,False,True,0,True,STUCK_DETECTED,0.00,0
1764559995.0587332,129.872,36,TEST1_DIRECT_FORWARD,False,0.0,0.0,0.0,0.00,0.000,0.0,1193.5,173.9,139.39,138.89,139.39,163.07,86.87,0.0032,10.0,1.304,-1.3500,1.8324,2.2760,-36.38,0.0000,0.0000,0.0000,0.00,0,850.0,108.0,-1.3500,1.8324,2.2760,-36.38,0.00,-36.38,0.00,False,FORWARDS_LEFT,0.683,0,0,STUCK,False,False,True,0,True,STUCK_DETECTED,0.00,0
1764559995.1130335,129.926,37,TEST1_DIRECT_FORWARD,True,114.0,1588.4,1592.5,4.10,0.954,0.0,1188.8,177.9,139.15,138.26,139.15,162.18,86.89,0.0043,10.0,1.321,-1.5178,1.9917,2.5041,-37.31,0.0000,0.0000,0.0000,0.00,0,850.0,108.0,-1.5178,1.9917,2.5041,-37.31,4.10,-37.31,-41.41,False,FORWARDS_LEFT,0.751,0,0,STUCK,False,False,True,0,True,STUCK_DETECTED,0.00,20
1764559995.1714907,129.985,38,TEST1_DIRECT_FORWARD,True,115.1,1544.0,1548.3,4.26,0.969,0.0,1181.0,184.7,139.10,139.35,139.10,162.72,86.96,-0.0085,10.0,1.336,-1.6285,2.0767,2.6391,-38.10,0.0000,0.0000,0.0000,0.00,0,850.0,108.0,-1.6285,2.0767,2.6391,-38.10,4.26,-38.10,-42.37,False,FORWARDS_LEFT,0.792,0,0,STUCK,False,False,True,0,True,STUCK_DETECTED,0.00,27
1764559995.209484,130.023,39,TEST1_DIRECT_FORWARD,True,115.1,1544.0,1548.3,4.26,0.969,0.0,1176.2,188.8,139.11,139.34,139.11,162.42,86.94,0.0043,10.0,1.350,-1.6388,2.0928,2.6582,-38.06,0.0000,0.0000,0.0000,0.00,0,850.0,108.0,-1.6388,2.0928,2.6582,-38.06,4.26,-38.06,-42.33,False,FORWARDS_LEFT,0.797,0,0,STUCK,False,False,True,0,True,STUCK_DETECTED,0.00,24
1764559995.2530124,130.066,40,TEST1_DIRECT_FORWARD,True,146.3,1510.3,1517.4,5.53,0.977,0.0,1170.9,193.5,139.11,138.73,139.11,161.59,86.89,0.0138,10.0,1.364,-1.7372,2.2325,2.8288,-37.89,0.0000,0.0000,0.0000,0.00,0,850.0,108.0,-1.7372,2.2325,2.8288,-37.89,5.53,-37.89,-43.42,False,FORWARDS_LEFT,0.849,0,0,STUCK,False,False,True,0,True,STUCK_DETECTED,0.00,35
1764559995.3117645,130.125,41,TEST1_DIRECT_FORWARD,True,154.9,1495.5,1503.5,5.91,0.989,0.0,1162.6,200.6,139.02,137.89,139.02,160.30,86.93,0.0011,10.0,1.374,-1.7966,2.3085,2.9253,-37.89,0.0000,0.0000,0.0000,0.00,0,850.0,108.0,-1.7966,2.3085,2.9253,-37.89,5.91,-37.89,-43.81,False,FORWARDS_LEFT,0.878,0,0,STUCK,False,False,True,0,True,STUCK_DETECTED,0.00,30
1764559995.3519213,130.165,42,TEST1_DIRECT_FORWARD,True,154.9,1495.5,1503.5,5.91,0.989,0.0,1157.0,205.5,138.88,137.74,138.88,159.94,86.94,-0.0096,10.0,1.381,-1.8107,2.3308,2.9515,-37.84,0.0000,0.0000,0.0000,0.00,0,850.0,108.0,-1.8107,2.3308,2.9515,-37.84,5.91,-37.84,-43.76,False,FORWARDS_LEFT,0.885,0,0,STUCK,False,False,True,0,True,STUCK_DETECTED,0.00,26
1764559995.3968084,130.210,43,TEST1_DIRECT_FORWARD,True,171.1,1487.0,1496.8,6.56,0.995,0.0,1151.0,210.8,138.76,138.02,138.76,159.77,86.95,0.0170,10.0,1.384,-1.8525,2.4125,3.0417,-37.52,0.0000,0.0000,0.0000,0.00,0,850.0,108.0,-1.8525,2.4125,3.0417,-37.52,6.56,-37.52,-44.08,False,FORWARDS_LEFT,0.912,0,0,STUCK,False,False,True,0,True,STUCK_DETECTED,0.00,30
1764559995.4521403,130.265,44,TEST1_DIRECT_FORWARD,True,171.1,1487.0,1496.8,6.56,0.995,0.0,1142.8,218.0,138.52,137.32,138.52,158.67,86.87,-0.0021,10.0,1.382,-1.8742,2.4474,3.0826,-37.45,0.0000,0.0000,0.0000,0.00,0,850.0,108.0,-1.8742,2.4474,3.0826,-37.45,6.56,-37.45,-44.01,False,FORWARDS_LEFT,0.925,0,0,STUCK,False,False,True,0,True,STUCK_DETECTED,0.00,25
1764559995.496152,130.309,45,TEST1_DIRECT_FORWARD,True,200.2,1483.4,1496.8,7.69,0.995,0.0,1136.7,223.5,138.42,138.65,138.42,159.49,86.65,-0.0138,10.0,1.378,-1.9064,2.5647,3.1956,-36.62,0.0000,0.0000,0.0000,0.00,0,850.0,108.0,-1.9064,2.5647,3.1956,-36.62,7.69,-36.62,-44.31,False,FORWARDS_LEFT,0.959,0,0,STUCK,False,False,True,0,True,STUCK_DETECTED,0.00,22
1764559995.5344498,130.348,46,TEST1_DIRECT_FORWARD,True,200.2,1483.4,1496.8,7.69,0.995,0.0,1130.7,228.8,138.53,140.01,138.53,160.39,86.61,-0.0192,10.0,1.376,-1.9230,2.5928,3.2281,-36.56,0.0000,0.0000,0.0000,0.00,0,900.0,108.0,-1.9230,2.5928,3.2281,-36.56,7.69,-36.56,-44.25,False,FORWARDS_LEFT,0.968,0,0,STUCK,False,False,True,0,True,STUCK_DETECTED,0.00,18
1764559995.5979664,130.411,47,TEST1_DIRECT_FORWARD,True,200.2,1483.4,1496.8,7.69,0.995,0.0,1121.6,236.8,138.76,140.57,138.76,160.38,86.62,-0.0160,10.0,1.379,-1.9481,2.6357,3.2775,-36.47,0.0000,0.0000,0.0000,0.00,0,900.0,109.0,-1.9481,2.6357,3.2775,-36.47,7.69,-36.47,-44.16,False,FORWARDS_LEFT,0.983,0,0,STUCK,False,False,True,0,True,STUCK_DETECTED,0.00,13
1764559995.637137,130.450,48,TEST1_DIRECT_FORWARD,True,200.2,1483.4,1496.8,7.69,0.995,0.0,1115.0,242.5,138.89,140.64,138.89,160.11,86.63,-0.0117,10.0,1.385,-1.9663,2.6671,3.3136,-36.40,0.0000,0.0000,0.0000,0.00,0,900.0,109.0,-1.9663,2.6671,3.3136,-36.40,7.69,-36.40,-44.09,False,FORWARDS_LEFT,0.994,0,0,STUCK,False,False,True,0,True,STUCK_DETECTED,0.00,13
1764559995.6798067,130.493,49,TEST1_DIRECT_FORWARD,True,241.7,1419.4,1439.9,9.66,1.000,0.0,1108.5,248.1,139.13,141.72,139.13,160.73,86.56,-0.0352,10.0,1.396,-1.9930,2.6929,3.3502,-36.50,0.0000,0.0000,0.0000,0.00,0,900.0,268.0,-1.9930,2.6929,3.3502,-36.50,9.66,-36.50,-46.17,False,FORWARDS_LEFT,1.000,0,0,STUCK,False,False,True,0,True,STUCK_DETECTED,0.00,29
1764559995.743348,130.556,50,TEST1_DIRECT_FORWARD,True,269.5,1414.4,1439.9,10.79,1.000,0.0,1098.9,256.3,139.63,143.78,139.63,162.13,86.62,-0.0415,10.0,1.416,-1.8839,2.6305,3.2356,-35.61,0.0000,0.0000,0.0000,0.00,0,900.0,268.0,-1.8839,2.6305,3.2356,-35.61,10.79,-35.61,-46.40,False,FORWARDS_LEFT,0.971,0,0,STUCK,False,False,True,0,True,STUCK_DETECTED,0.00,26
1764559995.7832677,130.596,51,TEST1_DIRECT_FORWARD,True,293.0,1362.5,1393.7,12.14,1.000,0.0,1092.1,261.9,140.40,145.50,140.40,163.40,86.52,-0.0352,10.0,1.451,-1.7688,2.4361,3.0105,-35.98,0.0000,0.0000,0.0000,0.00,0,850.0,268.0,-1.7688,2.4361,3.0105,-35.98,12.14,-35.98,-48.12,False,FORWARDS_LEFT,0.903,0,0,STUCK,False,False,True,0,True,STUCK_DETECTED,0.00,31
1764559995.8237526,130.637,52,TEST1_DIRECT_FORWARD,True,293.0,1362.5,1393.7,12.14,1.000,0.0,1086.6,266.3,141.24,146.14,141.24,163.63,86.59,-0.0032,10.0,1.501,-1.7514,2.4192,2.9866,-35.90,0.0000,0.0000,0.0000,0.00,0,850.0,268.0,-1.7514,2.4192,2.9866,-35.90,12.14,-35.90,-48.04,False,FORWARDS_LEFT,0.896,0,0,STUCK,False,False,True,0,True,STUCK_DETECTED,0.00,31
1764559995.8788998,130.692,53,TEST1_DIRECT_FORWARD,True,304.3,1323.5,1358.1,12.95,1.000,0.0,1077.8,273.3,141.95,145.18,141.95,162.32,86.70,0.0160,10.0,1.563,-1.6693,2.2668,2.8152,-36.37,0.0000,0.0000,0.0000,0.00,0,850.0,268.0,-1.6693,2.2668,2.8152,-36.37,12.95,-36.37,-49.32,False,FORWARDS_LEFT,0.845,0,0,STUCK,False,False,True,0,True,STUCK_DETECTED,0.00,38
1764559995.9210896,130.734,54,TEST1_DIRECT_FORWARD,True,304.3,1323.5,1358.1,12.95,1.000,0.0,1072.0,277.7,142.73,145.10,142.73,162.36,86.60,-0.0213,10.0,1.637,-1.6514,2.2498,2.7908,-36.28,0.0000,0.0000,0.0000,0.00,0,800.0,268.0,-1.6514,2.2498,2.7908,-36.28,12.95,-36.28,-49.23,False,FORWARDS_LEFT,0.837,0,0,STUCK,False,False,True,0,True,STUCK_DETECTED,0.00,34
1764559995.9585142,130.772,55,TEST1_DIRECT_FORWARD,True,330.3,1317.3,1358.1,14.07,1.000,0.0,1066.6,281.6,143.31,144.51,143.31,161.86,86.70,-0.0075,10.0,1.720,-1.5633,2.1986,2.6977,-35.41,0.0000,0.0000,0.0000,0.00,0,800.0,268.0,-1.5633,2.1986,2.6977,-35.41,14.07,-35.41,-49.49,False,FORWARDS_LEFT,0.809,0,0,STUCK,False,False,True,0,True,STUCK_DETECTED,0.00,31
1764559996.0272841,130.840,56,TEST1_DIRECT_FORWARD,True,330.3,1317.3,1358.1,14.07,1.000,0.0,1057.3,288.5,143.62,143.07,143.62,159.97,87.00,-0.0181,10.0,1.805,-1.5347,2.1716,2.6591,-35.25,0.0000,0.0000,0.0000,0.00,0,800.0,268.0,-1.5347,2.1716,2.6591,-35.25,14.07,-35.25,-49.32,False,FORWARDS_LEFT,0.798,0,0,STUCK,False,False,True,0,True,STUCK_DETECTED,0.00,29
1764559996.0655963,130.879,57,TEST1_DIRECT_FORWARD,True,330.3,1317.3,1358.1,14.07,1.000,0.0,1052.1,292.3,143.86,142.95,143.86,159.33,86.96,0.0128,10.0,1.891,-1.5188,2.1566,2.6378,-35.16,0.0000,0.0000,0.0000,0.00,7,750.0,268.0,-1.5188,2.1566,2.6378,-35.16,14.07,-35.16,-49.23,False,FORWARDS_LEFT,0.791,0,0,STUCK,False,False,True,0,True,STUCK_DETECTED,0.00,25
1764559996.0984375,130.912,58,TEST1_DIRECT_FORWARD,True,330.3,1317.3,1358.1,14.07,1.000,0.0,1047.0,296.0,143.93,141.37,143.93,157.58,87.02,0.0447,10.0,1.975,-1.5034,2.1421,2.6170,-35.06,0.0000,0.0000,0.0000,0.00,7,750.0,268.0,-1.5034,2.1421,2.6170,-35.06,14.07,-35.06,-49.14,False,FORWARDS_LEFT,0.785,0,0,STUCK,False,False,True,0,True,STUCK_DETECTED,0.00,25
1764559996.1563392,130.969,59,TEST1_DIRECT_FORWARD,True,330.3,1317.3,1358.1,14.07,1.000,0.0,1039.9,301.3,143.62,138.59,143.62,154.55,87.16,-0.0138,10.0,2.051,-1.4816,2.1213,2.5875,-34.93,0.0000,0.0000,0.0000,0.00,12,750.0,268.0,-1.4816,2.1213,2.5875,-34.93,14.07,-34.93,-49.01,False,FORWARDS_LEFT,0.776,0,0,STUCK,False,False,True,0,True,STUCK_DETECTED,0.00,19
1764559996.1915658,131.005,60,TEST1_DIRECT_FORWARD,False,0.0,0.0,0.0,0.00,0.000,0.0,1034.6,305.2,143.19,139.53,143.19,155.03,87.20,-0.0011,10.0,2.117,-1.4656,2.1059,2.5657,-34.84,0.0000,0.0000,0.0000,0.00,12,750.0,268.0,-1.4656,2.1059,2.5657,-34.84,0.00,-34.84,0.00,False,FORWARDS_LEFT,0.770,0,0,STUCK,False,False,True,0,True,STUCK_DETECTED,0.00,0
1764559996.229632,131.043,61,TEST1_DIRECT_FORWARD,False,0.0,0.0,0.0,0.00,0.000,0.0,1029.6,309.1,142.64,139.96,142.64,154.97,87.01,0.0234,10.0,2.172,-1.4502,2.0908,2.5446,-34.75,0.0000,0.0000,0.0000,0.00,22,700.0,268.0,-1.4502,2.0908,2.5446,-34.75,0.00,-34.75,0.00,False,FORWARDS_LEFT,0.763,0,0,STUCK,False,False,True,0,True,STUCK_DETECTED,0.00,0
1764559996.2871199,131.100,62,TEST1_DIRECT_FORWARD,False,0.0,0.0,0.0,0.00,0.000,0.0,1022.5,314.6,141.99,139.69,141.99,154.30,86.91,-0.0107,10.0,2.214,-1.4285,2.0693,2.5145,-34.62,0.0000,0.0000,0.0000,0.00,33,700.0,268.0,-1.4285,2.0693,2.5145,-34.62,0.00,-34.62,0.00,False,FORWARDS_LEFT,0.754,0,0,STUCK,False,False,True,0,True,STUCK_DETECTED,0.00,0
1764559996.324936,131.138,63,TEST1_DIRECT_FORWARD,False,0.0,0.0,0.0,0.00,0.000,0.0,1017.9,318.3,141.45,139.77,141.45,154.45,87.07,-0.0234,10.0,2.247,-1.4144,2.0550,2.4947,-34.54,0.0000,0.0000,0.0000,0.00,33,700.0,268.0,-1.4144,2.0550,2.4947,-34.54,0.00,-34.54,0.00,False,FORWARDS_LEFT,0.748,0,0,STUCK,False,False,True,0,True,STUCK_DETECTED,0.00,0
1764559996.3730888,131.186,64,TEST1_DIRECT_FORWARD,True,321.9,1220.0,1261.8,14.78,1.000,0.0,1012.5,322.7,140.95,140.05,140.95,154.88,87.02,0.0192,10.0,2.270,-1.3496,1.7539,2.2131,-37.58,0.0000,0.0000,0.0000,0.00,46,650.0,268.0,-1.3496,1.7539,2.2131,-37.58,14.78,-37.58,-52.36,False,FORWARDS_LEFT,0.664,0,0,STUCK,False,False,True,0,True,STUCK_DETECTED,0.00,27
1764559996.4442146,131.257,65,TEST1_DIRECT_FORWARD,True,345.8,1213.5,1261.8,15.91,1.000,0.0,1005.9,328.1,140.38,138.85,140.38,153.64,86.99,0.0224,10.0,2.284,-1.2644,1.6959,2.1153,-36.71,0.0000,0.0000,0.0000,0.00,46,650.0,268.0,-1.2644,1.6959,2.1153,-36.71,15.91,-36.71,-52.61,False,FORWARDS_LEFT,0.635,0,0,STUCK,False,False,True,0,True,STUCK_DETECTED,0.00,27
1764559996.4718685,131.285,66,TEST1_DIRECT_FORWARD,True,364.0,1155.1,1211.1,17.49,0.999,0.0,1002.0,331.4,139.90,138.22,139.90,152.63,87.06,-0.0234,10.0,2.290,-1.1615,1.4996,1.8968,-37.76,0.0000,0.0000,0.0000,0.00,54,650.0,268.0,-1.1615,1.4996,1.8968,-37.76,17.49,-37.76,-55.25,False,FORWARDS_LEFT,0.569,0,0,STUCK,False,False,True,0,True,STUCK_DETECTED,0.00,31
1764559996.519477,131.333,67,TEST1_DIRECT_FORWARD,True,364.0,1155.1,1211.1,17.49,0.999,0.0,998.3,334.6,139.53,139.26,139.53,153.30,87.03,-0.0288,10.0,2.290,-1.1496,1.4873,1.8798,-37.70,0.0000,0.0000,0.0000,0.00,54,650.0,268.0,-1.1496,1.4873,1.8798,-37.70,17.49,-37.70,-55.19,False,FORWARDS_LEFT,0.564,0,0,STUCK,False,False,True,0,True,STUCK_DETECTED,0.00,31
1764559996.5580034,131.371,68,TEST1_DIRECT_FORWARD,True,364.0,1155.1,1211.1,17.49,0.999,0.0,993.8,338.4,139.46,140.71,139.46,154.39,87.07,0.0053,10.0,2.289,-1.1356,1.4727,1.8597,-37.64,0.0000,0.0000,0.0000,0.00,59,650.0,268.0,-1.1356,1.4727,1.8597,-37.64,17.49,-37.64,-55.13,False,FORWARDS_LEFT,0.558,0,0,STUCK,False,False,True,0,True,STUCK_DETECTED,0.00,24
1764559996.6007495,131.414,69,TEST1_DIRECT_FORWARD,True,364.0,1155.1,1211.1,17.49,0.999,0.0,990.1,341.5,139.74,141.38,139.74,155.00,86.81,-0.0138,10.0,2.292,-1.1240,1.4607,1.8431,-37.58,-2.1004,-1.7934,2.7618,-130.49,77,600.0,268.0,-3.2244,-0.3327,3.2415,-95.89,17.49,-95.89,-113.38,True,LEFT,0.681,0,0,STUCK,False,False,True,0,True,FORCE_AWAY_FROM_PERSON|STUCK_DETECTED,0.00,18
1764559996.6411996,131.454,70,TEST1_DIRECT_FORWARD,True,386.6,1147.8,1211.1,18.62,0.999,0.0,990.1,341.5,140.03,142.44,140.03,155.95,86.87,-0.0479,10.0,2.300,-1.0635,1.4208,1.7747,-36.82,-2.1004,-1.7934,2.7618,-130.49,77,600.0,268.0,-3.1638,-0.3726,3.1857,-96.72,18.62,-96.72,-115.33,True,LEFT,0.669,0,0,STUCK,False,False,True,0,True,FORCE_AWAY_FROM_PERSON|STUCK_DETECTED,0.00,18
1764559996.6839275,131.497,71,TEST1_DIRECT_FORWARD,True,386.6,1147.8,1211.1,18.62,0.999,0.0,990.1,341.5,140.46,144.21,140.46,157.46,86.86,-0.0043,10.0,2.313,-1.0635,1.4208,1.7747,-36.82,-2.9317,-2.7212,4.0000,-132.87,88,600.0,268.0,-3.9952,-1.3005,4.2015,-108.03,18.62,-108.03,-126.65,True,LEFT,0.700,0,0,STUCK,False,False,True,0,True,FORCE_AWAY_FROM_PERSON|STUCK_DETECTED,0.00,19
1764559996.7297595,131.543,72,TEST1_DIRECT_FORWARD,True,386.6,1147.8,1211.1,18.62,0.999,0.0,990.1,341.5,140.81,143.22,140.81,156.32,86.94,0.0469,10.0,2.331,-1.0635,1.4208,1.7747,-36.82,-2.9317,-2.7212,4.0000,-132.87,88,600.0,268.0,-3.9952,-1.3005,4.2015,-108.03,18.62,-108.03,-126.65,True,LEFT,0.700,0,0,STUCK,False,False,True,0,True,FORCE_AWAY_FROM_PERSON|STUCK_DETECTED,0.00,19
1764559996.7691104,131.582,73,TEST1_DIRECT_FORWARD,True,386.6,1147.8,1211.1,18.62,0.999,0.0,990.1,341.5,140.92,140.86,140.92,154.11,86.99,0.0309,10.0,2.349,-1.0635,1.4208,1.7747,-36.82,-2.9055,-2.7492,4.0000,-133.42,90,600.0,268.0,-3.9690,-1.3284,4.1854,-108.50,18.62,-108.50,-127.12,True,LEFT,0.700,0,0,STUCK,False,False,True,0,True,FORCE_AWAY_FROM_PERSON|STUCK_DETECTED,0.00,18
1764559996.8183775,131.631,74,TEST1_DIRECT_FORWARD,False,0.0,0.0,0.0,0.00,0.000,0.0,990.1,341.5,140.97,140.55,140.97,154.26,86.99,-0.0170,10.0,2.368,-1.0635,1.4208,1.7747,-36.82,-2.9055,-2.7492,4.0000,-133.42,90,600.0,268.0,-3.9690,-1.3284,4.1854,-108.50,0.00,-108.50,0.00,False,LEFT,0.700,0,0,STUCK,False,False,True,0,True,STUCK_DETECTED,0.00,0
1764559996.8562112,131.669,75,TEST1_DIRECT_FORWARD,False,0.0,0.0,0.0,0.00,0.000,0.0,990.1,341.5,141.23,141.40,141.23,155.32,87.04,-0.0277,10.0,2.390,-1.0635,1.4208,1.7747,-36.82,-2.8790,-2.7770,4.0000,-133.97,92,600.0,268.0,-3.9424,-1.3562,4.1692,-108.98,0.00,-108.98,0.00,False,LEFT,0.700,0,0,STUCK,False,False,True,0,True,STUCK_DETECTED,0.00,0
1764559996.895557,131.709,76,TEST1_DIRECT_FORWARD,False,0.0,0.0,0.0,0.00,0.000,0.0,990.1,341.5,141.63,142.24,141.63,156.28,87.02,-0.0021,10.0,2.417,-1.0635,1.4208,1.7747,-36.82,-2.8790,-2.7770,4.0000,-133.97,92,600.0,268.0,-3.9424,-1.3562,4.1692,-108.98,0.00,-108.98,0.00,False,LEFT,0.700,0,0,STUCK,False,False,True,0,True,STUCK_DETECTED,0.00,0
1764559996.9367962,131.750,77,TEST1_DIRECT_FORWARD,True,442.4,978.9,1074.2,24.32,0.996,0.0,990.1,341.5,141.98,142.75,141.98,156.68,86.91,0.0352,10.0,2.448,-0.7765,0.9036,1.1914,-40.67,-2.8030,-2.8537,4.0000,-135.51,92,600.0,268.0,-3.5795,-1.9501,4.0762,-118.58,24.32,-118.58,-142.90,True,BACKWARDS_LEFT,0.500,0,0,STUCK,False,False,True,0,True,FORCE_AWAY_FROM_PERSON|STUCK_DETECTED,0.00,24
1764559996.9821055,131.795,78,TEST1_DIRECT_FORWARD,True,442.4,978.9,1074.2,24.32,0.996,0.0,993.6,338.8,142.08,141.79,142.08,155.78,86.95,0.0202,10.0,2.479,-0.7874,0.9143,1.2067,-40.73,-2.7036,-2.9479,4.0000,-137.48,97,600.0,268.0,-3.4910,-2.0336,4.0402,-120.22,24.32,-120.22,-144.54,True,BACKWARDS_LEFT,0.500,0,0,STUCK,False,False,True,0,True,FORCE_AWAY_FROM_PERSON|STUCK_DETECTED,0.00,19
1764559997.0243056,131.837,79,TEST1_DIRECT_FORWARD,True,447.0,889.3,995.3,26.68,0.995,0.0,997.1,336.1,142.09,141.48,142.09,155.58,86.93,-0.0117,10.0,2.509,-0.6914,0.6953,0.9806,-44.84,-2.7323,-2.9214,4.0000,-136.91,87,600.0,268.0,-3.4238,-2.2260,4.0838,-123.03,26.68,-123.03,-149.71,True,BACKWARDS_LEFT,0.500,0,0,STUCK,False,False,True,0,True,FORCE_AWAY_FROM_PERSON|STUCK_DETECTED,0.00,36
1764559997.0736446,131.887,80,TEST1_DIRECT_FORWARD,True,470.3,831.2,955.1,29.50,0.996,0.0,1001.4,332.7,142.25,144.03,142.25,157.93,86.91,-0.0288,10.0,2.541,-0.5830,0.5472,0.7996,-46.82,-2.6729,-2.9759,4.0000,-138.07,90,600.0,268.0,-3.2559,-2.4287,4.0619,-126.72,29.50,-126.72,-156.22,True,BACKWARDS_LEFT,0.500,0,0,STUCK,False,False,True,0,True,FORCE_AWAY_FROM_PERSON|STUCK_DETECTED,0.00,38
1764559997.1111577,131.924,81,TEST1_DIRECT_FORWARD,True,470.3,831.2,955.1,29.50,0.996,0.0,1004.4,330.4,142.29,144.59,142.29,158.26,86.99,-0.0288,10.0,2.573,-0.5928,0.5558,0.8126,-46.84,-2.7302,-2.9234,4.0000,-136.96,90,600.0,268.0,-3.3230,-2.3675,4.0801,-125.47,29.50,-125.47,-154.97,True,BACKWARDS_LEFT,0.500,0,0,STUCK,False,False,True,0,True,FORCE_AWAY_FROM_PERSON|STUCK_DETECTED,0.00,38
1764559997.155169,131.968,82,TEST1_DIRECT_FORWARD,True,459.7,816.5,937.0,29.38,0.996,0.0,1007.9,327.8,142.51,145.41,142.51,158.73,86.97,-0.0234,10.0,2.606,-0.6123,0.5459,0.8204,-48.28,-2.6041,-3.0362,4.0000,-139.38,90,600.0,271.0,-3.2164,-2.4903,4.0678,-127.75,29.38,-127.75,-157.13,True,BACKWARDS_LEFT,0.500,0,0,STUCK,False,False,True,0,True,FORCE_AWAY_FROM_PERSON|STUCK_DETECTED,0.00,40
1764559997.2067606,132.020,83,TEST1_DIRECT_FORWARD,True,459.7,816.5,937.0,29.38,0.996,0.0,1012.1,324.6,142.89,144.67,142.89,157.26,87.05,-0.0053,10.0,2.643,-0.6264,0.5578,0.8387,-48.31,-2.5831,-3.0541,4.0000,-139.78,90,600.0,271.0,-3.2094,-2.4963,4.0660,-127.88,29.38,-127.88,-157.26,True,BACKWARDS_LEFT,0.500,0,0,STUCK,False,False,True,0,True,FORCE_AWAY_FROM_PERSON|STUCK_DETECTED,0.00,40
1764559997.2490342,132.062,84,TEST1_DIRECT_FORWARD,True,459.7,816.5,937.0,29.38,0.996,0.0,1015.6,321.9,143.26,144.23,143.26,156.22,87.02,0.0373,10.0,2.684,-0.6383,0.5678,0.8543,-48.34,-2.5448,-3.0861,4.0000,-140.49,95,600.0,267.0,-3.1831,-2.5183,4.0588,-128.35,29.38,-128.35,-157.73,True,BACKWARDS_LEFT,0.500,0,0,STUCK,False,False,True,0,True,FORCE_AWAY_FROM_PERSON|STUCK_DETECTED,0.00,38
1764559997.2956185,132.109,85,TEST1_DIRECT_FORWARD,True,475.6,807.3,937.0,30.51,0.996,0.0,1019.6,319.0,143.51,143.91,143.51,155.07,86.86,0.0298,10.0,2.727,-0.6016,0.5400,0.8084,-48.09,-2.5434,-3.0873,4.0000,-140.52,95,600.0,268.0,-3.1449,-2.5472,4.0471,-129.01,30.51,-129.01,-159.51,True,BACKWARDS_LEFT,0.500,0,0,STUCK,False,False,True,0,True,FORCE_AWAY_FROM_PERSON|STUCK_DETECTED,0.00,34
1764559997.330704,132.144,86,TEST1_DIRECT_FORWARD,True,475.6,807.3,937.0,30.51,0.996,0.0,1023.1,316.4,143.53,142.42,143.53,152.76,86.94,0.0085,10.0,2.769,-0.6131,0.5497,0.8234,-48.12,-2.5285,-3.0995,4.0000,-140.79,95,600.0,268.0,-3.1416,-2.5497,4.0461,-129.06,30.51,-129.06,-159.57,True,BACKWARDS_LEFT,0.500,0,0,STUCK,False,False,True,0,True,FORCE_AWAY_FROM_PERSON|STUCK_DETECTED,0.00,34
1764559997.3751853,132.188,87,TEST1_DIRECT_FORWARD,True,475.6,807.3,937.0,30.51,0.996,0.0,1026.6,313.8,143.39,141.40,143.39,150.75,87.08,-0.0075,10.0,2.808,-0.6249,0.5597,0.8389,-48.15,-2.5340,-3.0950,4.0000,-140.69,96,600.0,268.0,-3.1589,-2.5353,4.0504,-128.75,30.51,-128.75,-159.26,True,BACKWARDS_LEFT,0.500,0,0,STUCK,False,False,True,0,True,FORCE_AWAY_FROM_PERSON|STUCK_DETECTED,0.00,32
1764559997.4120698,132.225,88,TEST1_DIRECT_FORWARD,True,475.6,807.3,937.0,30.51,0.996,0.0,1029.8,311.4,143.43,142.18,143.43,151.04,87.07,0.0064,10.0,2.847,-0.6356,0.5687,0.8529,-48.18,-2.5285,-3.0995,4.0000,-140.79,96,600.0,268.0,-3.1641,-2.5307,4.0517,-128.65,30.51,-128.65,-159.16,True,BACKWARDS_LEFT,0.500,0,0,STUCK,False,False,True,0,True,FORCE_AWAY_FROM_PERSON|STUCK_DETECTED,0.00,32
1764559997.45988,132.273,89,TEST1_DIRECT_FORWARD,True,485.4,791.7,928.6,31.51,0.992,0.0,1033.9,308.4,143.55,142.68,143.55,151.19,86.89,0.0085,10.0,2.887,-0.6068,0.5346,0.8087,-48.62,-2.5340,-3.0950,4.0000,-140.69,90,600.0,268.0,-3.1407,-2.5604,4.0521,-129.19,31.51,-129.19,-160.70,True,BACKWARDS_LEFT,0.500,0,0,STUCK,False,False,True,0,True,FORCE_AWAY_FROM_PERSON|STUCK_DETECTED,0.00,28
1764559997.4980702,132.311,90,TEST1_DIRECT_FORWARD,True,500.8,782.0,928.6,32.64,0.992,0.0,1037.1,306.0,143.42,142.70,143.42,151.00,86.89,-0.0213,10.0,2.924,-0.5683,0.5044,0.7598,-48.41,-2.5231,-3.1039,4.0000,-140.89,88,600.0,268.0,-3.0913,-2.5995,4.0390,-130.06,32.64,-130.06,-162.70,True,BACKWARDS_LEFT,0.500,0,0,STUCK,False,False,True,0,True,FORCE_AWAY_FROM_PERSON|STUCK_DETECTED,0.00,30
1764559997.5471215,132.360,91,TEST1_DIRECT_FORWARD,True,500.8,782.0,928.6,32.64,0.992,0.0,1040.8,303.3,143.27,143.12,143.27,151.21,87.04,-0.0362,10.0,2.958,-0.5805,0.5147,0.7758,-48.44,-2.5634,-3.0707,4.0000,-140.14,88,600.0,268.0,-3.1439,-2.5560,4.0518,-129.11,32.64,-129.11,-161.75,True,BACKWARDS_LEFT,0.500,0,0,STUCK,False,False,True,0,True,FORCE_AWAY_FROM_PERSON|STUCK_DETECTED,0.00,26
1764559997.5992005,132.412,92,TEST1_DIRECT_FORWARD,True,516.0,777.1,932.8,33.58,0.946,0.0,1045.1,300.1,143.17,144.40,143.17,152.39,87.00,-0.0021,10.0,2.991,-0.5521,0.4978,0.7434,-47.96,-2.5673,-3.0674,4.0000,-140.07,88,600.0,268.0,-3.1193,-2.5696,4.0414,-129.48,33.58,-129.48,-163.06,True,BACKWARDS_LEFT,0.500,0,0,STUCK,False,False,True,0,True,FORCE_AWAY_FROM_PERSON|STUCK_DETECTED,0.00,26
1764559997.6331565,132.446,93,TEST1_DIRECT_FORWARD,True,516.0,777.1,932.8,33.58,0.946,0.0,1048.4,297.6,143.08,143.72,143.08,151.93,86.99,0.0501,10.0,3.022,-0.5631,0.5072,0.7578,-47.99,-2.5618,-3.0720,4.0000,-140.17,89,600.0,268.0,-3.1249,-2.5648,4.0427,-129.38,33.58,-129.38,-162.96,True,BACKWARDS_LEFT,0.500,0,0,STUCK,False,False,True,0,True,FORCE_AWAY_FROM_PERSON|STUCK_DETECTED,0.00,20
1764559997.6842663,132.497,94,TEST1_DIRECT_FORWARD,True,528.5,777.5,940.1,34.20,0.785,0.0,1051.9,294.9,142.69,140.41,142.69,149.35,87.40,0.0341,10.0,3.048,-0.5452,0.5028,0.7417,-47.32,-2.5785,-3.0580,4.0000,-139.86,89,600.0,268.0,-3.1237,-2.5552,4.0357,-129.28,34.20,-129.28,-163.49,True,BACKWARDS_LEFT,0.500,0,0,STUCK,False,False,True,0,True,FORCE_AWAY_FROM_PERSON|STUCK_DETECTED,0.00,20
1764559997.728297,132.541,95,TEST1_DIRECT_FORWARD,True,553.7,769.3,947.9,35.75,0.708,0.0,1056.4,291.4,142.19,138.84,142.19,148.62,87.59,-0.0298,10.0,3.069,-0.4910,0.4668,0.6775,-46.45,-2.5789,-3.0577,4.0000,-139.86,92,600.0,268.0,-3.0699,-2.5909,4.0171,-130.16,35.75,-130.16,-165.91,True,BACKWARDS_LEFT,0.500,0,0,STUCK,False,False,True,0,True,FORCE_AWAY_FROM_PERSON|STUCK_DETECTED,0.00,14
1764559997.7686768,132.582,96,TEST1_DIRECT_FORWARD,True,553.7,769.3,947.9,35.75,0.708,0.0,1059.6,288.9,142.00,140.54,142.00,150.83,87.57,-0.0266,10.0,3.086,-0.5016,0.4763,0.6917,-46.48,-2.5673,-3.0674,4.0000,-140.07,91,600.0,268.0,-3.0689,-2.5911,4.0164,-130.18,35.75,-130.18,-165.92,True,BACKWARDS_LEFT,0.500,0,0,STUCK,False,False,True,0,True,FORCE_AWAY_FROM_PERSON|STUCK_DETECTED,0.00,10
1764559997.8084297,132.622,97,TEST1_DIRECT_FORWARD,True,553.7,769.3,947.9,35.75,0.708,0.0,1063.1,286.2,142.12,142.60,142.12,153.36,87.51,-0.0128,10.0,3.105,-0.5131,0.4867,0.7072,-46.52,-2.5789,-3.0577,4.0000,-139.86,91,600.0,268.0,-3.0920,-2.5710,4.0213,-129.74,35.75,-129.74,-165.49,True,BACKWARDS_LEFT,0.500,0,0,STUCK,False,False,True,0,True,FORCE_AWAY_FROM_PERSON|STUCK_DETECTED,0.00,10
1764559997.8489149,132.662,98,TEST1_DIRECT_FORWARD,True,553.7,769.3,947.9,35.75,0.708,0.0,1066.3,283.7,142.27,143.66,142.27,155.01,87.42,0.0075,10.0,3.125,-0.5236,0.4960,0.7212,-46.55,-2.5543,-3.0782,4.0000,-140.31,91,600.0,268.0,-3.0779,-2.5822,4.0176,-130.00,35.75,-130.00,-165.74,True,BACKWARDS_LEFT,0.500,0,0,STUCK,False,False,True,0,True,FORCE_AWAY_FROM_PERSON|STUCK_DETECTED,0.00,8
1764559997.8900898,132.703,99,TEST1_DIRECT_FORWARD,True,553.7,769.3,947.9,35.75,0.708,0.0,1069.8,281.0,142.33,143.28,142.33,155.94,87.53,0.0181,10.0,3.145,-0.5352,0.5064,0.7368,-46.58,-2.5673,-3.0674,4.0000,-140.07,91,600.0,268.0,-3.1025,-2.5610,4.0230,-129.54,35.75,-129.54,-165.28,True,BACKWARDS_LEFT,0.500,0,0,STUCK,False,False,True,0,True,FORCE_AWAY_FROM_PERSON|STUCK_DETECTED,0.00,8
1764559997.9351523,132.748,100,TEST1_DIRECT_FORWARD,True,568.7,758.3,947.9,36.87,0.708,0.0,1073.3,278.3,142.20,141.43,142.20,156.10,87.63,-0.0021,10.0,3.164,-0.4982,0.4739,0.6876,-46.43,-2.5785,-3.0580,4.0000,-139.86,93,600.0,268.0,-3.0767,-2.5841,4.0179,-130.03,36.87,-130.03,-166.90,True,BACKWARDS_LEFT,0.500,0,0,STUCK,False,False,True,0,True,FORCE_AWAY_FROM_PERSON|STUCK_DETECTED,0.00,8
1764559997.967625,132.781,101,TEST1_DIRECT_FORWARD,True,568.7,758.3,947.9,36.87,0.708,0.0,1076.4,275.9,141.98,140.92,141.98,157.03,87.64,0.0043,10.0,3.179,-0.5083,0.4830,0.7011,-46.46,-2.5785,-3.0580,4.0000,-139.86,93,600.0,268.0,-3.0867,-2.5751,4.0198,-129.84,36.87,-129.84,-166.71,True,BACKWARDS_LEFT,0.500,0,0,STUCK,False,False,True,0,True,FORCE_AWAY_FROM_PERSON|STUCK_DETECTED,0.00,8
1764559998.0142722,132.827,102,TEST1_DIRECT_FORWARD,True,568.7,758.3,947.9,36.87,0.708,0.0,1079.9,273.1,141.66,141.20,141.66,158.57,87.61,0.0000,10.0,3.224,-0.5197,0.4933,0.7165,-46.49,-2.5543,-3.0782,4.0000,-140.31,93,600.0,268.0,-3.0740,-2.5850,4.0164,-130.06,36.87,-130.06,-166.93,True,BACKWARDS_LEFT,0.500,0,0,STUCK,False,False,True,0,True,FORCE_AWAY_FROM_PERSON|STUCK_DETECTED,0.00,6
1764559998.048317,132.861,103,TEST1_DIRECT_FORWARD,False,0.0,0.0,0.0,0.00,0.000,0.0,1082.9,270.7,141.41,141.21,141.41,159.06,87.62,0.0011,10.0,3.266,-0.5299,0.5025,0.7303,-46.52,-2.5543,-3.0782,4.0000,-140.31,99,600.0,268.0,-3.0842,-2.5758,4.0183,-129.87,0.00,-129.87,0.00,False,BACKWARDS_LEFT,0.500,0,0,STUCK,False,False,True,0,True,STUCK_DETECTED,0.00,0
1764559998.0984404,132.912,104,TEST1_DIRECT_FORWARD,False,0.0,0.0,0.0,0.00,0.000,0.0,1087.0,267.4,141.31,139.42,141.31,158.01,87.69,0.0107,10.0,3.307,-0.5433,0.5146,0.7483,-46.56,-2.5209,-3.1057,4.0000,-140.93,98,600.0,268.0,-3.0642,-2.5911,4.0129,-130.22,0.00,-130.22,0.00,False,BACKWARDS_LEFT,0.500,0,0,STUCK,False,False,True,0,True,STUCK_DETECTED,0.00,0
1764559998.139756,132.953,105,TEST1_DIRECT_FORWARD,False,0.0,0.0,0.0,0.00,0.000,0.0,1090.1,265.0,141.33,139.00,141.33,158.48,87.75,0.0032,10.0,3.348,-0.5536,0.5239,0.7622,-46.58,-2.5329,-3.0959,4.0000,-140.71,98,600.0,268.0,-3.0865,-2.5720,4.0177,-129.81,0.00,-129.81,0.00,False,BACKWARDS_LEFT,0.500,0,0,STUCK,False,False,True,0,True,STUCK_DETECTED,0.00,0
1764559998.1787636,132.992,106,TEST1_DIRECT_FORWARD,False,0.0,0.0,0.0,0.00,0.000,0.0,1093.6,262.1,141.24,139.63,141.24,159.80,87.83,-0.0064,10.0,3.389,-0.5653,0.5344,0.7779,-46.61,-2.5063,-3.1175,4.0000,-141.20,99,600.0,268.0,-3.0716,-2.5831,4.0134,-130.06,0.00,-130.06,0.00,False,BACKWARDS_LEFT,0.500,0,0,STUCK,False,False,True,0,True,STUCK_DETECTED,0.00,0
1764559998.2234783,133.037,107,TEST1_DIRECT_FORWARD,False,0.0,0.0,0.0,0.00,0.000,0.0,1097.4,259.0,140.94,139.62,140.94,160.18,87.84,-0.0011,10.0,3.426,-0.5781,0.5459,0.7952,-46.64,-2.4266,-3.1798,4.0000,-142.65,100,600.0,268.0,-3.0048,-2.6339,3.9958,-131.24,0.00,-131.24,0.00,False,BACKWARDS_LEFT,0.500,0,0,STUCK,False,False,True,0,True,STUCK_DETECTED,0.00,0
1764559998.2602699,133.073,108,TEST1_DIRECT_FORWARD,False,0.0,0.0,0.0,0.00,0.000,0.0,1100.5,256.5,140.49,139.19,140.49,160.17,87.81,0.0107,10.0,3.459,-0.5883,0.5552,0.8089,-46.66,-2.4062,-3.1953,4.0000,-143.02,100,600.0,268.0,-2.9946,-2.6402,3.9922,-131.40,0.00,-131.40,0.00,False,BACKWARDS_LEFT,0.500,0,0,STUCK,False,False,True,0,True,STUCK_DETECTED,0.00,0
1764559998.3053076,133.118,109,TEST1_DIRECT_FORWARD,False,0.0,0.0,0.0,0.00,0.000,0.0,1104.0,253.6,139.99,138.25,139.99,159.99,87.73,0.0021,10.0,3.487,-0.6002,0.5659,0.8249,-46.68,-2.2724,-3.2918,4.0000,-145.38,98,600.0,268.0,-2.8726,-2.7259,3.9601,-133.50,0.00,-133.50,0.00,False,BACKWARDS_LEFT,0.500,0,0,STUCK,False,False,True,0,True,STUCK_DETECTED,0.00,0
1764559998.3478317,133.161,110,TEST1_DIRECT_FORWARD,True,499.4,678.6,842.6,36.35,0.847,0.0,1107.2,250.9,139.68,138.37,139.68,161.04,87.74,-0.0096,10.0,3.512,-0.6961,0.4899,0.8512,-54.86,-2.1986,-3.3416,4.0000,-146.66,55,600.0,268.0,-2.8947,-2.8516,4.0634,-134.57,36.35,-134.57,-170.92,True,BACKWARDS_LEFT,0.500,0,0,STUCK,False,False,True,0,True,FORCE_AWAY_FROM_PERSON|STUCK_DETECTED,0.00,52
1764559998.3957462,133.209,111,TEST1_DIRECT_FORWARD,True,499.4,678.6,842.6,36.35,0.847,0.0,1110.7,247.8,139.49,139.04,139.49,162.54,87.80,0.0117,10.0,3.535,-0.7091,0.4997,0.8675,-54.83,-2.1986,-3.3416,4.0000,-146.66,53,600.0,268.0,-2.9078,-2.8418,4.0658,-134.34,36.35,-134.34,-170.69,True,BACKWARDS_LEFT,0.500,0,0,STUCK,False,False,True,0,True,FORCE_AWAY_FROM_PERSON|STUCK_DETECTED,0.00,55
1764559998.4276152,133.241,112,TEST1_DIRECT_FORWARD,True,499.4,678.6,842.6,36.35,0.847,0.0,1113.6,245.4,139.20,138.25,139.20,162.30,87.88,0.0085,10.0,3.554,-0.7196,0.5076,0.8806,-54.80,-2.1986,-3.3416,4.0000,-146.66,53,600.0,268.0,-2.9182,-2.8340,4.0678,-134.16,36.35,-134.16,-170.51,True,BACKWARDS_LEFT,0.500,0,0,STUCK,False,False,True,0,True,FORCE_AWAY_FROM_PERSON|STUCK_DETECTED,0.00,55
1764559998.4785645,133.292,113,TEST1_DIRECT_FORWARD,True,499.4,678.6,842.6,36.35,0.847,0.0,1117.4,242.0,138.79,137.16,138.79,161.66,87.99,0.0192,10.0,3.569,-0.7337,0.5184,0.8984,-54.76,-1.8414,-2.9432,3.4718,-147.97,47,600.0,268.0,-2.5751,-2.4248,3.5371,-133.28,36.35,-133.28,-169.63,True,BACKWARDS_LEFT,0.500,0,0,STUCK,False,False,True,0,True,FORCE_AWAY_FROM_PERSON|STUCK_DETECTED,0.00,62
1764559998.516295,133.329,114,TEST1_DIRECT_FORWARD,True,499.4,678.6,842.6,36.35,0.847,0.0,1120.6,239.2,138.45,136.00,138.45,161.09,87.86,0.0107,10.0,3.580,-0.7455,0.5274,0.9132,-54.72,-1.8632,-2.9348,3.4763,-147.59,47,600.0,268.0,-2.6088,-2.4074,3.5498,-132.70,36.35,-132.70,-169.05,True,BACKWARDS_LEFT,0.500,0,0,STUCK,False,False,True,0,True,FORCE_AWAY_FROM_PERSON|STUCK_DETECTED,0.00,62
1764559998.557347,133.370,115,TEST1_DIRECT_FORWARD,True,512.6,668.7,842.6,37.48,0.847,0.0,1123.6,236.5,138.10,135.51,138.10,161.26,87.88,-0.0021,10.0,3.587,-0.7095,0.5019,0.8691,-54.73,-1.5750,-2.5897,3.0310,-148.69,43,600.0,268.0,-2.2845,-2.0878,3.0948,-132.42,37.48,-132.42,-169.90,True,BACKWARDS_LEFT,0.464,0,0,STUCK,False,False,True,0,True,FORCE_AWAY_FROM_PERSON|STUCK_DETECTED,0.00,71
1764559998.6075356,133.421,116,TEST1_DIRECT_FORWARD,True,512.6,668.7,842.6,37.48,0.847,0.0,1126.9,233.5,137.70,135.66,137.70,162.53,87.92,-0.0085,10.0,3.589,-0.7218,0.5114,0.8846,-54.68,-1.5968,-2.5813,3.0353,-148.26,43,600.0,268.0,-2.3187,-2.0699,3.1081,-131.76,37.48,-131.76,-169.23,True,BACKWARDS_LEFT,0.466,0,0,STUCK,False,False,True,0,True,FORCE_AWAY_FROM_PERSON|STUCK_DETECTED,0.00,71
1764559998.6405537,133.454,117,TEST1_DIRECT_FORWARD,True,512.6,668.7,842.6,37.48,0.847,0.0,1129.7,230.9,137.36,136.17,137.36,163.50,88.04,0.0043,10.0,3.587,-0.7324,0.5196,0.8979,-54.65,-1.8343,-2.9465,3.4708,-148.10,42,600.0,268.0,-2.5666,-2.4270,3.5324,-133.40,37.48,-133.40,-170.87,True,BACKWARDS_LEFT,0.500,0,0,STUCK,False,False,True,0,True,FORCE_AWAY_FROM_PERSON|STUCK_DETECTED,0.00,73
1764559998.6841457,133.497,118,TEST1_DIRECT_FORWARD,False,0.0,0.0,0.0,0.00,0.000,0.0,1132.9,227.9,136.94,134.96,136.94,162.59,88.13,0.0160,10.0,3.578,-0.7444,0.5290,0.9132,-54.60,-1.5968,-2.5813,3.0353,-148.26,99,600.0,268.0,-2.3412,-2.0523,3.1134,-131.24,0.00,-131.24,0.00,False,BACKWARDS_LEFT,0.467,0,0,STUCK,False,False,True,0,True,STUCK_DETECTED,0.00,0
1764559998.7318206,133.545,119,TEST1_DIRECT_FORWARD,False,0.0,0.0,0.0,0.00,0.000,0.0,1136.5,224.5,136.39,132.82,136.39,161.21,88.11,-0.0085,10.0,3.561,-0.7580,0.5397,0.9306,-54.55,-1.3741,-2.2119,2.6040,-148.15,100,600.0,268.0,-2.1322,-1.6722,2.7097,-128.11,0.00,-128.11,0.00,False,BACKWARDS_LEFT,0.406,0,0,STUCK,False,False,True,0,True,STUCK_DETECTED,0.00,0
1764559998.7665071,133.580,120,TEST1_DIRECT_FORWARD,False,0.0,0.0,0.0,0.00,0.000,0.0,1138.8,222.3,135.98,134.20,135.98,163.32,88.05,-0.0352,10.0,3.537,-0.7665,0.5464,0.9413,-54.51,-1.4252,-2.1931,2.6155,-146.98,97,600.0,268.0,-2.1917,-1.6467,2.7413,-126.92,0.00,-126.92,0.00,False,BACKWARDS_LEFT,0.411,0,0,STUCK,False,False,True,0,True,STUCK_DETECTED,0.00,0
1764559998.8073184,133.620,121,TEST1_DIRECT_FORWARD,False,0.0,0.0,0.0,0.00,0.000,0.0,1141.4,219.8,135.64,135.68,135.64,165.21,88.19,-0.0053,10.0,3.505,-0.7764,0.5543,0.9539,-54.47,-1.1877,-1.8279,2.1798,-146.98,97,600.0,268.0,-1.9641,-1.2735,2.3408,-122.96,0.00,-122.96,0.00,False,BACKWARDS_LEFT,0.351,0,0,STUCK,False,False,True,0,True,STUCK_DETECTED,0.00,0
1764559998.8474522,133.661,122,TEST1_DIRECT_FORWARD,False,0.0,0.0,0.0,0.00,0.000,0.0,1143.4,217.8,135.42,136.04,135.42,165.94,88.18,-0.0181,10.0,3.469,-0.7840,0.5605,0.9637,-54.44,-1.2242,-1.8144,2.1888,-145.99,93,600.0,267.0,-2.0082,-1.2539,2.3675,-121.98,0.00,-121.98,0.00,False,BACKWARDS_LEFT,0.355,0,0,STUCK,False,False,True,0,True,STUCK_DETECTED,0.00,0
1764559998.8911026,133.704,123,TEST1_DIRECT_FORWARD,False,0.0,0.0,0.0,0.00,0.000,0.0,1145.7,215.5,135.36,136.54,135.36,166.92,88.25,-0.0138,10.0,3.428,-0.7927,0.5674,0.9748,-54.40,-0.9721,-1.4544,1.7493,-146.24,93,600.0,267.0,-1.7647,-0.8870,1.9751,-116.68,0.00,-116.68,0.00,False,BACKWARDS_LEFT,0.296,0,0,STUCK,False,False,True,0,True,STUCK_DETECTED,0.00,0
1764559998.92978,133.743,124,TEST1_DIRECT_FORWARD,False,0.0,0.0,0.0,0.00,0.000,0.0,1147.3,213.9,135.46,136.99,135.46,167.84,88.30,0.0075,10.0,3.386,-0.7990,0.5725,0.9830,-54.38,-0.2593,-0.3569,0.4411,-144.00,89,600.0,267.0,-1.0583,0.2157,1.0800,-78.48,0.00,-78.48,0.00,False,LEFT,0.227,0,0,STUCK,False,False,True,0,True,STUCK_DETECTED,0.00,0
1764559998.9706275,133.784,125,TEST1_DIRECT_FORWARD,False,0.0,0.0,0.0,0.00,0.000,0.0,1147.3,213.9,135.60,136.97,135.60,168.96,88.32,-0.0192,10.0,3.342,-0.7990,0.5725,0.9830,-54.38,-0.2593,-0.3569,0.4411,-144.00,89,600.0,267.0,-1.0583,0.2157,1.0800,-78.48,0.00,-78.48,0.00,False,LEFT,0.227,0,0,STUCK,False,False,True,0,True,STUCK_DETECTED,0.00,0
1764559999.01241,133.826,126,TEST1_DIRECT_FORWARD,False,0.0,0.0,0.0,0.00,0.000,0.0,1147.3,213.9,135.68,136.41,135.68,168.95,88.36,0.0117,10.0,3.295,-0.7990,0.5725,0.9830,-54.38,0.0000,0.0000,0.0000,0.00,83,650.0,267.0,-0.7990,0.5725,0.9830,-54.38,0.00,-54.38,0.00,False,FORWARDS_LEFT,0.295,0,0,STUCK,False,False,True,0,True,STUCK_DETECTED,0.00,0
1764559999.0472865,133.860,127,TEST1_DIRECT_FORWARD,False,0.0,0.0,0.0,0.00,0.000,0.0,1145.7,215.5,135.69,136.32,135.69,169.12,88.51,0.0032,10.0,3.246,-0.7928,0.5676,0.9750,-54.40,0.0000,0.0000,0.0000,0.00,83,650.0,267.0,-0.7928,0.5676,0.9750,-54.40,0.00,-54.40,0.00,False,FORWARDS_LEFT,0.293,0,0,STUCK,False,False,True,0,True,STUCK_DETECTED,0.00,0
1764559999.0925646,133.906,128,TEST1_DIRECT_FORWARD,True,603.5,706.7,929.3,40.50,0.992,0.0,1143.8,217.3,135.85,136.49,135.85,169.62,88.30,-0.0043,10.0,3.199,-0.5942,0.5382,0.8017,-47.83,0.0000,0.0000,0.0000,0.00,21,650.0,268.0,-0.5942,0.5382,0.8017,-47.83,40.50,-47.83,-88.33,False,FORWARDS_LEFT,0.241,0,0,STUCK,False,False,True,0,True,STUCK_DETECTED,0.00,90
1764559999.1320512,133.945,129,TEST1_DIRECT_FORWARD,True,603.5,706.7,929.3,40.50,0.992,0.0,1142.5,218.6,136.28,137.16,136.28,170.67,88.18,-0.0075,10.0,3.156,-0.5893,0.5336,0.7950,-47.84,0.0000,0.0000,0.0000,0.00,21,650.0,268.0,-0.5893,0.5336,0.7950,-47.84,40.50,-47.84,-88.33,False,FORWARDS_LEFT,0.239,0,0,STUCK,False,False,True,0,True,STUCK_DETECTED,0.00,90
1764559999.1708708,133.984,130,TEST1_DIRECT_FORWARD,True,603.5,706.7,929.3,40.50,0.992,0.0,1141.0,220.0,136.58,137.24,136.58,171.57,88.17,0.0053,10.0,3.118,-0.5840,0.5288,0.7878,-47.84,0.0000,0.0000,0.0000,0.00,18,650.0,268.0,-0.5840,0.5288,0.7878,-47.84,40.50,-47.84,-88.34,False,FORWARDS_LEFT,0.236,0,0,STUCK,False,False,True,0,True,STUCK_DETECTED,0.00,92
1764559999.2149377,134.028,131,TEST1_DIRECT_FORWARD,True,617.2,694.7,929.3,41.62,0.992,0.0,1139.4,221.5,136.72,137.02,136.72,172.68,88.23,0.0064,10.0,3.084,-0.5307,0.4810,0.7163,-47.82,0.0000,0.0000,0.0000,0.00,18,650.0,268.0,-0.5307,0.4810,0.7163,-47.82,41.62,-47.82,-89.44,False,FORWARDS_LEFT,0.215,0,0,STUCK,False,False,True,0,True,STUCK_DETECTED,0.00,92
1764559999.259352,134.072,132,TEST1_DIRECT_FORWARD,True,617.2,694.7,929.3,41.62,0.992,0.0,1138.0,222.8,136.73,136.18,136.73,173.32,88.41,-0.0053,10.0,3.052,-0.5258,0.4764,0.7095,-47.82,0.0000,0.0000,0.0000,0.00,13,650.0,268.0,-0.5258,0.4764,0.7095,-47.82,41.62,-47.82,-89.44,False,FORWARDS_LEFT,0.213,0,0,STUCK,False,False,True,0,True,STUCK_DETECTED,0.00,90
1764559999.2949564,134.108,133,TEST1_DIRECT_FORWARD,True,617.2,694.7,929.3,41.62,0.992,0.0,1136.7,224.0,136.72,136.43,136.72,174.58,88.33,-0.0234,10.0,3.020,-0.5214,0.4724,0.7035,-47.82,0.0000,0.0000,0.0000,0.00,13,650.0,268.0,-0.5214,0.4724,0.7035,-47.82,41.62,-47.82,-89.44,False,FORWARDS_LEFT,0.211,0,0,STUCK,False,False,True,0,True,STUCK_DETECTED,0.00,90
1764559999.3461874,134.159,134,TEST1_DIRECT_FORWARD,True,617.2,694.7,929.3,41.62,0.992,0.0,1135.1,225.5,136.90,138.79,136.90,177.96,88.24,-0.0373,10.0,2.992,-0.5157,0.4672,0.6959,-47.82,0.0000,0.0000,0.0000,0.00,10,750.0,267.0,-0.5157,0.4672,0.6959,-47.82,41.62,-47.82,-89.45,False,FORWARDS_LEFT,0.209,0,0,STUCK,False,False,True,0,True,STUCK_DETECTED,0.00,88
1764559999.3932438,134.206,135,TEST1_DIRECT_FORWARD,False,0.0,0.0,0.0,0.00,0.000,0.0,1133.6,226.9,137.05,138.41,137.05,177.99,88.12,0.0469,10.0,2.967,-0.5104,0.4623,0.6886,-47.83,0.0000,0.0000,0.0000,0.00,60,650.0,267.0,-0.5104,0.4623,0.6886,-47.83,0.00,-47.83,0.00,False,FORWARDS_LEFT,0.207,0,0,STUCK,False,False,True,0,True,STUCK_DETECTED,0.00,0
1764559999.4224124,134.236,136,TEST1_DIRECT_FORWARD,False,0.0,0.0,0.0,0.00,0.000,0.0,1132.6,227.9,136.99,135.87,136.99,175.76,88.19,0.0149,10.0,2.943,-0.5067,0.4590,0.6836,-47.83,0.0000,0.0000,0.0000,0.00,56,650.0,267.0,-0.5067,0.4590,0.6836,-47.83,0.00,-47.83,0.00,False,FORWARDS_LEFT,0.205,0,0,STUCK,False,False,True,0,True,STUCK_DETECTED,0.00,0
1764559999.4686606,134.282,137,TEST1_DIRECT_FORWARD,False,0.0,0.0,0.0,0.00,0.000,0.0,1131.1,229.2,137.01,136.50,137.01,176.41,88.34,-0.0224,10.0,2.921,-0.5015,0.4543,0.6767,-47.83,0.0000,0.0000,0.0000,0.00,52,650.0,267.0,-0.5015,0.4543,0.6767,-47.83,0.00,-47.83,0.00,False,FORWARDS_LEFT,0.203,0,0,STUCK,False,False,True,0,True,STUCK_DETECTED,0.00,0
1764559999.507065,134.320,138,TEST1_DIRECT_FORWARD,False,0.0,0.0,0.0,0.00,0.000,0.0,1129.9,230.4,137.25,138.86,137.25,178.75,88.18,-0.0320,10.0,2.903,-0.4973,0.4504,0.6709,-47.83,0.0000,0.0000,0.0000,0.00,52,650.0,267.0,-0.4973,0.4504,0.6709,-47.83,0.00,-47.83,0.00,False,FORWARDS_LEFT,0.201,0,0,STUCK,False,False,True,0,True,STUCK_DETECTED,0.00,0
1764559999.551424,134.365,139,TEST1_DIRECT_FORWARD,False,0.0,0.0,0.0,0.00,0.000,0.0,1128.6,231.6,137.30,137.66,137.30,177.42,88.29,0.0394,10.0,2.885,-0.4926,0.4461,0.6646,-47.83,0.0000,0.0000,0.0000,0.00,46,650.0,267.0,-0.4926,0.4461,0.6646,-47.83,0.00,-47.83,0.00,False,FORWARDS_LEFT,0.199,0,0,STUCK,False,False,True,0,True,STUCK_DETECTED,0.00,0
1764559999.5916808,134.405,140,TEST1_DIRECT_FORWARD,False,0.0,0.0,0.0,0.00,0.000,0.0,1127.3,232.7,136.93,133.62,136.93,173.71,88.36,0.0256,10.0,2.863,-0.4882,0.4421,0.6586,-47.84,0.0000,0.0000,0.0000,0.00,46,650.0,267.0,-0.4882,0.4421,0.6586,-47.84,0.00,-47.84,0.00,False,FORWARDS_LEFT,0.198,0,0,STUCK,False,False,True,0,True,STUCK_DETECTED,0.00,0
1764559999.629691,134.443,141,TEST1_DIRECT_FORWARD,False,0.0,0.0,0.0,0.00,0.000,0.0,1126.2,233.8,136.48,132.54,136.48,172.67,88.45,-0.0149,10.0,2.837,-0.4841,0.4384,0.6531,-47.84,0.0000,0.0000,0.0000,0.00,40,650.0,267.0,-0.4841,0.4384,0.6531,-47.84,0.00,-47.84,0.00,False,FORWARDS_LEFT,0.196,0,0,RECOVERING,True,False,True,0,True,STUCK_DETECTED,0.00,0
1764559999.672044,134.485,142,TEST1_DIRECT_FORWARD,False,0.0,0.0,0.0,0.00,0.000,0.0,1124.9,235.0,136.33,134.58,136.33,174.47,88.54,-0.0362,10.0,2.812,-0.4797,0.4343,0.6471,-47.84,0.0000,0.0000,0.0000,0.00,40,650.0,267.0,-0.4797,0.4343,0.6471,-47.84,0.00,-47.84,0.00,False,FORWARDS_LEFT,0.194,0,0,RECOVERING,False,False,True,0,True,STUCK_DETECTED,0.00,0
1764559999.7128143,134.526,143,TEST1_DIRECT_FORWARD,False,0.0,0.0,0.0,0.00,0.000,0.0,1123.7,236.2,136.33,136.48,136.33,176.28,88.48,-0.0128,10.0,2.788,-0.4752,0.4302,0.6410,-47.85,0.0000,0.0000,0.0000,0.00,33,700.0,267.0,-0.4752,0.4302,0.6410,-47.85,0.00,-47.85,0.00,False,FORWARDS_LEFT,0.192,0,0,RECOVERING,False,False,True,0,True,STUCK_DETECTED,0.00,0
1764559999.754464,134.568,144,TEST1_DIRECT_FORWARD,False,0.0,0.0,0.0,0.00,0.000,0.0,1122.5,237.4,136.04,135.90,136.04,176.00,88.37,0.0224,10.0,2.763,-0.4709,0.4262,0.6351,-47.85,0.0000,0.0000,0.0000,0.00,33,700.0,267.0,-0.4709,0.4262,0.6351,-47.85,0.00,-47.85,0.00,False,FORWARDS_LEFT,0.191,0,0,RECOVERING,False,False,True,0,True,STUCK_DETECTED,0.00,0
1764559999.7960532,134.609,145,TEST1_DIRECT_FORWARD,True,1101.3,1264.1,1676.6,41.06,1.000,0.0,1121.4,238.5,135.61,134.11,135.61,174.83,88.23,0.0298,10.0,2.735,-0.0359,1.8400,1.8403,-1.12,0.0000,0.0000,0.0000,0.00,29,700.0,267.0,-0.0359,1.8400,1.8403,-1.12,41.06,-1.12,-42.18,False,FORWARDS,0.552,0,0,RECOVERING,False,False,True,0,True,STUCK_DETECTED,0.00,3
1764559999.8383763,134.651,146,TEST1_DIRECT_FORWARD,True,1101.3,1264.1,1676.6,41.06,1.000,0.0,1116.3,243.4,135.38,133.57,135.38,174.56,88.40,-0.0149,10.0,2.703,-0.0268,1.8225,1.8227,-0.84,0.0000,0.0000,0.0000,0.00,29,700.0,267.0,-0.0268,1.8225,1.8227,-0.84,41.06,-0.84,-41.91,False,FORWARDS,0.547,0,0,RECOVERING,False,False,True,0,True,STUCK_DETECTED,0.00,3
1764559999.87459,134.688,147,TEST1_DIRECT_FORWARD,True,1125.9,1242.2,1676.6,42.19,1.000,0.0,1112.0,247.8,135.21,134.78,135.21,176.01,88.34,-0.0149,10.0,2.668,0.0243,1.7307,1.7309,0.81,0.0000,0.0000,0.0000,0.00,24,700.0,267.0,0.0243,1.7307,1.7309,0.81,42.19,0.81,-41.38,False,FORWARDS,0.519,0,0,RECOVERING,False,False,True,0,True,STUCK_DETECTED,0.00,3
1764559999.922512,134.736,148,TEST1_DIRECT_FORWARD,True,1125.9,1242.2,1676.6,42.19,1.000,0.0,1107.2,252.6,134.94,136.15,134.94,177.56,88.47,-0.0192,10.0,2.628,0.0325,1.7141,1.7144,1.09,0.0000,0.0000,0.0000,0.00,24,700.0,267.0,0.0325,1.7141,1.7144,1.09,42.19,1.09,-41.10,False,FORWARDS,0.514,0,0,RECOVERING,False,False,True,0,True,STUCK_DETECTED,0.00,3
1764559999.9573457,134.770,149,TEST1_DIRECT_FORWARD,True,1125.9,1242.2,1676.6,42.19,1.000,0.0,1102.9,256.9,134.86,136.86,134.86,178.36,88.34,0.0053,10.0,2.586,0.0397,1.6992,1.6997,1.34,0.0000,0.0000,0.0000,0.00,23,700.0,267.0,0.0397,1.6992,1.6997,1.34,42.19,1.34,-40.85,False,FORWARDS,0.510,0,0,RECOVERING,False,False,True,0,True,STUCK_DETECTED,0.00,3
1764560000.0069022,134.820,150,TEST1_DIRECT_FORWARD,True,1125.9,1242.2,1676.6,42.19,1.000,0.0,1098.3,261.5,135.13,136.28,135.13,177.74,88.24,0.0107,10.0,2.541,0.0475,1.6834,1.6840,1.61,0.0000,0.0000,0.0000,0.00,23,700.0,267.0,0.0475,1.6834,1.6840,1.61,42.19,1.61,-40.57,False,FORWARDS,0.505,0,0,RECOVERING,False,False,True,0,True,STUCK_DETECTED,0.00,3
1764560000.0375104,134.851,151,TEST1_DIRECT_FORWARD,True,1125.9,1242.2,1676.6,42.19,1.000,0.0,1094.3,265.4,135.34,134.67,135.34,176.15,88.43,0.0352,10.0,2.490,0.0541,1.6697,1.6705,1.86,0.0000,0.0000,0.0000,0.00,21,700.0,267.0,0.0541,1.6697,1.6705,1.86,42.19,1.86,-40.33,False,FORWARDS,0.501,0,0,RECOVERING,False,False,True,0,True,STUCK_DETECTED,0.00,3
1764560000.0875828,134.901,152,TEST1_DIRECT_FORWARD,True,1125.9,1242.2,1676.6,42.19,1.000,0.0,1089.8,269.9,135.20,133.20,135.20,175.23,88.37,-0.0266,10.0,2.430,0.0615,1.6544,1.6555,2.13,0.0000,0.0000,0.0000,0.00,21,700.0,267.0,0.0615,1.6544,1.6555,2.13,42.19,2.13,-40.06,False,FORWARDS,0.497,0,0,RECOVERING,False,False,True,0,True,STUCK_DETECTED,0.00,3
1764560000.117175,134.930,153,TEST1_DIRECT_FORWARD,False,0.0,0.0,0.0,0.00,0.000,0.0,1085.5,274.2,135.10,135.49,135.10,177.64,88.46,-0.0234,10.0,2.361,0.0685,1.6397,1.6411,2.39,0.0000,0.0000,0.0000,0.00,20,700.0,267.0,0.0685,1.6397,1.6411,2.39,0.00,2.39,0.00,False,FORWARDS,0.492,0,0,RECOVERING,False,False,True,0,True,STUCK_DETECTED,0.00,0
1764560000.1609452,134.974,154,TEST1_DIRECT_FORWARD,False,0.0,0.0,0.0,0.00,0.000,0.0,1081.2,278.5,135.33,138.16,135.33,-179.54,88.21,-0.0224,10.0,2.287,0.0755,1.6250,1.6268,2.66,0.0000,0.0000,0.0000,0.00,22,700.0,267.0,0.0755,1.6250,1.6268,2.66,0.00,2.66,0.00,False,FORWARDS,0.488,0,0,RECOVERING,False,False,True,0,True,STUCK_DETECTED,0.00,0
1764560000.203611,135.017,155,TEST1_DIRECT_FORWARD,False,0.0,0.0,0.0,0.00,0.000,0.0,1076.7,282.8,135.87,139.53,135.87,-178.12,88.17,0.0117,10.0,2.213,0.0827,1.6102,1.6123,2.94,0.0000,0.0000,0.0000,0.00,22,700.0,267.0,0.0827,1.6102,1.6123,2.94,0.00,2.94,0.00,False,FORWARDS,0.484,0,0,RECOVERING,False,False,True,0,True,STUCK_DETECTED,0.00,0
1764560000.2427962,135.056,156,TEST1_DIRECT_FORWARD,False,0.0,0.0,0.0,0.00,0.000,0.0,1072.5,286.8,136.28,137.68,136.28,-179.30,88.05,0.0618,10.0,2.139,0.0894,1.5966,1.5991,3.20,0.0000,0.0000,0.0000,0.00,29,700.0,267.0,0.0894,1.5966,1.5991,3.20,0.00,3.20,0.00,False,FORWARDS,0.480,0,0,RECOVERING,False,False,True,0,True,STUCK_DETECTED,0.00,0
1764560000.2871497,135.100,157,TEST1_DIRECT_FORWARD,False,0.0,0.0,0.0,0.00,0.000,0.0,1068.0,291.1,136.24,134.39,136.24,178.19,88.18,0.0341,10.0,2.063,0.0964,1.5821,1.5850,3.49,0.0000,0.0000,0.0000,0.00,29,700.0,267.0,0.0964,1.5821,1.5850,3.49,0.00,3.49,0.00,False,FORWARDS,0.476,0,0,RECOVERING,False,False,True,0,True,STUCK_DETECTED,0.00,0
1764560000.3240561,135.137,158,TEST1_DIRECT_FORWARD,False,0.0,0.0,0.0,0.00,0.000,0.0,1064.2,294.8,135.88,132.60,135.88,177.03,88.33,-0.0277,10.0,1.983,0.1023,1.5697,1.5730,3.73,0.0000,0.0000,0.0000,0.00,33,700.0,267.0,0.1023,1.5697,1.5730,3.73,0.00,3.73,0.00,False,FORWARDS,0.472,0,0,RECOVERING,False,False,True,0,True,STUCK_DETECTED,0.00,0
1764560000.368621,135.182,159,TEST1_DIRECT_FORWARD,False,0.0,0.0,0.0,0.00,0.000,0.0,1059.8,299.1,135.77,135.74,135.77,-179.86,88.53,-0.0234,10.0,1.904,0.1091,1.5552,1.5590,4.01,0.0000,0.0000,0.0000,0.00,33,700.0,267.0,0.1091,1.5552,1.5590,4.01,0.00,4.01,0.00,False,FORWARDS,0.468,0,0,RECOVERING,False,False,True,0,True,STUCK_DETECTED,0.00,0
1764560000.4042432,135.217,160,TEST1_DIRECT_FORWARD,False,0.0,0.0,0.0,0.00,0.000,0.0,1056.1,302.7,135.82,136.74,135.82,-178.84,88.39,0.0032,10.0,1.830,0.1147,1.5432,1.5475,4.25,0.0000,0.0000,0.0000,0.00,35,700.0,267.0,0.1147,1.5432,1.5475,4.25,0.00,4.25,0.00,False,FORWARDS,0.464,0,0,RECOVERING,False,False,True,0,True,STUCK_DETECTED,0.00,0
1764560000.4448414,135.258,161,TEST1_DIRECT_FORWARD,False,0.0,0.0,0.0,0.00,0.000,0.0,1052.0,306.6,135.81,134.56,135.81,178.95,88.32,0.0437,10.0,1.762,0.1209,1.5300,1.5348,4.52,0.0000,0.0000,0.0000,0.00,35,700.0,267.0,0.1209,1.5300,1.5348,4.52,0.00,4.52,0.00,False,FORWARDS,0.460,0,0,RECOVERING,False,False,True,0,True,STUCK_DETECTED,0.00,0
1764560000.4864466,135.300,162,TEST1_DIRECT_FORWARD,False,0.0,0.0,0.0,0.00,0.000,0.0,1047.8,310.7,135.65,131.57,135.65,176.33,88.09,0.0288,10.0,1.699,0.1272,1.5163,1.5216,4.79,0.0000,0.0000,0.0000,0.00,42,650.0,267.0,0.1272,1.5163,1.5216,4.79,0.00,4.79,0.00,False,FORWARDS,0.456,0,0,RECOVERING,False,False,True,0,True,STUCK_DETECTED,0.00,0
1764560000.523606,135.337,163,TEST1_DIRECT_FORWARD,False,0.0,0.0,0.0,0.00,0.000,0.0,1044.1,314.4,135.13,130.35,135.13,175.71,88.13,-0.0032,10.0,1.635,0.1326,1.5041,1.5099,5.04,0.0000,0.0000,0.0000,0.00,42,650.0,267.0,0.1326,1.5041,1.5099,5.04,0.00,5.04,0.00,False,FORWARDS,0.453,0,0,RECOVERING,False,False,True,0,True,STUCK_DETECTED,0.00,0
