timestamp,elapsed_time,log_number,test_mode,person_detected,person_x_mm,person_y_mm,person_distance_mm,person_angle_deg,person_confidence,time_since_person_update_ms,robot_x_mm,robot_y_mm,robot_orientation_deg,imu_yaw_raw,imu_yaw_smoothed,imu_roll,imu_pitch,imu_angular_vel_z,imu_update_rate,imu_drift_estimate,attr_force_x,attr_force_y,attr_force_magnitude,attr_force_direction_deg,repul_force_x,repul_force_y,repul_force_magnitude,repul_force_direction_deg,num_obstacles_in_range,closest_obstacle_dist_mm,closest_obstacle_angle_deg,total_force_x,total_force_y,total_force_magnitude,total_force_direction_deg,expected_direction_to_person_deg,force_direction_deg,direction_error_deg,direction_mismatch_flag,commanded_direction,commanded_speed,motor_1_speed,motor_2_speed,nav_state,nav_state_changed,goal_reached,stuck_detected,time_in_current_state_s,anomaly_detected,anomaly_type,calculation_time_ms,obstacles_filtered_for_person
1764570890.7851977,55.624,1,TEST2_OBSTACLE_BYPASS,True,233.9,2613.0,2623.4,5.12,0.996,0.0,-968.0,-99.6,-175.01,-175.01,-175.01,167.30,87.51,-0.0032,10.0,0.000,1.6384,3.6978,4.0445,23.90,-0.9474,1.1662,1.5026,-39.09,7,700.0,246.0,0.6910,4.8640,4.9128,8.09,5.12,8.09,2.97,False,FORWARDS,1.000,0,0,NAVIGATING,True,False,False,0,False,,0.00,0
1764570890.8259459,55.665,2,TEST2_OBSTACLE_BYPASS,True,233.9,2613.0,2623.4,5.12,0.996,0.0,-980.0,-100.7,-175.02,-175.03,-175.02,167.32,87.63,0.0000,10.0,0.000,1.6483,3.6847,4.0365,24.10,-0.9474,1.1662,1.5026,-39.09,7,700.0,246.0,0.7009,4.8509,4.9013,8.22,5.12,8.22,3.11,False,FORWARDS,1.000,0,0,NAVIGATING,False,False,False,0,False,,0.00,0
1764570890.860233,55.699,3,TEST2_OBSTACLE_BYPASS,True,233.9,2613.0,2623.4,5.12,0.996,0.0,-991.3,-101.7,-175.02,-175.03,-175.02,167.32,87.63,-0.0149,10.0,0.000,1.6574,3.6724,4.0291,24.29,-0.7199,0.6609,0.9773,-47.44,7,700.0,246.0,0.9376,4.3333,4.4336,12.21,5.12,12.21,7.09,False,FORWARDS,1.000,0,0,NAVIGATING,False,False,False,0,False,,0.00,0
1764570890.908702,55.748,4,TEST2_OBSTACLE_BYPASS,True,233.9,2613.0,2623.4,5.12,0.996,0.0,-1003.7,-102.8,-175.02,-175.03,-175.02,167.32,87.63,-0.0043,10.0,0.000,1.6674,3.6588,4.0208,24.50,-0.7174,0.6657,0.9787,-47.14,7,700.0,246.0,0.9500,4.3245,4.4276,12.39,5.12,12.39,7.27,False,FORWARDS,1.000,0,0,NAVIGATING,False,False,False,0,False,,0.00,0
1764570890.9406335,55.780,5,TEST2_OBSTACLE_BYPASS,True,233.9,2613.0,2623.4,5.12,0.996,0.0,-1015.3,-103.8,-175.01,-174.92,-175.01,167.43,87.61,-0.0021,10.0,0.000,1.6766,3.6461,4.0131,24.69,-1.1247,0.6103,1.2796,-61.51,6,700.0,246.0,0.5519,4.2564,4.2920,7.39,5.12,7.39,2.27,False,FORWARDS,1.000,0,0,NAVIGATING,False,False,False,0,False,,0.00,0
1764570890.9861205,55.825,6,TEST2_OBSTACLE_BYPASS,True,233.9,2613.0,2623.4,5.12,0.995,0.0,-1028.6,-104.9,-175.00,-174.92,-175.00,167.43,87.61,0.0032,10.0,0.000,1.6869,3.6315,4.0042,24.92,-0.9799,0.5416,1.1197,-61.07,6,700.0,246.0,0.7070,4.1732,4.2327,9.62,5.12,9.62,4.50,False,FORWARDS,1.000,0,0,NAVIGATING,False,False,False,0,False,,0.00,0
1764570891.0244606,55.863,7,TEST2_OBSTACLE_BYPASS,True,233.9,2613.0,2623.4,5.12,0.995,0.0,-1039.7,-105.9,-174.99,-174.92,-174.99,167.43,87.61,0.0032,10.0,0.000,1.6954,3.6193,3.9968,25.10,-0.8536,0.3796,0.9342,-66.03,6,700.0,246.0,0.8419,3.9989,4.0866,11.89,5.12,11.89,6.77,False,FORWARDS,1.000,0,0,NAVIGATING,False,False,False,0,False,,0.00,0
1764570891.0675013,55.906,8,TEST2_OBSTACLE_BYPASS,True,233.9,2613.0,2623.4,5.12,0.996,0.0,-1052.5,-107.0,-174.98,-174.92,-174.98,167.43,87.61,-0.0021,10.0,0.000,1.7051,3.6053,3.9882,25.31,-0.8913,0.8415,1.2258,-46.65,9,700.0,246.0,0.8138,4.4469,4.5207,10.37,5.12,10.37,5.25,False,FORWARDS,1.000,0,0,NAVIGATING,False,False,False,0,False,,0.00,0
1764570891.1027403,55.942,9,TEST2_OBSTACLE_BYPASS,True,233.9,2613.0,2623.4,5.12,0.996,0.0,-1063.6,-108.0,-174.97,-174.92,-174.97,167.43,87.61,-0.0032,10.0,0.000,1.7134,3.5931,3.9807,25.49,-0.8913,0.8415,1.2258,-46.65,9,700.0,246.0,0.8220,4.4347,4.5102,10.50,5.12,10.50,5.39,False,FORWARDS,1.000,0,0,NAVIGATING,False,False,False,0,False,,0.00,0
1764570891.1515446,55.990,10,TEST2_OBSTACLE_BYPASS,True,229.6,2613.0,2623.1,5.02,0.995,0.0,-1077.8,-109.3,-174.96,-174.92,-174.96,167.43,87.61,0.0043,10.0,0.000,1.7202,3.5820,3.9736,25.65,-1.9404,0.4845,2.0000,-75.98,8,700.0,246.0,-0.2202,4.0665,4.0724,-3.10,5.02,-3.10,-8.12,False,FORWARDS,1.000,0,0,NAVIGATING,False,False,False,0,False,,0.00,0
1764570891.1927352,56.032,11,TEST2_OBSTACLE_BYPASS,True,229.6,2613.0,2623.1,5.02,0.995,0.0,-1089.5,-110.3,-174.94,-174.83,-174.94,167.46,87.50,0.0117,10.0,0.000,1.7287,3.5691,3.9657,25.84,-1.9778,0.2972,2.0000,-81.45,8,700.0,246.0,-0.2491,3.8664,3.8744,-3.69,5.02,-3.69,-8.71,False,FORWARDS,1.000,0,0,NAVIGATING,False,False,False,0,False,,0.00,0
1764570891.2299953,56.069,12,TEST2_OBSTACLE_BYPASS,True,229.6,2613.0,2623.1,5.02,0.995,0.0,-1100.8,-111.3,-174.94,-174.96,-174.94,167.38,87.41,0.0085,10.0,0.028,1.7369,3.5566,3.9581,26.03,-1.9080,0.5997,2.0000,-72.55,10,700.0,246.0,-0.1711,4.1563,4.1598,-2.36,5.02,-2.36,-7.38,False,FORWARDS,1.000,0,0,NAVIGATING,False,False,False,0,False,,0.00,0
1764570891.2720551,56.111,13,TEST2_OBSTACLE_BYPASS,True,229.6,2613.0,2623.1,5.02,0.995,0.0,-1113.1,-112.4,-174.87,-174.36,-174.87,168.04,87.27,0.0000,10.0,0.038,1.7455,3.5431,3.9497,26.23,-1.9366,0.4995,2.0000,-75.54,10,700.0,246.0,-0.1911,4.0426,4.0471,-2.71,5.02,-2.71,-7.73,False,FORWARDS,1.000,0,0,NAVIGATING,False,False,False,0,False,,0.00,0
1764570891.3103259,56.149,14,TEST2_OBSTACLE_BYPASS,True,229.6,2613.0,2623.1,5.02,0.995,0.0,-1125.0,-113.5,-174.74,-173.73,-174.74,168.66,87.03,0.0011,10.0,0.056,1.7538,3.5299,3.9416,26.42,-1.9516,0.4371,2.0000,-77.38,12,750.0,245.0,-0.1979,3.9670,3.9720,-2.86,5.02,-2.86,-7.88,False,FORWARDS,1.000,0,0,NAVIGATING,False,False,False,0,False,,0.00,0
1764570891.3499448,56.189,15,TEST2_OBSTACLE_BYPASS,True,229.6,2613.0,2623.1,5.02,0.995,0.0,-1137.3,-114.7,-174.64,-173.90,-174.64,168.53,87.08,-0.0053,10.0,0.079,1.7621,3.5163,3.9332,26.62,-1.9552,0.4210,2.0000,-77.85,12,750.0,245.0,-0.1930,3.9373,3.9420,-2.81,5.02,-2.81,-7.83,False,FORWARDS,1.000,0,0,NAVIGATING,False,False,False,0,False,,0.00,0
1764570891.4031284,56.242,16,TEST2_OBSTACLE_BYPASS,True,229.6,2613.0,2623.1,5.02,0.995,0.0,-1152.3,-116.1,-174.53,-173.84,-174.53,168.62,87.02,-0.0117,10.0,0.107,1.7721,3.4998,3.9229,26.86,-1.9924,0.1743,2.0000,-85.00,14,750.0,245.0,-0.2203,3.6741,3.6807,-3.43,5.02,-3.43,-8.45,False,FORWARDS,1.000,0,0,NAVIGATING,False,False,False,0,False,,0.00,0
1764570891.4420755,56.281,17,TEST2_OBSTACLE_BYPASS,True,229.6,2613.0,2623.1,5.02,0.995,0.0,-1164.8,-117.3,-174.44,-173.98,-174.44,168.59,87.16,-0.0043,10.0,0.136,1.7802,3.4860,3.9143,27.05,-1.9836,0.2554,2.0000,-82.66,14,750.0,245.0,-0.2034,3.7414,3.7469,-3.11,5.02,-3.11,-8.13,False,FORWARDS,1.000,0,0,NAVIGATING,False,False,False,0,False,,0.00,0
1764570891.4860196,56.325,18,TEST2_OBSTACLE_BYPASS,True,229.6,2613.0,2623.1,5.02,0.995,0.0,-1177.4,-118.5,-174.42,-174.77,-174.42,167.95,87.49,0.0053,10.0,0.163,1.7884,3.4720,3.9055,27.25,-1.9822,0.2664,2.0000,-82.35,16,700.0,245.0,-0.1938,3.7384,3.7434,-2.97,5.02,-2.97,-7.99,False,FORWARDS,1.000,0,0,NAVIGATING,False,False,False,0,False,,0.00,0
1764570891.5229144,56.362,19,TEST2_OBSTACLE_BYPASS,False,0.0,0.0,0.0,0.00,0.000,0.0,-1188.7,-119.6,-174.47,-175.43,-174.47,167.42,87.70,-0.0053,10.0,0.184,1.7955,3.4595,3.8977,27.43,-1.9822,0.2664,2.0000,-82.35,16,700.0,245.0,-0.1867,3.7259,3.7305,-2.87,0.00,-2.87,0.00,False,FORWARDS,1.000,0,0,SEARCHING,True,False,False,0,False,,0.00,0
1764570891.5653994,56.404,20,TEST2_OBSTACLE_BYPASS,False,0.0,0.0,0.0,0.00,0.000,0.0,-1201.4,-120.9,-174.49,-175.09,-174.49,167.90,87.75,0.0011,10.0,0.202,1.8034,3.4455,3.8889,27.63,-1.9921,0.1771,2.0000,-84.92,22,700.0,116.0,-0.1887,3.6226,3.6275,-2.98,0.00,-2.98,0.00,False,FORWARDS,1.000,0,0,SEARCHING,False,False,False,0,False,,0.00,0
1764570891.6039722,56.443,21,TEST2_OBSTACLE_BYPASS,False,0.0,0.0,0.0,0.00,0.000,0.0,-1212.7,-121.9,-174.50,-174.98,-174.50,168.10,87.56,0.0181,10.0,0.217,1.8104,3.4330,3.8811,27.80,-1.9801,0.2811,2.0000,-81.92,22,700.0,116.0,-0.1698,3.7141,3.7180,-2.62,0.00,-2.62,0.00,False,FORWARDS,1.000,0,0,SEARCHING,False,False,False,0,False,,0.00,0
1764570891.6489384,56.488,22,TEST2_OBSTACLE_BYPASS,False,0.0,0.0,0.0,0.00,0.000,0.0,-1225.4,-123.2,-174.47,-174.62,-174.47,168.51,87.44,0.0096,10.0,0.233,1.8180,3.4190,3.8723,28.00,-1.9727,0.3293,2.0000,-80.52,31,650.0,117.0,-0.1547,3.7483,3.7515,-2.36,0.00,-2.36,0.00,False,FORWARDS,1.000,0,0,SEARCHING,False,False,False,0,False,,0.00,0
1764570891.6840065,56.523,23,TEST2_OBSTACLE_BYPASS,False,0.0,0.0,0.0,0.00,0.000,0.0,-1236.4,-124.2,-174.44,-174.03,-174.44,169.17,87.48,-0.0181,10.0,0.249,1.8246,3.4068,3.8646,28.17,-1.9585,0.4053,2.0000,-78.31,31,650.0,117.0,-0.1339,3.8120,3.8144,-2.01,0.00,-2.01,0.00,False,FORWARDS,1.000,0,0,SEARCHING,False,False,False,0,False,,0.00,0
1764570891.7221386,56.561,24,TEST2_OBSTACLE_BYPASS,False,0.0,0.0,0.0,0.00,0.000,0.0,-1248.6,-125.4,-174.46,-173.96,-174.46,169.36,87.55,0.0032,10.0,0.262,1.8317,3.3934,3.8562,28.36,-1.9841,0.2513,2.0000,-82.78,39,650.0,245.0,-0.1525,3.6447,3.6479,-2.40,0.00,-2.40,0.00,False,FORWARDS,1.000,0,0,SEARCHING,False,False,False,0,False,,0.00,0
1764570891.7657592,56.605,25,TEST2_OBSTACLE_BYPASS,False,0.0,0.0,0.0,0.00,0.000,0.0,-1260.4,-126.6,-174.36,-172.92,-174.36,170.52,87.12,0.0245,10.0,0.278,1.8385,3.3803,3.8479,28.54,-1.9734,0.3251,2.0000,-80.65,39,650.0,245.0,-0.1349,3.7054,3.7079,-2.09,0.00,-2.09,0.00,False,FORWARDS,1.000,0,0,SEARCHING,False,False,False,0,False,,0.00,0
1764570891.8058317,56.645,26,TEST2_OBSTACLE_BYPASS,False,0.0,0.0,0.0,0.00,0.000,0.0,-1273.1,-127.8,-174.34,-173.59,-174.34,169.90,87.04,0.0352,10.0,0.294,1.8456,3.3664,3.8391,28.73,-1.9738,0.3228,2.0000,-80.71,54,600.0,118.0,-0.1282,3.6892,3.6914,-1.99,0.00,-1.99,0.00,False,FORWARDS,1.000,0,0,SEARCHING,False,False,False,0,False,,0.00,0
1764570891.843914,56.683,27,TEST2_OBSTACLE_BYPASS,True,223.1,2578.3,2587.9,4.95,0.995,0.0,-1284.6,-129.0,-174.33,-173.88,-174.33,169.68,87.09,-0.0085,10.0,0.309,1.8842,3.3831,3.8724,29.12,-1.9664,0.3652,2.0000,-79.48,58,600.0,117.0,-0.0822,3.7483,3.7492,-1.26,4.95,-1.26,-6.20,False,FORWARDS,1.000,0,0,NAVIGATING,True,False,False,0,False,,0.00,0
1764570891.9029815,56.742,28,TEST2_OBSTACLE_BYPASS,True,223.1,2578.3,2587.9,4.95,0.995,0.0,-1300.6,-130.6,-174.18,-173.26,-174.18,170.38,87.05,-0.0288,10.0,0.329,1.8929,3.3651,3.8609,29.36,-1.9708,0.3403,2.0000,-80.20,58,600.0,117.0,-0.0779,3.7054,3.7062,-1.20,4.95,-1.20,-6.15,False,FORWARDS,1.000,0,0,NAVIGATING,False,False,False,0,False,,0.00,0
1764570891.9356887,56.775,29,TEST2_OBSTACLE_BYPASS,True,223.1,2578.3,2587.9,4.95,0.995,0.0,-1311.2,-131.8,-173.90,-172.72,-173.90,170.98,87.08,-0.0117,10.0,0.357,1.8985,3.3531,3.8533,29.52,-1.9745,0.3183,2.0000,-80.84,71,550.0,117.0,-0.0760,3.6714,3.6722,-1.19,4.95,-1.19,-6.13,False,FORWARDS,1.000,0,0,NAVIGATING,False,False,False,0,False,,0.00,0
1764570891.980775,56.820,30,TEST2_OBSTACLE_BYPASS,True,223.1,2578.3,2587.9,4.95,0.995,0.0,-1323.9,-133.2,-173.74,-173.47,-173.74,170.36,87.11,0.0224,10.0,0.389,1.9050,3.3388,3.8440,29.71,-1.9699,0.3457,2.0000,-80.05,71,550.0,117.0,-0.0649,3.6845,3.6851,-1.01,4.95,-1.01,-5.96,False,FORWARDS,1.000,0,0,NAVIGATING,False,False,False,0,False,,0.00,0
1764570892.0480945,56.887,31,TEST2_OBSTACLE_BYPASS,True,223.1,2578.3,2587.9,4.95,0.995,0.0,-1343.5,-135.3,-173.63,-173.84,-173.63,170.08,87.01,-0.0021,10.0,0.422,1.9148,3.3167,3.8298,30.00,-1.9796,0.2849,2.0000,-81.81,75,550.0,118.0,-0.0648,3.6016,3.6022,-1.03,4.95,-1.03,-5.98,False,FORWARDS,1.000,0,0,NAVIGATING,False,False,False,0,False,,0.00,0
1764570892.0806885,56.920,32,TEST2_OBSTACLE_BYPASS,True,223.1,2578.3,2587.9,4.95,0.995,0.0,-1354.2,-136.6,-173.49,-173.19,-173.49,170.79,86.93,-0.0181,10.0,0.457,1.9200,3.3046,3.8219,30.16,-1.9725,0.3306,2.0000,-80.49,90,500.0,117.0,-0.0525,3.6352,3.6356,-0.83,4.95,-0.83,-5.77,False,FORWARDS,1.000,0,0,NAVIGATING,False,False,False,0,False,,0.00,0
1764570892.1215532,56.960,33,TEST2_OBSTACLE_BYPASS,True,223.1,2578.3,2587.9,4.95,0.995,0.0,-1366.7,-138.0,-173.35,-172.68,-173.35,171.36,86.99,-0.0181,10.0,0.495,1.9260,3.2905,3.8127,30.34,-1.9740,0.3215,2.0000,-80.75,90,500.0,117.0,-0.0480,3.6120,3.6123,-0.76,4.95,-0.76,-5.71,False,FORWARDS,1.000,0,0,NAVIGATING,False,False,False,0,False,,0.00,0
1764570892.1658375,57.005,34,TEST2_OBSTACLE_BYPASS,False,0.0,0.0,0.0,0.00,0.000,0.0,-1380.2,-139.6,-173.14,-171.84,-173.14,172.22,87.00,-0.0202,10.0,0.537,1.9322,3.2754,3.8028,30.54,-1.9756,0.3113,2.0000,-81.05,83,500.0,117.0,-0.0435,3.5866,3.5869,-0.69,0.00,-0.69,0.00,False,FORWARDS,1.000,0,0,SEARCHING,True,False,False,0,False,,0.00,0
1764570892.204034,57.043,35,TEST2_OBSTACLE_BYPASS,False,0.0,0.0,0.0,0.00,0.000,0.0,-1391.8,-141.1,-172.94,-170.94,-172.94,173.20,87.03,-0.0138,10.0,0.582,1.9374,3.2623,3.7942,30.71,-1.9748,0.3166,2.0000,-80.89,83,500.0,117.0,-0.0374,3.5789,3.5791,-0.60,0.00,-0.60,0.00,False,FORWARDS,1.000,0,0,SEARCHING,False,False,False,0,False,,0.00,0
1764570892.2468631,57.086,36,TEST2_OBSTACLE_BYPASS,False,0.0,0.0,0.0,0.00,0.000,0.0,-1404.7,-142.7,-172.63,-170.53,-172.63,173.72,87.03,0.0138,10.0,0.634,1.9430,3.2478,3.7846,30.89,-1.9655,0.3701,2.0000,-79.34,95,450.0,117.0,-0.0225,3.6179,3.6180,-0.36,0.00,-0.36,0.00,False,FORWARDS,1.000,0,0,SEARCHING,False,False,False,0,False,,0.00,0
1764570892.2845037,57.123,37,TEST2_OBSTACLE_BYPASS,False,0.0,0.0,0.0,0.00,0.000,0.0,-1416.1,-144.3,-172.46,-172.18,-172.46,172.18,86.99,0.0447,10.0,0.687,1.9478,3.2350,3.7761,31.05,-1.9687,0.3523,2.0000,-79.85,95,450.0,117.0,-0.0210,3.5873,3.5873,-0.33,0.00,-0.33,0.00,False,FORWARDS,1.000,0,0,SEARCHING,False,False,False,0,False,,0.00,0
1764570892.3277826,57.167,38,TEST2_OBSTACLE_BYPASS,False,0.0,0.0,0.0,0.00,0.000,0.0,-1428.6,-145.9,-172.54,-174.03,-172.54,170.48,87.01,0.0266,10.0,0.735,1.9529,3.2209,3.7667,31.23,-1.9696,0.3471,2.0000,-80.01,94,450.0,118.0,-0.0167,3.5680,3.5680,-0.27,0.00,-0.27,0.00,False,FORWARDS,1.000,0,0,SEARCHING,False,False,False,0,False,,0.00,0
1764570892.364851,57.204,39,TEST2_OBSTACLE_BYPASS,False,0.0,0.0,0.0,0.00,0.000,0.0,-1439.7,-147.3,-172.75,-174.79,-172.75,169.77,86.87,0.0224,10.0,0.775,1.9575,3.2085,3.7585,31.39,-1.9696,0.3471,2.0000,-80.01,94,450.0,118.0,-0.0122,3.5556,3.5556,-0.20,0.00,-0.20,0.00,False,FORWARDS,1.000,0,0,SEARCHING,False,False,False,0,False,,0.00,0
1764570892.4056659,57.245,40,TEST2_OBSTACLE_BYPASS,False,0.0,0.0,0.0,0.00,0.000,0.0,-1452.1,-148.8,-172.94,-175.43,-172.94,169.24,86.85,0.0117,10.0,0.809,1.9625,3.1947,3.7493,31.56,-1.9627,0.3845,2.0000,-78.92,103,400.0,229.0,-0.0002,3.5791,3.5791,-0.00,0.00,-0.00,0.00,False,FORWARDS,1.000,0,0,SEARCHING,False,False,False,0,False,,0.00,0
1764570892.4487293,57.288,41,TEST2_OBSTACLE_BYPASS,False,0.0,0.0,0.0,0.00,0.000,0.0,-1464.2,-150.3,-173.13,-175.69,-173.13,169.06,86.82,0.0000,10.0,0.835,1.9674,3.1813,3.7404,31.73,-1.9602,0.3972,2.0000,-78.55,103,400.0,229.0,0.0072,3.5784,3.5784,0.12,0.00,0.12,0.00,False,FORWARDS,1.000,0,0,SEARCHING,False,False,False,0,False,,0.00,0
1764570892.4846735,57.324,42,TEST2_OBSTACLE_BYPASS,False,0.0,0.0,0.0,0.00,0.000,0.0,-1475.4,-151.6,-173.34,-175.27,-173.34,169.56,86.89,-0.0170,10.0,0.856,1.9718,3.1690,3.7323,31.89,-1.9648,0.3736,2.0000,-79.23,97,400.0,230.0,0.0070,3.5426,3.5426,0.11,0.00,0.11,0.00,False,FORWARDS,1.000,0,0,SEARCHING,False,False,False,0,False,,0.00,0
1764570892.528266,57.367,43,TEST2_OBSTACLE_BYPASS,False,0.0,0.0,0.0,0.00,0.000,0.0,-1488.3,-153.1,-173.46,-173.86,-173.46,171.00,86.89,-0.0352,10.0,0.873,1.9768,3.1547,3.7229,32.07,-1.9648,0.3735,2.0000,-79.24,97,400.0,230.0,0.0120,3.5283,3.5283,0.19,0.00,0.19,0.00,False,FORWARDS,1.000,0,0,SEARCHING,False,False,False,0,False,,0.00,0
1764570892.5688744,57.408,44,TEST2_OBSTACLE_BYPASS,True,186.4,2406.7,2413.9,4.43,0.999,0.0,-1500.4,-154.5,-173.52,-172.43,-173.52,172.43,86.84,-0.0245,10.0,0.887,2.1522,3.2678,3.9129,33.37,-1.9566,0.4145,2.0000,-78.04,102,400.0,230.0,0.1957,3.6823,3.6875,3.04,4.43,3.04,-1.39,False,FORWARDS,1.000,0,0,NAVIGATING,True,False,False,0,False,,0.00,0
1764570892.6107023,57.450,45,TEST2_OBSTACLE_BYPASS,True,186.4,2406.7,2413.9,4.43,0.999,0.0,-1512.1,-155.8,-173.62,-172.00,-173.62,172.93,86.95,-0.0245,10.0,0.899,2.1565,3.2535,3.9033,33.54,-1.9566,0.4145,2.0000,-78.04,102,400.0,230.0,0.2000,3.6680,3.6735,3.12,4.43,3.12,-1.31,False,FORWARDS,1.000,0,0,NAVIGATING,False,False,False,0,False,,0.00,0
1764570892.6737316,57.513,46,TEST2_OBSTACLE_BYPASS,True,186.4,2406.7,2413.9,4.43,0.999,0.0,-1531.7,-158.1,-173.32,-167.49,-173.32,177.49,86.34,-0.0682,10.0,0.917,2.1634,3.2295,3.8871,33.82,-1.9500,0.4443,2.0000,-77.16,111,350.0,230.0,0.2134,3.6738,3.6799,3.32,4.43,3.32,-1.11,False,FORWARDS,1.000,0,0,NAVIGATING,False,False,False,0,False,,0.00,0
1764570892.7175367,57.556,47,TEST2_OBSTACLE_BYPASS,True,186.4,2406.7,2413.9,4.43,0.999,0.0,-1544.2,-159.7,-172.64,-165.42,-172.64,179.76,85.62,-0.0256,10.0,0.948,2.1675,3.2141,3.8767,33.99,-1.9446,0.4674,2.0000,-76.48,122,350.0,230.0,0.2229,3.6815,3.6883,3.46,4.43,3.46,-0.97,False,FORWARDS,1.000,0,0,NAVIGATING,False,False,False,0,False,,0.00,0
1764570892.752688,57.592,48,TEST2_OBSTACLE_BYPASS,True,186.4,2406.7,2413.9,4.43,0.999,0.0,-1555.6,-161.3,-171.80,-165.58,-171.80,179.82,85.28,0.0266,10.0,0.996,2.1708,3.2002,3.8671,34.15,-1.9442,0.4692,2.0000,-76.43,122,350.0,230.0,0.2267,3.6694,3.6764,3.53,4.43,3.53,-0.90,False,FORWARDS,1.000,0,0,NAVIGATING,False,False,False,0,False,,0.00,0
1764570892.7973506,57.636,49,TEST2_OBSTACLE_BYPASS,True,186.4,2406.7,2413.9,4.43,0.999,0.0,-1567.2,-163.2,-171.06,-167.40,-171.06,178.20,85.39,0.1001,10.0,1.058,2.1741,3.1859,3.8570,34.31,-1.9401,0.4857,2.0000,-75.95,144,300.0,230.0,0.2339,3.6716,3.6790,3.65,4.43,3.65,-0.78,False,FORWARDS,1.000,0,0,NAVIGATING,False,False,False,0,False,,0.00,0
1764570892.8384972,57.677,50,TEST2_OBSTACLE_BYPASS,True,186.4,2406.7,2413.9,4.43,0.999,0.0,-1580.0,-165.3,-170.57,-170.54,-170.57,175.23,85.49,0.0905,10.0,1.127,2.1773,3.1702,3.8459,34.48,-1.9398,0.4871,2.0000,-75.90,144,300.0,230.0,0.2376,3.6573,3.6650,3.72,4.43,3.72,-0.71,False,FORWARDS,1.000,0,0,NAVIGATING,False,False,False,0,False,,0.00,0
1764570892.87392,57.713,51,TEST2_OBSTACLE_BYPASS,False,0.0,0.0,0.0,0.00,0.000,0.0,-1591.2,-167.2,-170.17,-171.70,-170.17,173.84,85.30,-0.0011,10.0,1.202,2.1800,3.1565,3.8361,34.63,-1.9355,0.5039,2.0000,-75.41,145,300.0,230.0,0.2445,3.6604,3.6686,3.82,0.00,3.82,0.00,False,FORWARDS,1.000,0,0,SEARCHING,True,False,False,0,False,,0.00,0
1764570892.9172866,57.756,52,TEST2_OBSTACLE_BYPASS,False,0.0,0.0,0.0,0.00,0.000,0.0,-1604.3,-169.6,-169.70,-170.62,-169.70,174.51,85.04,-0.0373,10.0,1.282,2.1829,3.1405,3.8246,34.80,-1.9355,0.5039,2.0000,-75.41,145,300.0,230.0,0.2474,3.6444,3.6528,3.88,0.00,3.88,0.00,False,FORWARDS,1.000,0,0,SEARCHING,False,False,False,0,False,,0.00,0
1764570892.951424,57.790,53,TEST2_OBSTACLE_BYPASS,False,0.0,0.0,0.0,0.00,0.000,0.0,-1614.4,-171.5,-169.29,-169.69,-169.29,175.08,84.98,-0.0234,10.0,1.368,2.1850,3.1282,3.8157,34.93,-1.9429,0.4745,2.0000,-76.28,152,300.0,230.0,0.2421,3.6027,3.6108,3.84,0.00,3.84,0.00,False,FORWARDS,1.000,0,0,SEARCHING,False,False,False,0,False,,0.00,0
1764570892.9963226,57.835,54,TEST2_OBSTACLE_BYPASS,False,0.0,0.0,0.0,0.00,0.000,0.0,-1626.8,-173.9,-168.99,-169.51,-168.99,175.11,84.98,0.0096,10.0,1.456,2.1874,3.1131,3.8047,35.09,-1.9429,0.4745,2.0000,-76.28,152,300.0,230.0,0.2445,3.5875,3.5959,3.90,0.00,3.90,0.00,False,FORWARDS,1.000,0,0,SEARCHING,False,False,False,0,False,,0.00,0
1764570893.0488548,57.888,55,TEST2_OBSTACLE_BYPASS,False,0.0,0.0,0.0,0.00,0.000,0.0,-1642.2,-177.0,-168.80,-170.03,-168.80,174.92,85.24,-0.0202,10.0,1.544,2.1901,3.0944,3.7910,35.29,-1.9129,0.5839,2.0000,-73.03,156,250.0,230.0,0.2772,3.6782,3.6887,4.31,0.00,4.31,0.00,False,FORWARDS,1.000,0,0,SEARCHING,False,False,False,0,False,,0.00,0
1764570893.090461,57.929,56,TEST2_OBSTACLE_BYPASS,False,0.0,0.0,0.0,0.00,0.000,0.0,-1654.8,-179.4,-169.00,-169.56,-169.00,175.50,85.35,-0.0234,10.0,1.625,2.1923,3.0792,3.7799,35.45,-1.9093,0.5953,2.0000,-72.68,183,250.0,230.0,0.2830,3.6746,3.6855,4.40,0.00,4.40,0.00,False,FORWARDS,1.000,0,0,SEARCHING,False,False,False,0,False,,0.00,0
1764570893.1334045,57.972,57,TEST2_OBSTACLE_BYPASS,False,0.0,0.0,0.0,0.00,0.000,0.0,-1667.2,-181.7,-169.41,-169.49,-169.41,175.62,85.20,0.0149,10.0,1.696,2.1945,3.0644,3.7691,35.61,-1.9093,0.5953,2.0000,-72.68,183,250.0,230.0,0.2852,3.6598,3.6708,4.46,0.00,4.46,0.00,False,FORWARDS,1.000,0,0,SEARCHING,False,False,False,0,False,,0.00,0
1764570893.1718733,58.011,58,TEST2_OBSTACLE_BYPASS,False,0.0,0.0,0.0,0.00,0.000,0.0,-1679.1,-183.9,-169.85,-169.99,-169.85,175.20,85.07,0.0107,10.0,1.757,2.1966,3.0503,3.7589,35.76,-1.8876,0.6611,2.0000,-70.70,180,200.0,132.0,0.3090,3.7114,3.7242,4.76,0.00,4.76,0.00,False,FORWARDS,1.000,0,0,SEARCHING,False,False,False,0,False,,0.00,0
1764570893.211773,58.051,59,TEST2_OBSTACLE_BYPASS,False,0.0,0.0,0.0,0.00,0.000,0.0,-1690.7,-185.9,-170.14,-170.31,-170.14,174.94,85.12,0.0043,10.0,1.811,2.1986,3.0366,3.7490,35.91,-1.8876,0.6611,2.0000,-70.70,180,200.0,132.0,0.3111,3.6977,3.7107,4.81,0.00,4.81,0.00,False,FORWARDS,1.000,0,0,SEARCHING,False,False,False,0,False,,0.00,0
1764570893.2595685,58.099,60,TEST2_OBSTACLE_BYPASS,False,0.0,0.0,0.0,0.00,0.000,0.0,-1704.2,-188.2,-170.10,-170.07,-170.10,175.21,85.15,-0.0224,10.0,1.863,2.2009,3.0208,3.7376,36.08,-1.8732,0.7008,2.0000,-69.49,204,200.0,132.0,0.3277,3.7217,3.7361,5.03,0.00,5.03,0.00,False,FORWARDS,1.000,0,0,SEARCHING,False,False,False,0,False,,0.00,0
1764570893.3088963,58.148,61,TEST2_OBSTACLE_BYPASS,True,126.4,2146.0,2149.8,3.37,0.999,0.0,-1719.0,-190.9,-169.90,-169.70,-169.90,175.66,85.14,0.0075,10.0,1.917,2.4975,3.1628,4.0300,38.30,-1.8732,0.7008,2.0000,-69.49,204,200.0,132.0,0.6243,3.8637,3.9138,9.18,3.37,9.18,5.81,False,FORWARDS,1.000,0,0,NAVIGATING,True,False,False,0,False,,0.00,0
1764570893.3526073,58.192,62,TEST2_OBSTACLE_BYPASS,True,103.4,1991.9,1994.6,2.97,0.998,0.0,-1731.6,-193.1,-169.86,-170.19,-169.86,175.29,85.14,0.0298,10.0,1.971,2.7046,3.2205,4.2056,40.02,-1.8193,0.8307,2.0000,-65.46,192,200.0,132.0,0.8853,4.0512,4.1468,12.33,2.97,12.33,9.35,False,FORWARDS,1.000,0,0,NAVIGATING,False,False,False,0,False,,0.00,0
1764570893.390455,58.229,63,TEST2_OBSTACLE_BYPASS,True,103.4,1991.9,1994.6,2.97,0.998,0.0,-1742.7,-195.1,-169.95,-170.68,-169.95,174.85,85.09,0.0320,10.0,2.020,2.7045,3.2039,4.1928,40.17,-1.8193,0.8307,2.0000,-65.46,192,200.0,132.0,0.8852,4.0346,4.1305,12.37,2.97,12.37,9.40,False,FORWARDS,1.000,0,0,NAVIGATING,False,False,False,0,False,,0.00,0
1764570893.4308114,58.270,64,TEST2_OBSTACLE_BYPASS,True,103.4,1991.9,1994.6,2.97,0.998,0.0,-1755.0,-197.2,-170.14,-171.35,-170.14,174.23,85.07,0.0234,10.0,2.066,2.7044,3.1857,4.1788,40.33,-1.8064,0.8585,2.0000,-64.58,151,200.0,224.0,0.8980,4.0442,4.1427,12.52,2.97,12.52,9.55,False,FORWARDS,1.000,0,0,NAVIGATING,False,False,False,0,False,,0.00,0
1764570893.471214,58.310,65,TEST2_OBSTACLE_BYPASS,True,103.4,1991.9,1994.6,2.97,0.998,0.0,-1767.1,-199.3,-170.28,-171.43,-170.28,174.17,85.01,-0.0149,10.0,2.107,2.7043,3.1679,4.1651,40.49,-1.8064,0.8585,2.0000,-64.58,151,200.0,224.0,0.8979,4.0263,4.1252,12.57,2.97,12.57,9.60,False,FORWARDS,1.000,0,0,NAVIGATING,False,False,False,0,False,,0.00,0
1764570893.507481,58.346,66,TEST2_OBSTACLE_BYPASS,True,103.4,1991.9,1994.6,2.97,0.998,0.0,-1778.3,-201.2,-170.43,-171.10,-170.43,174.49,85.02,-0.0085,10.0,2.145,2.7041,3.1516,4.1526,40.63,-1.8031,0.8653,2.0000,-64.36,106,200.0,224.0,0.9009,4.0169,4.1167,12.64,2.97,12.64,9.67,False,FORWARDS,1.000,0,0,NAVIGATING,False,False,False,0,False,,0.00,0
1764570893.5545146,58.393,67,TEST2_OBSTACLE_BYPASS,True,103.4,1991.9,1994.6,2.97,0.998,0.0,-1791.1,-203.3,-170.55,-170.65,-170.55,174.97,85.05,-0.0181,10.0,2.181,2.7038,3.1330,4.1384,40.79,-1.8031,0.8653,2.0000,-64.36,106,200.0,224.0,0.9007,3.9983,4.0985,12.69,2.97,12.69,9.72,False,FORWARDS,1.000,0,0,NAVIGATING,False,False,False,0,False,,0.00,0
1764570893.5873835,58.426,68,TEST2_OBSTACLE_BYPASS,True,103.4,1991.9,1994.6,2.97,0.998,0.0,-1802.1,-205.1,-170.73,-171.81,-170.73,173.88,85.61,0.0064,10.0,2.212,2.7035,3.1172,4.1262,40.93,-1.8395,0.7850,2.0000,-66.89,72,200.0,137.0,0.8640,3.9022,3.9967,12.48,2.97,12.48,9.51,False,FORWARDS,1.000,0,0,NAVIGATING,False,False,False,0,False,,0.00,0
1764570893.633503,58.472,69,TEST2_OBSTACLE_BYPASS,True,103.4,1991.9,1994.6,2.97,0.998,0.0,-1814.5,-207.2,-170.72,-170.16,-170.72,175.49,85.20,-0.1214,10.0,2.243,2.7031,3.0993,4.1125,41.09,-1.8395,0.7850,2.0000,-66.89,72,200.0,137.0,0.8636,3.8843,3.9791,12.53,2.97,12.53,9.56,False,FORWARDS,1.000,0,0,NAVIGATING,False,False,False,0,False,,0.00,0
1764570893.6689641,58.508,70,TEST2_OBSTACLE_BYPASS,False,0.0,0.0,0.0,0.00,0.000,0.0,-1825.7,-209.0,-170.39,-166.77,-170.39,178.88,84.63,-0.0501,10.0,2.277,2.7026,3.0834,4.1001,41.23,-1.7175,1.0247,2.0000,-59.18,106,200.0,137.0,0.9850,4.1081,4.2246,13.48,0.00,13.48,0.00,False,FORWARDS,1.000,0,0,SEARCHING,True,False,False,0,False,,0.00,0
1764570893.7145338,58.553,71,TEST2_OBSTACLE_BYPASS,False,0.0,0.0,0.0,0.00,0.000,0.0,-1838.1,-211.2,-169.97,-165.53,-169.97,-179.75,84.21,-0.0586,10.0,2.317,2.7017,3.0658,4.0864,41.39,-1.7175,1.0247,2.0000,-59.18,106,200.0,137.0,0.9842,4.0906,4.2073,13.53,0.00,13.53,0.00,False,FORWARDS,1.000,0,0,SEARCHING,False,False,False,0,False,,0.00,0
1764570893.7489488,58.588,72,TEST2_OBSTACLE_BYPASS,False,0.0,0.0,0.0,0.00,0.000,0.0,-1849.9,-213.5,-169.35,-163.96,-169.35,-178.39,84.34,-0.0767,10.0,2.364,2.7007,3.0492,4.0733,41.53,-1.7558,0.9577,2.0000,-61.39,131,200.0,137.0,0.9449,4.0070,4.1169,13.27,0.00,13.27,0.00,False,FORWARDS,1.000,0,0,SEARCHING,False,False,False,0,False,,0.00,0
1764570893.7947762,58.634,73,TEST2_OBSTACLE_BYPASS,False,0.0,0.0,0.0,0.00,0.000,0.0,-1862.7,-216.1,-168.37,-160.94,-168.37,-175.77,84.70,-0.1641,10.0,2.423,2.6992,3.0312,4.0588,41.68,-1.7695,0.9322,2.0000,-62.22,146,200.0,140.0,0.9297,3.9634,4.0710,13.20,0.00,13.20,0.00,False,FORWARDS,1.000,0,0,SEARCHING,False,False,False,0,False,,0.00,0
1764570893.8393016,58.678,74,TEST2_OBSTACLE_BYPASS,True,94.4,1823.0,1825.5,2.96,0.999,0.0,-1874.9,-218.9,-166.93,-156.94,-166.93,-171.90,84.94,-0.1736,10.0,2.501,2.9364,3.0448,4.2300,43.96,-1.7676,0.9357,2.0000,-62.10,146,200.0,140.0,1.1688,3.9805,4.1485,16.36,2.96,16.36,13.40,False,FORWARDS,1.000,0,0,NAVIGATING,True,False,False,0,False,,0.00,0
1764570893.8770533,58.716,75,TEST2_OBSTACLE_BYPASS,True,94.4,1823.0,1825.5,2.96,0.999,0.0,-1886.1,-221.9,-165.18,-153.93,-165.18,-168.48,84.80,-0.0288,10.0,2.600,2.9326,3.0281,4.2154,44.08,-1.7309,1.0021,2.0000,-59.93,150,200.0,140.0,1.2018,4.0302,4.2055,16.60,2.96,16.60,13.64,False,FORWARDS,1.000,0,0,NAVIGATING,False,False,False,0,False,,0.00,0
1764570893.9607623,58.800,76,TEST2_OBSTACLE_BYPASS,True,90.1,1720.0,1722.4,3.00,0.999,0.0,-1909.1,-228.7,-163.60,-155.28,-163.60,-168.52,84.80,0.0905,10.0,2.718,3.0780,3.0001,4.2982,45.73,-1.7222,1.0168,2.0000,-59.44,150,200.0,140.0,1.3557,4.0169,4.2395,18.65,3.00,18.65,15.65,False,FORWARDS,1.000,0,0,NAVIGATING,False,False,False,0,False,,0.00,0
1764570893.9988346,58.838,77,TEST2_OBSTACLE_BYPASS,True,81.3,1658.6,1660.6,2.81,1.000,0.0,-1920.9,-232.4,-162.32,-157.84,-162.32,-170.14,84.89,0.1278,10.0,2.849,3.1678,2.9918,4.3573,46.64,-1.7038,1.0474,2.0000,-58.42,148,200.0,140.0,1.4639,4.0392,4.2963,19.92,2.81,19.92,17.12,False,FORWARDS,1.000,0,0,NAVIGATING,False,False,False,0,False,,0.00,0
1764570894.0359864,58.875,78,TEST2_OBSTACLE_BYPASS,True,81.3,1658.6,1660.6,2.81,1.000,0.0,-1931.7,-236.1,-161.17,-160.39,-161.17,-171.94,85.10,0.0767,10.0,2.992,3.1610,2.9752,4.3409,46.73,-1.7408,0.9846,2.0000,-60.51,133,200.0,140.0,1.4201,3.9598,4.2068,19.73,2.81,19.73,16.92,False,FORWARDS,1.000,0,0,NAVIGATING,False,False,False,0,False,,0.00,0
1764570894.077835,58.917,79,TEST2_OBSTACLE_BYPASS,True,84.2,1636.2,1638.3,2.95,1.000,0.0,-1943.9,-240.4,-160.37,-162.16,-160.37,-173.15,85.21,0.0724,10.0,3.141,3.1877,2.9496,4.3430,47.22,-1.7302,1.0032,2.0000,-59.89,133,200.0,140.0,1.4575,3.9528,4.2130,20.24,2.95,20.24,17.29,False,FORWARDS,1.000,0,0,NAVIGATING,False,False,False,0,False,,0.00,0
1764570894.1147146,58.954,80,TEST2_OBSTACLE_BYPASS,True,84.2,1636.2,1638.3,2.95,1.000,0.0,-1954.9,-244.4,-160.47,-167.71,-160.47,-177.96,85.88,0.1683,10.0,3.286,3.1802,2.9328,4.3261,47.32,-1.7885,0.8952,2.0000,-63.41,138,200.0,140.0,1.3917,3.8280,4.0732,19.98,2.95,19.98,17.03,False,FORWARDS,1.000,0,0,NAVIGATING,False,False,False,0,False,,0.00,0
1764570894.1567771,58.996,81,TEST2_OBSTACLE_BYPASS,True,84.2,1636.2,1638.3,2.95,1.000,0.0,-1966.5,-248.3,-161.06,-171.49,-161.06,178.89,86.67,-0.0107,10.0,3.419,3.1725,2.9154,4.3086,47.42,-1.7885,0.8952,2.0000,-63.41,138,200.0,140.0,1.3841,3.8106,4.0541,19.96,2.95,19.96,17.02,False,FORWARDS,1.000,0,0,NAVIGATING,False,False,False,0,False,,0.00,0
1764570894.2045937,59.044,82,TEST2_OBSTACLE_BYPASS,True,84.2,1636.2,1638.3,2.95,1.000,0.0,-1978.6,-252.4,-161.66,-169.91,-161.66,-179.10,86.60,-0.0277,10.0,3.542,3.1648,2.8973,4.2907,47.53,-1.7888,0.8945,2.0000,-63.43,151,200.0,140.0,1.3759,3.7918,4.0338,19.94,2.95,19.94,17.00,False,FORWARDS,1.000,0,0,NAVIGATING,False,False,False,0,False,,0.00,0
1764570894.2384517,59.077,83,TEST2_OBSTACLE_BYPASS,True,84.2,1636.2,1638.3,2.95,1.000,0.0,-1989.5,-255.8,-162.61,-170.43,-162.61,-179.39,86.50,0.0256,10.0,3.650,3.1581,2.8812,4.2749,47.62,-1.7877,0.8968,2.0000,-63.36,151,200.0,140.0,1.3704,3.7780,4.0189,19.94,2.95,19.94,16.99,False,FORWARDS,1.000,0,0,NAVIGATING,False,False,False,0,False,,0.00,0
1764570894.278409,59.117,84,TEST2_OBSTACLE_BYPASS,True,84.2,1636.2,1638.3,2.95,1.000,0.0,-2001.3,-259.1,-164.07,-171.57,-164.07,179.70,86.43,-0.0032,10.0,3.738,3.1513,2.8639,4.2583,47.74,-1.7630,0.9444,2.0000,-61.82,143,200.0,140.0,1.3883,3.8083,4.0535,20.03,2.95,20.03,17.08,False,FORWARDS,1.000,0,0,NAVIGATING,False,False,False,0,False,,0.00,0
1764570894.3200002,59.159,85,TEST2_OBSTACLE_BYPASS,True,84.2,1636.2,1638.3,2.95,1.000,0.0,-2013.3,-262.2,-165.82,-171.39,-165.82,179.99,86.46,-0.0224,10.0,3.803,3.1450,2.8464,4.2418,47.85,-1.7561,0.9572,2.0000,-61.41,143,200.0,140.0,1.3889,3.8035,4.0492,20.06,2.95,20.06,17.11,False,FORWARDS,1.000,0,0,NAVIGATING,False,False,False,0,False,,0.00,0
1764570894.3574626,59.196,86,TEST2_OBSTACLE_BYPASS,True,84.2,1636.2,1638.3,2.95,1.000,0.0,-2024.4,-264.6,-167.46,-171.69,-167.46,179.82,86.52,0.0213,10.0,3.847,3.1397,2.8302,4.2270,47.97,-1.7538,0.9614,2.0000,-61.27,145,200.0,117.0,1.3859,3.7916,4.0369,20.08,2.95,20.08,17.13,False,FORWARDS,1.000,0,0,NAVIGATING,False,False,False,0,False,,0.00,0
1764570894.397891,59.237,87,TEST2_OBSTACLE_BYPASS,True,56.3,1519.5,1520.5,2.12,1.000,0.0,-2036.8,-267.1,-168.91,-172.39,-168.91,179.23,86.83,0.0053,10.0,3.873,3.3168,2.8310,4.3607,49.52,-1.7479,0.9721,2.0000,-60.92,145,200.0,117.0,1.5689,3.8031,4.1140,22.42,2.12,22.42,20.30,False,FORWARDS,1.000,0,0,NAVIGATING,False,False,False,0,False,,0.00,0
1764570894.4407542,59.280,88,TEST2_OBSTACLE_BYPASS,True,56.3,1519.5,1520.5,2.12,1.000,0.0,-2048.4,-269.1,-170.02,-171.49,-170.02,-179.81,86.90,-0.0565,10.0,3.886,3.3107,2.8135,4.3447,49.64,-1.7241,1.0136,2.0000,-59.55,157,200.0,121.0,1.5866,3.8271,4.1429,22.52,2.12,22.52,20.40,False,FORWARDS_RIGHT,1.000,0,0,NAVIGATING,False,False,False,0,False,,0.00,0
1764570894.4827821,59.322,89,TEST2_OBSTACLE_BYPASS,True,65.9,1408.5,1410.0,2.68,1.000,0.0,-2057.1,-270.5,-170.64,-168.30,-170.64,-176.51,86.93,-0.0778,10.0,3.891,3.4774,2.7502,4.4335,51.66,-1.7159,1.0274,2.0000,-59.09,157,200.0,121.0,1.7614,3.7776,4.1681,25.00,2.68,25.00,22.32,False,FORWARDS_RIGHT,1.000,0,0,NAVIGATING,False,False,False,0,False,,0.00,0
1764570894.5207446,59.360,90,TEST2_OBSTACLE_BYPASS,True,65.9,1408.5,1410.0,2.68,1.000,0.0,-2065.1,-271.9,-170.54,-166.73,-170.54,-174.82,86.83,-0.0341,10.0,3.898,3.4722,2.7380,4.4219,51.74,-1.7330,0.9983,2.0000,-60.05,168,200.0,121.0,1.7392,3.7364,4.1213,24.96,2.68,24.96,22.28,False,FORWARDS_RIGHT,1.000,0,0,NAVIGATING,False,False,False,0,False,,0.00,0
1764570894.5648623,59.404,91,TEST2_OBSTACLE_BYPASS,True,79.5,1316.7,1319.1,3.46,1.000,0.0,-2073.6,-273.4,-170.06,-166.74,-170.06,-174.69,86.81,0.0202,10.0,3.910,3.6064,2.6634,4.4833,53.55,-1.7330,0.9983,2.0000,-60.05,168,200.0,121.0,1.8734,3.6617,4.1131,27.10,3.46,27.10,23.64,False,FORWARDS_RIGHT,1.000,0,0,NAVIGATING,False,False,False,0,False,,0.00,0
1764570894.6012516,59.440,92,TEST2_OBSTACLE_BYPASS,True,79.5,1316.7,1319.1,3.46,1.000,0.0,-2081.6,-274.8,-169.81,-167.41,-169.81,-175.28,86.83,0.0096,10.0,3.924,3.6002,2.6513,4.4711,53.63,-1.8112,0.8482,2.0000,-64.91,192,200.0,122.0,1.7890,3.4996,3.9303,27.08,3.46,27.08,23.62,False,FORWARDS_RIGHT,1.000,0,0,NAVIGATING,False,False,False,0,False,,0.00,0
1764570894.6462128,59.485,93,TEST2_OBSTACLE_BYPASS,True,110.3,1243.1,1248.0,5.07,0.998,0.0,-2090.5,-276.5,-169.43,-166.61,-169.43,-174.47,86.83,-0.0362,10.0,3.942,3.6923,2.5493,4.4869,55.38,-1.8112,0.8482,2.0000,-64.91,192,200.0,122.0,1.8811,3.3975,3.8835,28.97,5.07,28.97,23.90,False,FORWARDS_RIGHT,1.000,0,0,STUCK,True,False,True,0,True,STUCK_DETECTED,0.00,0
1764570894.6911092,59.530,94,TEST2_OBSTACLE_BYPASS,True,110.3,1243.1,1248.0,5.07,0.998,0.0,-2100.2,-278.4,-168.75,-164.79,-168.75,-172.66,87.00,-0.0320,10.0,3.967,3.6835,2.5353,4.4717,55.46,-1.9526,0.4330,2.0000,-77.50,216,200.0,122.0,1.7309,2.9683,3.4361,30.25,5.07,30.25,25.18,False,FORWARDS_RIGHT,1.000,0,0,STUCK,False,False,True,0,True,STUCK_DETECTED,0.00,0
1764570894.7326078,59.572,95,TEST2_OBSTACLE_BYPASS,True,110.3,1243.1,1248.0,5.07,0.998,0.0,-2108.6,-280.2,-167.93,-163.16,-167.93,-170.94,87.01,-0.0149,10.0,4.000,3.6757,2.5234,4.4585,55.53,-1.9743,0.3193,2.0000,-80.81,221,200.0,122.0,1.7014,2.8427,3.3130,30.90,5.07,30.90,25.83,False,FORWARDS_RIGHT,0.994,0,0,STUCK,False,False,True,0,True,STUCK_DETECTED,0.00,0
1764570894.7744935,59.613,96,TEST2_OBSTACLE_BYPASS,True,110.3,1243.1,1248.0,5.07,0.998,0.0,-2117.0,-282.1,-167.08,-163.18,-167.08,-170.71,87.11,0.0373,10.0,4.041,3.6678,2.5116,4.4453,55.60,-1.9743,0.3193,2.0000,-80.81,221,200.0,122.0,1.6934,2.8309,3.2988,30.89,5.07,30.89,25.82,False,FORWARDS_RIGHT,0.990,0,0,STUCK,False,False,True,0,True,STUCK_DETECTED,0.00,0
1764570894.8177123,59.657,97,TEST2_OBSTACLE_BYPASS,True,110.3,1243.1,1248.0,5.07,0.998,0.0,-2126.3,-284.4,-166.32,-164.80,-166.32,-172.00,87.41,0.0213,10.0,4.090,3.6588,2.4987,4.4306,55.67,-1.9969,0.1108,2.0000,-86.82,221,200.0,125.0,1.6619,2.6096,3.0938,32.49,5.07,32.49,27.42,False,FORWARDS_RIGHT,0.928,0,0,STUCK,False,False,True,0,True,STUCK_DETECTED,0.00,0
1764570894.8624341,59.701,98,TEST2_OBSTACLE_BYPASS,True,110.3,1243.1,1248.0,5.07,0.998,0.0,-2134.3,-286.4,-165.64,-164.70,-165.64,-171.53,87.37,-0.0181,10.0,4.144,3.6509,2.4878,4.4179,55.73,-1.9969,0.1108,2.0000,-86.82,221,200.0,125.0,1.6540,2.5986,3.0803,32.48,5.07,32.48,27.40,False,FORWARDS_RIGHT,0.924,0,0,STUCK,False,False,True,0,True,STUCK_DETECTED,0.00,0
1764570894.9015095,59.740,99,TEST2_OBSTACLE_BYPASS,True,110.3,1243.1,1248.0,5.07,0.998,0.0,-2142.2,-288.5,-165.36,-165.52,-165.36,-171.85,87.38,0.0234,10.0,4.200,3.6430,2.4770,4.4054,55.79,-1.9999,-0.0167,2.0000,-90.48,230,200.0,125.0,1.6431,2.4603,2.9585,33.74,5.07,33.74,28.66,False,FORWARDS_RIGHT,0.888,0,0,STUCK,False,False,True,0,True,STUCK_DETECTED,0.00,0
1764570894.938311,59.777,100,TEST2_OBSTACLE_BYPASS,True,110.3,1243.1,1248.0,5.07,0.998,0.0,-2148.8,-290.2,-165.30,-166.11,-165.30,-172.09,87.44,-0.0064,10.0,4.256,3.6366,2.4682,4.3951,55.83,-1.9999,-0.0167,2.0000,-90.48,230,200.0,125.0,1.6366,2.4515,2.9476,33.73,5.07,33.73,28.65,False,FORWARDS_RIGHT,0.884,0,0,STUCK,False,False,True,0,True,STUCK_DETECTED,0.00,0
1764570894.9813647,59.820,101,TEST2_OBSTACLE_BYPASS,False,0.0,0.0,0.0,0.00,0.000,0.0,-2156.3,-292.2,-165.06,-164.32,-165.06,-169.99,87.42,-0.0543,10.0,4.313,3.6291,2.4582,4.3833,55.89,-1.9994,-0.0475,2.0000,-91.36,234,200.0,125.0,1.6297,2.4107,2.9098,34.06,0.00,34.06,0.00,False,FORWARDS_RIGHT,0.873,0,0,STUCK,False,False,True,0,True,STUCK_DETECTED,0.00,0
1764570895.0173705,59.856,102,TEST2_OBSTACLE_BYPASS,False,0.0,0.0,0.0,0.00,0.000,0.0,-2163.0,-294.1,-164.52,-162.02,-164.52,-167.38,87.40,-0.0543,10.0,4.418,3.6224,2.4494,4.3728,55.93,-1.9994,-0.0475,2.0000,-91.36,234,200.0,125.0,1.6229,2.4018,2.8987,34.05,0.00,34.05,0.00,False,FORWARDS_RIGHT,0.870,0,0,STUCK,False,False,True,0,True,STUCK_DETECTED,0.00,0
1764570895.0631027,59.902,103,TEST2_OBSTACLE_BYPASS,True,188.0,950.9,969.3,11.18,0.959,0.0,-2170.4,-296.2,-163.92,-160.59,-163.92,-165.62,87.37,-0.0117,10.0,4.529,3.9763,2.1027,4.4980,62.13,-1.9936,0.1605,2.0000,-85.40,235,200.0,125.0,1.9827,2.2631,3.0088,41.22,11.18,41.22,30.04,False,FORWARDS_RIGHT,0.903,0,0,STUCK,False,False,True,0,True,STUCK_DETECTED,0.00,0
1764570895.1009467,59.940,104,TEST2_OBSTACLE_BYPASS,True,188.0,950.9,969.3,11.18,0.959,0.0,-2177.3,-298.3,-163.41,-159.69,-163.41,-164.41,87.43,-0.0330,10.0,4.645,3.9669,2.0950,4.4861,62.16,-1.9936,0.1605,2.0000,-85.40,235,200.0,125.0,1.9733,2.2555,2.9969,41.18,11.18,41.18,30.00,False,FORWARDS_RIGHT,0.899,0,0,STUCK,False,False,True,0,True,STUCK_DETECTED,0.00,0
1764570895.1432965,59.982,105,TEST2_OBSTACLE_BYPASS,True,218.7,720.3,752.8,16.89,0.996,0.0,-2185.4,-300.8,-162.85,-157.59,-162.85,-161.90,87.40,-0.0245,10.0,4.767,4.2286,1.7960,4.5942,66.99,-1.8559,0.7453,2.0000,-68.12,229,200.0,126.0,2.3727,2.5413,3.4767,43.04,16.89,43.04,26.14,False,FORWARDS_RIGHT,1.000,0,0,STUCK,False,False,True,0,True,STUCK_DETECTED,0.00,0
1764570895.1819487,60.021,106,TEST2_OBSTACLE_BYPASS,True,218.7,720.3,752.8,16.89,0.996,0.0,-2192.7,-303.1,-162.17,-156.38,-162.17,-160.49,87.33,-0.0501,10.0,4.895,4.2168,1.7897,4.5809,67.00,-1.8559,0.7453,2.0000,-68.12,229,200.0,126.0,2.3609,2.5350,3.4641,42.96,16.89,42.96,26.07,False,FORWARDS_RIGHT,1.000,0,0,STUCK,False,False,True,0,True,STUCK_DETECTED,0.00,0
1764570895.2250714,60.064,107,TEST2_OBSTACLE_BYPASS,True,289.8,685.9,744.6,22.91,0.992,0.0,-2201.0,-305.9,-161.21,-155.13,-161.21,-158.74,87.33,-0.0192,10.0,5.033,4.1584,1.6558,4.4759,68.29,-1.7146,1.0297,2.0000,-59.01,244,200.0,126.0,2.4438,2.6855,3.6310,42.30,22.91,42.30,19.40,False,FORWARDS_RIGHT,1.000,0,0,STUCK,False,False,True,0,True,STUCK_DETECTED,0.00,0
1764570895.2607937,60.100,108,TEST2_OBSTACLE_BYPASS,True,289.8,685.9,744.6,22.91,0.992,0.0,-2208.8,-308.7,-160.30,-155.63,-160.30,-158.98,87.11,-0.0021,10.0,5.180,4.1457,1.6503,4.4621,68.29,-1.7146,1.0297,2.0000,-59.01,244,200.0,126.0,2.4311,2.6799,3.6183,42.21,22.91,42.21,19.31,False,FORWARDS_RIGHT,1.000,0,0,STUCK,False,False,True,0,True,STUCK_DETECTED,0.00,0
1764570895.303995,60.143,109,TEST2_OBSTACLE_BYPASS,True,289.8,685.9,744.6,22.91,0.992,0.0,-2216.6,-311.7,-159.38,-156.38,-159.38,-159.39,87.07,-0.0096,10.0,5.335,4.1330,1.6449,4.4483,68.30,-1.7507,0.9669,2.0000,-61.09,238,200.0,126.0,2.3823,2.6118,3.5351,42.37,22.91,42.37,19.46,False,FORWARDS_RIGHT,1.000,0,0,STUCK,False,False,True,0,True,STUCK_DETECTED,0.00,0
1764570895.3410501,60.180,110,TEST2_OBSTACLE_BYPASS,True,303.2,680.1,744.6,24.03,0.992,0.0,-2224.3,-314.7,-158.43,-156.61,-158.43,-159.40,87.03,-0.0352,10.0,5.501,4.1109,1.6179,4.4178,68.52,-1.7507,0.9669,2.0000,-61.09,238,200.0,126.0,2.3601,2.5848,3.5002,42.40,24.03,42.40,18.37,False,FORWARDS_RIGHT,1.000,0,0,STUCK,False,False,True,0,True,STUCK_DETECTED,0.00,0
1764570895.3861804,60.225,111,TEST2_OBSTACLE_BYPASS,True,303.2,680.1,744.6,24.03,0.992,0.0,-2232.9,-318.2,-157.79,-157.86,-157.79,-160.13,86.82,0.0479,10.0,5.672,4.0968,1.6126,4.4028,68.51,-1.6490,1.1318,2.0000,-55.54,201,250.0,130.0,2.4479,2.7444,3.6774,41.73,24.03,41.73,17.70,False,FORWARDS_RIGHT,1.000,0,0,STUCK,False,False,True,0,True,STUCK_DETECTED,0.00,0
1764570895.4299242,60.269,112,TEST2_OBSTACLE_BYPASS,True,303.2,680.1,744.6,24.03,0.992,0.0,-2240.7,-321.5,-157.38,-157.94,-157.38,-159.77,86.77,-0.0383,10.0,5.848,4.0841,1.6079,4.3892,68.51,-1.6490,1.1318,2.0000,-55.54,201,250.0,130.0,2.4351,2.7396,3.6655,41.63,24.03,41.63,17.60,False,FORWARDS_RIGHT,1.000,0,0,STUCK,False,False,True,0,True,STUCK_DETECTED,0.00,0
1764570895.4643705,60.303,113,TEST2_OBSTACLE_BYPASS,True,303.2,680.1,744.6,24.03,0.992,0.0,-2248.1,-324.6,-156.93,-156.08,-156.93,-157.63,86.94,-0.0383,10.0,6.027,4.0721,1.6035,4.3764,68.51,-1.5494,1.2647,2.0000,-50.78,176,250.0,145.0,2.5227,2.8682,3.8197,41.33,24.03,41.33,17.30,False,FORWARDS_RIGHT,1.000,0,0,STUCK,False,False,True,0,True,STUCK_DETECTED,0.00,0
1764570895.5057983,60.345,114,TEST2_OBSTACLE_BYPASS,True,303.2,680.1,744.6,24.03,0.992,0.0,-2256.1,-328.2,-155.87,-149.08,-155.87,-150.21,87.53,-0.0437,10.0,6.216,4.0589,1.5990,4.3625,68.50,-1.5494,1.2647,2.0000,-50.78,176,250.0,145.0,2.5095,2.8637,3.8076,41.23,24.03,41.23,17.20,False,FORWARDS_RIGHT,1.000,0,0,STUCK,False,False,True,0,True,STUCK_DETECTED,0.00,0
1764570895.5434737,60.382,115,TEST2_OBSTACLE_BYPASS,False,0.0,0.0,0.0,0.00,0.000,0.0,-2263.5,-331.7,-154.30,-141.91,-154.30,-142.93,87.89,-0.0788,10.0,6.419,4.0465,1.5952,4.3496,68.49,-1.4173,1.4111,2.0000,-45.13,165,250.0,145.0,2.6292,3.0062,3.9937,41.17,0.00,41.17,0.00,False,FORWARDS_RIGHT,1.000,0,0,STUCK,False,False,True,0,True,STUCK_DETECTED,0.00,0
1764570895.5897982,60.429,116,TEST2_OBSTACLE_BYPASS,False,0.0,0.0,0.0,0.00,0.000,0.0,-2271.2,-335.6,-153.47,-148.03,-153.47,-149.15,87.29,0.0458,10.0,6.630,4.0334,1.5913,4.3360,68.47,-1.4173,1.4111,2.0000,-45.13,165,250.0,145.0,2.6161,3.0023,3.9822,41.07,0.00,41.07,0.00,False,FORWARDS_RIGHT,1.000,0,0,STUCK,False,False,True,0,True,STUCK_DETECTED,0.00,0
1764570895.6240163,60.463,117,TEST2_OBSTACLE_BYPASS,False,0.0,0.0,0.0,0.00,0.000,0.0,-2278.7,-339.3,-153.90,-159.50,-153.90,-160.47,86.66,0.0863,10.0,6.835,4.0209,1.5875,4.3230,68.46,-1.3632,1.4635,2.0000,-42.97,172,250.0,145.0,2.6578,3.0509,4.0462,41.06,0.00,41.06,0.00,False,FORWARDS_RIGHT,1.000,0,0,STUCK,False,False,True,0,True,STUCK_DETECTED,0.00,0
1764570895.666277,60.505,118,TEST2_OBSTACLE_BYPASS,False,0.0,0.0,0.0,0.00,0.000,0.0,-2286.7,-343.1,-154.65,-163.13,-154.65,-164.19,86.45,0.0405,10.0,7.033,4.0079,1.5833,4.3093,68.44,-1.2867,1.5312,2.0000,-40.04,174,250.0,145.0,2.7212,3.1145,4.1358,41.15,0.00,41.15,0.00,False,FORWARDS_RIGHT,1.000,0,0,STUCK,False,False,True,0,True,STUCK_DETECTED,0.00,0
1764570895.7095995,60.549,119,TEST2_OBSTACLE_BYPASS,False,0.0,0.0,0.0,0.00,0.000,0.0,-2294.8,-346.8,-155.25,-162.33,-155.25,-163.47,86.72,-0.0415,10.0,7.225,3.9949,1.5790,4.2956,68.43,-1.2867,1.5312,2.0000,-40.04,174,250.0,145.0,2.7082,3.1101,4.1240,41.05,0.00,41.05,0.00,False,FORWARDS_RIGHT,1.000,0,0,STUCK,False,False,True,0,True,STUCK_DETECTED,0.00,0
1764570895.7462318,60.585,120,TEST2_OBSTACLE_BYPASS,False,0.0,0.0,0.0,0.00,0.000,0.0,-2302.1,-350.1,-155.41,-158.19,-155.41,-159.18,86.88,-0.0937,10.0,7.416,3.9832,1.5750,4.2833,68.42,-1.1767,1.6172,2.0000,-36.04,162,250.0,145.0,2.8065,3.1923,4.2505,41.32,0.00,41.32,0.00,False,FORWARDS_RIGHT,1.000,0,0,STUCK,False,False,True,0,True,STUCK_DETECTED,0.00,0
1764570895.788471,60.627,121,TEST2_OBSTACLE_BYPASS,False,0.0,0.0,0.0,0.00,0.000,0.0,-2310.3,-354.0,-155.01,-153.86,-155.01,-154.34,87.01,-0.0064,10.0,7.611,3.9701,1.5708,4.2696,68.41,-1.1767,1.6172,2.0000,-36.04,162,250.0,145.0,2.7935,3.1880,4.2387,41.23,0.00,41.23,0.00,False,FORWARDS_RIGHT,1.000,0,0,STUCK,False,False,True,0,True,STUCK_DETECTED,0.00,0
1764570895.8305051,60.669,122,TEST2_OBSTACLE_BYPASS,True,597.7,919.5,1096.7,33.02,0.882,0.0,-2317.6,-357.4,-154.52,-153.13,-154.52,-153.06,87.25,0.0288,10.0,7.810,3.4537,1.5128,3.7705,66.35,-1.0713,1.6889,2.0000,-32.39,154,250.0,269.0,2.3824,3.2017,3.9909,36.65,33.02,36.65,3.63,False,FORWARDS_RIGHT,1.000,0,0,STUCK,False,False,True,0,True,STUCK_DETECTED,0.00,17
1764570895.8717988,60.711,123,TEST2_OBSTACLE_BYPASS,True,597.7,919.5,1096.7,33.02,0.882,0.0,-2325.5,-361.3,-154.34,-154.23,-154.34,-153.79,87.16,0.0117,10.0,8.011,3.4439,1.5089,3.7600,66.34,-1.0713,1.6889,2.0000,-32.39,154,250.0,269.0,2.3727,3.1979,3.9820,36.57,33.02,36.57,3.55,False,FORWARDS_RIGHT,1.000,0,0,STUCK,False,False,True,0,True,STUCK_DETECTED,0.00,17
1764570895.909703,60.749,124,TEST2_OBSTACLE_BYPASS,True,597.7,919.5,1096.7,33.02,0.882,0.0,-2332.5,-364.5,-154.95,-155.17,-154.95,-154.62,87.13,0.0075,10.0,8.206,3.4355,1.5055,3.7509,66.34,-1.0834,1.6811,2.0000,-32.80,148,250.0,269.0,2.3521,3.1866,3.9607,36.43,33.02,36.43,3.41,False,FORWARDS_RIGHT,1.000,0,0,STUCK,False,False,True,0,True,STUCK_DETECTED,0.00,18
1764570895.9535203,60.792,125,TEST2_OBSTACLE_BYPASS,True,597.7,919.5,1096.7,33.02,0.882,0.0,-2340.9,-368.2,-156.46,-157.02,-156.46,-156.01,87.05,0.0000,10.0,8.386,3.4258,1.5012,3.7403,66.34,-1.0834,1.6811,2.0000,-32.80,148,250.0,269.0,2.3424,3.1823,3.9515,36.36,33.02,36.36,3.33,False,FORWARDS_RIGHT,1.000,0,0,STUCK,False,False,True,0,True,STUCK_DETECTED,0.00,18
1764570895.9892485,60.828,126,TEST2_OBSTACLE_BYPASS,True,615.6,907.6,1096.7,34.15,0.882,0.0,-2348.0,-371.1,-157.38,-157.25,-157.38,-155.98,87.00,0.0053,10.0,8.555,3.4136,1.4729,3.7178,66.66,-1.0542,1.6996,2.0000,-31.81,145,250.0,269.0,2.3594,3.1725,3.9537,36.64,34.15,36.64,2.49,False,FORWARDS_RIGHT,1.000,0,0,STUCK,False,False,True,0,True,STUCK_DETECTED,0.00,18
1764570896.0359967,60.875,127,TEST2_OBSTACLE_BYPASS,True,615.6,907.6,1096.7,34.15,0.882,0.0,-2356.4,-374.7,-157.00,-155.69,-157.00,-153.68,87.06,-0.0298,10.0,8.728,3.4040,1.4687,3.7073,66.66,-1.0542,1.6996,2.0000,-31.81,145,250.0,269.0,2.3498,3.1683,3.9446,36.56,34.15,36.56,2.42,False,FORWARDS_RIGHT,1.000,0,0,STUCK,False,False,True,0,True,STUCK_DETECTED,0.00,18
1764570896.0721102,60.911,128,TEST2_OBSTACLE_BYPASS,True,615.6,907.6,1096.7,34.15,0.882,0.0,-2363.9,-378.1,-156.05,-153.60,-156.05,-151.23,87.24,0.0075,10.0,8.910,3.3953,1.4651,3.6979,66.66,-1.0591,1.6966,2.0000,-31.97,148,250.0,269.0,2.3362,3.1616,3.9312,36.46,34.15,36.46,2.31,False,FORWARDS_RIGHT,1.000,0,0,STUCK,False,False,True,0,True,STUCK_DETECTED,0.00,18
1764570896.108489,60.947,129,TEST2_OBSTACLE_BYPASS,True,615.6,907.6,1096.7,34.15,0.882,0.0,-2371.1,-381.3,-155.26,-154.47,-155.26,-151.88,87.15,0.0341,10.0,9.096,3.3870,1.4617,3.6890,66.66,-1.0591,1.6966,2.0000,-31.97,148,250.0,269.0,2.3279,3.1583,3.9235,36.39,34.15,36.39,2.25,False,FORWARDS_RIGHT,1.000,0,0,STUCK,False,False,True,0,True,STUCK_DETECTED,0.00,18
1764570896.152863,60.992,130,TEST2_OBSTACLE_BYPASS,False,0.0,0.0,0.0,0.00,0.000,0.0,-2379.7,-385.3,-155.10,-156.56,-155.10,-153.22,87.22,-0.0021,10.0,9.283,3.3771,1.4578,3.6783,66.65,-1.0529,1.7004,2.0000,-31.76,154,250.0,269.0,2.3242,3.1582,3.9212,36.35,0.00,36.35,0.00,False,FORWARDS_RIGHT,1.000,0,0,STUCK,False,False,True,0,True,STUCK_DETECTED,0.00,0
1764570896.194351,61.033,131,TEST2_OBSTACLE_BYPASS,False,0.0,0.0,0.0,0.00,0.000,0.0,-2387.6,-389.0,-155.31,-155.97,-155.31,-151.79,87.17,-0.0383,10.0,9.466,3.3680,1.4541,3.6685,66.65,-1.0529,1.7004,2.0000,-31.76,154,250.0,269.0,2.3151,3.1545,3.9129,36.28,0.00,36.28,0.00,False,FORWARDS_RIGHT,1.000,0,0,STUCK,False,False,True,0,True,STUCK_DETECTED,0.00,0
1764570896.2321503,61.071,132,TEST2_OBSTACLE_BYPASS,False,0.0,0.0,0.0,0.00,0.000,0.0,-2394.9,-392.3,-155.39,-154.00,-155.39,-148.92,87.23,-0.0021,10.0,9.647,3.3596,1.4507,3.6595,66.65,-1.0196,1.7206,2.0000,-30.65,145,250.0,269.0,2.3401,3.1713,3.9412,36.42,0.00,36.42,0.00,False,FORWARDS_RIGHT,1.000,0,0,STUCK,False,False,True,0,True,STUCK_DETECTED,0.00,0
1764570896.2762852,61.115,133,TEST2_OBSTACLE_BYPASS,False,0.0,0.0,0.0,0.00,0.000,0.0,-2403.1,-396.1,-155.32,-153.50,-155.32,-147.98,87.29,0.0181,10.0,9.827,3.3504,1.4469,3.6495,66.64,-1.0196,1.7206,2.0000,-30.65,145,250.0,269.0,2.3308,3.1676,3.9327,36.35,0.00,36.35,0.00,False,FORWARDS_RIGHT,1.000,0,0,STUCK,False,False,True,0,True,STUCK_DETECTED,0.00,0
1764570896.3141768,61.153,134,TEST2_OBSTACLE_BYPASS,False,0.0,0.0,0.0,0.00,0.000,0.0,-2410.3,-399.4,-155.20,-153.91,-155.20,-148.03,87.37,0.0085,10.0,10.006,3.3421,1.4436,3.6406,66.64,-1.0460,1.7047,2.0000,-31.53,130,250.0,269.0,2.2961,3.1483,3.8966,36.10,0.00,36.10,0.00,False,FORWARDS_RIGHT,1.000,0,0,STUCK,False,False,True,0,True,STUCK_DETECTED,0.00,0
1764570896.3556936,61.195,135,TEST2_OBSTACLE_BYPASS,False,0.0,0.0,0.0,0.00,0.000,0.0,-2418.3,-403.1,-154.98,-154.87,-154.98,-148.81,87.24,0.0085,10.0,10.186,3.3332,1.4401,3.6310,66.63,-1.0460,1.7047,2.0000,-31.53,130,250.0,269.0,2.2872,3.1447,3.8885,36.03,0.00,36.03,0.00,False,FORWARDS_RIGHT,1.000,0,0,STUCK,False,False,True,0,True,STUCK_DETECTED,0.00,0
1764570896.3941724,61.233,136,TEST2_OBSTACLE_BYPASS,False,0.0,0.0,0.0,0.00,0.000,0.0,-2426.0,-406.8,-154.81,-155.50,-154.81,-149.03,87.27,0.0000,10.0,10.364,3.3245,1.4366,3.6216,66.63,-1.1146,1.6606,2.0000,-33.87,107,250.0,269.0,2.2099,3.0972,3.8048,35.51,0.00,35.51,0.00,False,FORWARDS_RIGHT,1.000,0,0,STUCK,False,False,True,0,True,STUCK_DETECTED,0.00,0
1764570896.442223,61.281,137,TEST2_OBSTACLE_BYPASS,False,0.0,0.0,0.0,0.00,0.000,0.0,-2434.2,-410.6,-154.69,-154.56,-154.69,-147.73,87.31,-0.0117,10.0,10.542,3.3153,1.4330,3.6117,66.62,-1.1146,1.6606,2.0000,-33.87,107,250.0,269.0,2.2007,3.0936,3.7965,35.43,0.00,35.43,0.00,False,FORWARDS_RIGHT,1.000,0,0,STUCK,False,False,True,0,True,STUCK_DETECTED,0.00,0
1764570896.47725,61.316,138,TEST2_OBSTACLE_BYPASS,False,0.0,0.0,0.0,0.00,0.000,0.0,-2441.3,-414.0,-154.67,-153.39,-154.67,-146.34,87.29,-0.0032,10.0,10.721,3.3074,1.4299,3.6032,66.62,-1.1312,1.6494,2.0000,-34.44,103,250.0,269.0,2.1762,3.0793,3.7706,35.25,0.00,35.25,0.00,False,FORWARDS_RIGHT,1.000,0,0,STUCK,False,False,True,0,True,STUCK_DETECTED,0.00,0
1764570896.5258582,61.365,139,TEST2_OBSTACLE_BYPASS,False,0.0,0.0,0.0,0.00,0.000,0.0,-2449.6,-418.0,-154.56,-153.35,-154.56,-146.27,87.49,0.0096,10.0,10.902,3.2981,1.4263,3.5933,66.61,-1.1312,1.6494,2.0000,-34.44,103,250.0,269.0,2.1669,3.0757,3.7623,35.17,0.00,35.17,0.00,False,FORWARDS_RIGHT,1.000,0,0,STUCK,False,False,True,0,True,STUCK_DETECTED,0.00,0
1764570896.5561228,61.395,140,TEST2_OBSTACLE_BYPASS,False,0.0,0.0,0.0,0.00,0.000,0.0,-2456.4,-421.2,-154.27,-153.64,-154.27,-146.56,87.36,0.0107,10.0,11.089,3.2906,1.4234,3.5853,66.61,-1.1339,1.6475,2.0000,-34.54,101,250.0,269.0,2.1567,3.0709,3.7526,35.08,0.00,35.08,0.00,False,FORWARDS_RIGHT,1.000,0,0,STUCK,False,False,True,0,True,STUCK_DETECTED,0.00,0
1764570896.6029787,61.442,141,TEST2_OBSTACLE_BYPASS,False,0.0,0.0,0.0,0.00,0.000,0.0,-2465.0,-425.4,-154.11,-154.41,-154.11,-147.27,87.31,0.0053,10.0,11.279,3.2810,1.4197,3.5750,66.60,-1.1383,1.6445,2.0000,-34.69,101,250.0,269.0,2.1427,3.0642,3.7390,34.96,0.00,34.96,0.00,False,FORWARDS_RIGHT,1.000,0,0,STUCK,False,False,True,0,True,STUCK_DETECTED,0.00,0
1764570896.6424313,61.481,142,TEST2_OBSTACLE_BYPASS,False,0.0,0.0,0.0,0.00,0.000,0.0,-2472.7,-429.1,-154.18,-154.63,-154.18,-147.12,87.42,0.0053,10.0,11.471,3.2725,1.4165,3.5659,66.60,-1.1383,1.6445,2.0000,-34.69,101,250.0,269.0,2.1342,3.0609,3.7315,34.89,0.00,34.89,0.00,False,FORWARDS_RIGHT,1.000,0,0,STUCK,False,False,True,0,True,STUCK_DETECTED,0.00,0
1764570896.680563,61.519,143,TEST2_OBSTACLE_BYPASS,False,0.0,0.0,0.0,0.00,0.000,0.0,-2480.0,-432.6,-154.20,-153.75,-154.20,-145.77,87.36,-0.0149,10.0,11.664,3.2646,1.4134,3.5574,66.59,-1.1496,1.6366,2.0000,-35.09,101,250.0,269.0,2.1150,3.0500,3.7115,34.74,0.00,34.74,0.00,False,FORWARDS_RIGHT,1.000,0,0,STUCK,False,False,True,0,True,STUCK_DETECTED,0.00,0
1764570896.724876,61.564,144,TEST2_OBSTACLE_BYPASS,False,0.0,0.0,0.0,0.00,0.000,0.0,-2488.4,-436.7,-154.05,-152.43,-154.05,-144.09,87.41,-0.0085,10.0,11.858,3.2554,1.4099,3.5476,66.58,-1.1496,1.6366,2.0000,-35.09,101,250.0,269.0,2.1058,3.0465,3.7034,34.65,0.00,34.65,0.00,False,FORWARDS_RIGHT,1.000,0,0,STUCK,False,False,True,0,True,STUCK_DETECTED,0.00,0
1764570896.7614617,61.600,145,TEST2_OBSTACLE_BYPASS,False,0.0,0.0,0.0,0.00,0.000,0.0,-2495.2,-440.1,-153.83,-152.65,-153.83,-144.18,87.40,0.0202,10.0,12.056,3.2479,1.4071,3.5396,66.58,-1.1750,1.6184,2.0000,-35.98,101,250.0,269.0,2.0729,3.0255,3.6675,34.42,0.00,34.42,0.00,False,FORWARDS_RIGHT,1.000,0,0,STUCK,False,False,True,0,True,STUCK_DETECTED,0.00,0
1764570896.8045907,61.644,146,TEST2_OBSTACLE_BYPASS,False,0.0,0.0,0.0,0.00,0.000,0.0,-2503.2,-444.1,-153.65,-153.64,-153.65,-145.13,87.47,0.0202,10.0,12.253,3.2392,1.4038,3.5303,66.57,-1.1750,1.6184,2.0000,-35.98,101,250.0,269.0,2.0641,3.0222,3.6599,34.33,0.00,34.33,0.00,False,FORWARDS_RIGHT,1.000,0,0,STUCK,False,False,True,0,True,STUCK_DETECTED,0.00,0
1764570896.8417747,61.681,147,TEST2_OBSTACLE_BYPASS,False,0.0,0.0,0.0,0.00,0.000,0.0,-2510.4,-447.6,-153.65,-154.59,-153.65,-145.88,87.48,0.0053,10.0,12.443,3.2314,1.4009,3.5220,66.56,-1.1771,1.6169,2.0000,-36.06,101,250.0,269.0,2.0543,3.0178,3.6507,34.24,0.00,34.24,0.00,False,FORWARDS_RIGHT,1.000,0,0,STUCK,False,False,True,0,True,STUCK_DETECTED,0.00,0
1764570896.886633,61.726,148,TEST2_OBSTACLE_BYPASS,False,0.0,0.0,0.0,0.00,0.000,0.0,-2518.4,-451.6,-153.73,-154.19,-153.73,-144.75,87.43,-0.0181,10.0,12.623,3.2228,1.3977,3.5128,66.55,-1.1771,1.6169,2.0000,-36.06,101,250.0,269.0,2.0456,3.0146,3.6431,34.16,0.00,34.16,0.00,False,FORWARDS_RIGHT,1.000,0,0,STUCK,False,False,True,0,True,STUCK_DETECTED,0.00,0
1764570896.921299,61.760,149,TEST2_OBSTACLE_BYPASS,False,0.0,0.0,0.0,0.00,0.000,0.0,-2525.3,-455.0,-153.66,-152.64,-153.66,-142.69,87.57,-0.0192,10.0,12.797,3.2154,1.3949,3.5049,66.55,-1.1771,1.6169,2.0000,-36.06,101,250.0,269.0,2.0383,3.0118,3.6367,34.09,0.00,34.09,0.00,False,FORWARDS_RIGHT,1.000,0,0,STUCK,False,False,True,0,True,STUCK_DETECTED,0.00,0
1764570896.9639127,61.803,150,TEST2_OBSTACLE_BYPASS,False,0.0,0.0,0.0,0.00,0.000,0.0,-2533.3,-459.0,-153.46,-151.67,-153.46,-141.26,87.58,0.0021,10.0,12.968,3.2069,1.3918,3.4959,66.54,-1.1771,1.6169,2.0000,-36.06,101,250.0,269.0,2.0298,3.0086,3.6293,34.01,0.00,34.01,0.00,False,FORWARDS_RIGHT,1.000,0,0,STUCK,False,False,True,0,True,STUCK_DETECTED,0.00,0
1764570897.0056622,61.845,151,TEST2_OBSTACLE_BYPASS,False,0.0,0.0,0.0,0.00,0.000,0.0,-2541.1,-462.9,-153.29,-152.72,-153.29,-142.27,87.55,0.0117,10.0,13.137,3.1986,1.3887,3.4870,66.53,-1.1574,1.6311,2.0000,-35.36,101,250.0,269.0,2.0411,3.0197,3.6449,34.06,0.00,34.06,0.00,False,FORWARDS_RIGHT,1.000,0,0,STUCK,False,False,True,0,True,STUCK_DETECTED,0.00,0
1764570897.0413396,61.880,152,TEST2_OBSTACLE_BYPASS,False,0.0,0.0,0.0,0.00,0.000,0.0,-2547.9,-466.3,-153.20,-153.71,-153.20,-143.27,87.51,0.0011,10.0,13.302,3.1914,1.3860,3.4793,66.52,-1.1574,1.6311,2.0000,-35.36,101,250.0,269.0,2.0339,3.0171,3.6386,33.99,0.00,33.99,0.00,False,FORWARDS_RIGHT,1.000,0,0,STUCK,False,False,True,0,True,STUCK_DETECTED,0.00,0
1764570897.0845733,61.924,153,TEST2_OBSTACLE_BYPASS,False,0.0,0.0,0.0,0.00,0.000,0.0,-2556.0,-470.4,-153.15,-153.29,-153.15,-142.69,87.51,-0.0107,10.0,13.464,3.1828,1.3829,3.4702,66.52,-1.1599,1.6293,2.0000,-35.45,101,250.0,269.0,2.0229,3.0122,3.6285,33.88,0.00,33.88,0.00,False,FORWARDS_RIGHT,1.000,0,0,STUCK,False,False,True,0,True,STUCK_DETECTED,0.00,0
1764570897.1251993,61.964,154,TEST2_OBSTACLE_BYPASS,False,0.0,0.0,0.0,0.00,0.000,0.0,-2563.1,-474.0,-153.16,-152.46,-153.16,-141.75,87.53,-0.0032,10.0,13.622,3.1752,1.3801,3.4622,66.51,-1.1599,1.6293,2.0000,-35.45,101,250.0,269.0,2.0154,3.0095,3.6220,33.81,0.00,33.81,0.00,False,FORWARDS_RIGHT,1.000,0,0,STUCK,False,False,True,0,True,STUCK_DETECTED,0.00,0
1764570897.1697676,62.009,155,TEST2_OBSTACLE_BYPASS,False,0.0,0.0,0.0,0.00,0.000,0.0,-2571.6,-478.3,-153.10,-152.11,-153.10,-141.38,87.61,0.0000,10.0,13.779,3.1664,1.3769,3.4528,66.50,-1.1611,1.6284,2.0000,-35.49,100,250.0,269.0,2.0052,3.0053,3.6129,33.71,0.00,33.71,0.00,False,FORWARDS_RIGHT,1.000,0,0,STUCK,False,False,True,0,True,STUCK_DETECTED,0.00,0
1764570897.2040315,62.043,156,TEST2_OBSTACLE_BYPASS,False,0.0,0.0,0.0,0.00,0.000,0.0,-2578.4,-481.8,-152.99,-152.51,-152.99,-141.79,87.58,0.0117,10.0,13.939,3.1592,1.3743,3.4452,66.49,-1.1557,1.6323,2.0000,-35.30,100,250.0,269.0,2.0035,3.0066,3.6130,33.68,0.00,33.68,0.00,False,FORWARDS_RIGHT,1.000,0,0,STUCK,False,False,True,0,True,STUCK_DETECTED,0.00,0
1764570897.2499502,62.089,157,TEST2_OBSTACLE_BYPASS,False,0.0,0.0,0.0,0.00,0.000,0.0,-2586.7,-486.0,-152.87,-153.36,-152.87,-142.64,87.58,0.0000,10.0,14.104,3.1506,1.3712,3.4360,66.48,-1.1607,1.6287,2.0000,-35.48,100,250.0,269.0,1.9899,2.9999,3.5999,33.56,0.00,33.56,0.00,False,FORWARDS_RIGHT,1.000,0,0,STUCK,False,False,True,0,True,STUCK_DETECTED,0.00,0
1764570897.2853155,62.124,158,TEST2_OBSTACLE_BYPASS,False,0.0,0.0,0.0,0.00,0.000,0.0,-2593.5,-489.6,-152.78,-153.34,-152.78,-142.48,87.54,0.0032,10.0,14.275,3.1435,1.3686,3.4285,66.47,-1.1580,1.6306,2.0000,-35.38,100,250.0,269.0,1.9854,2.9992,3.5969,33.50,0.00,33.50,0.00,False,FORWARDS_RIGHT,1.000,0,0,STUCK,False,False,True,0,True,STUCK_DETECTED,0.00,0
1764570897.3281474,62.167,159,TEST2_OBSTACLE_BYPASS,False,0.0,0.0,0.0,0.00,0.000,0.0,-2601.3,-493.6,-152.83,-153.09,-152.83,-141.79,87.64,-0.0021,10.0,14.448,3.1354,1.3657,3.4200,66.46,-1.1619,1.6279,2.0000,-35.52,101,250.0,269.0,1.9736,2.9936,3.5856,33.40,0.00,33.40,0.00,False,FORWARDS_RIGHT,1.000,0,0,STUCK,False,False,True,0,True,STUCK_DETECTED,0.00,0
1764570897.363039,62.202,160,TEST2_OBSTACLE_BYPASS,False,0.0,0.0,0.0,0.00,0.000,0.0,-2608.4,-497.2,-152.88,-152.16,-152.88,-140.42,87.64,-0.0170,10.0,14.621,3.1282,1.3631,3.4123,66.46,-1.1566,1.6317,2.0000,-35.33,101,250.0,269.0,1.9716,2.9947,3.5855,33.36,0.00,33.36,0.00,False,FORWARDS_RIGHT,1.000,0,0,STUCK,False,False,True,0,True,STUCK_DETECTED,0.00,0
1764570897.4073422,62.246,161,TEST2_OBSTACLE_BYPASS,False,0.0,0.0,0.0,0.00,0.000,0.0,-2616.3,-501.3,-152.79,-151.85,-152.79,-139.83,87.61,0.0000,10.0,14.792,3.1201,1.3601,3.4037,66.45,-1.1623,1.6276,2.0000,-35.53,101,250.0,269.0,1.9578,2.9877,3.5720,33.24,0.00,33.24,0.00,False,FORWARDS_RIGHT,1.000,0,0,STUCK,False,False,True,0,True,STUCK_DETECTED,0.00,0
1764570897.4488623,62.288,162,TEST2_OBSTACLE_BYPASS,False,0.0,0.0,0.0,0.00,0.000,0.0,-2624.1,-505.3,-152.69,-152.74,-152.69,-140.76,87.64,0.0032,10.0,14.963,3.1121,1.3573,3.3952,66.44,-1.1623,1.6276,2.0000,-35.53,101,250.0,269.0,1.9498,2.9849,3.5653,33.15,0.00,33.15,0.00,False,FORWARDS_RIGHT,1.000,0,0,STUCK,False,False,True,0,True,STUCK_DETECTED,0.00,0
1764570897.490218,62.329,163,TEST2_OBSTACLE_BYPASS,False,0.0,0.0,0.0,0.00,0.000,0.0,-2631.7,-509.2,-152.68,-153.16,-152.68,-141.17,87.67,-0.0075,10.0,15.136,3.1044,1.3545,3.3870,66.43,-1.1800,1.6148,2.0000,-36.16,101,250.0,269.0,1.9243,2.9692,3.5383,32.95,0.00,32.95,0.00,False,FORWARDS_RIGHT,1.000,0,0,STUCK,False,False,True,0,True,STUCK_DETECTED,0.00,0
1764570897.536493,62.375,164,TEST2_OBSTACLE_BYPASS,False,0.0,0.0,0.0,0.00,0.000,0.0,-2639.7,-513.3,-152.71,-152.72,-152.71,-140.73,87.66,-0.0096,10.0,15.310,3.0964,1.3516,3.3785,66.42,-1.1774,1.6167,2.0000,-36.06,101,250.0,269.0,1.9190,2.9683,3.5346,32.88,0.00,32.88,0.00,False,FORWARDS_RIGHT,1.000,0,0,STUCK,False,False,True,0,True,STUCK_DETECTED,0.00,0
1764570897.5698144,62.409,165,TEST2_OBSTACLE_BYPASS,False,0.0,0.0,0.0,0.00,0.000,0.0,-2646.7,-516.9,-152.73,-152.36,-152.73,-140.36,87.68,0.0000,10.0,15.486,3.0893,1.3490,3.3710,66.41,-1.1762,1.6176,2.0000,-36.02,102,250.0,269.0,1.9131,2.9666,3.5300,32.82,0.00,32.82,0.00,False,FORWARDS_RIGHT,1.000,0,0,STUCK,False,False,True,0,True,STUCK_DETECTED,0.00,0
1764570897.6201856,62.459,166,TEST2_OBSTACLE_BYPASS,False,0.0,0.0,0.0,0.00,0.000,0.0,-2656.0,-521.7,-152.81,-153.34,-152.81,-141.36,87.65,0.0192,10.0,15.662,3.0801,1.3457,3.3612,66.40,-1.1681,1.6234,2.0000,-35.74,99,250.0,269.0,1.9120,2.9691,3.5314,32.78,0.00,32.78,0.00,False,FORWARDS_RIGHT,1.000,0,0,STUCK,False,False,True,0,True,STUCK_DETECTED,0.00,0
1764570897.6555943,62.495,167,TEST2_OBSTACLE_BYPASS,False,0.0,0.0,0.0,0.00,0.000,0.0,-2662.7,-525.2,-152.86,-153.88,-152.86,-141.89,87.65,-0.0075,10.0,15.839,3.0734,1.3432,3.3541,66.39,-1.1710,1.6214,2.0000,-35.84,99,250.0,269.0,1.9024,2.9646,3.5225,32.69,0.00,32.69,0.00,False,FORWARDS_RIGHT,1.000,0,0,STUCK,False,False,True,0,True,STUCK_DETECTED,0.00,0
1764570897.696734,62.536,168,TEST2_OBSTACLE_BYPASS,False,0.0,0.0,0.0,0.00,0.000,0.0,-2670.6,-529.2,-152.87,-153.45,-152.87,-141.46,87.67,-0.0064,10.0,16.018,3.0656,1.3404,3.3458,66.38,-1.1791,1.6154,2.0000,-36.13,101,250.0,269.0,1.8865,2.9558,3.5065,32.55,0.00,32.55,0.00,False,FORWARDS_RIGHT,1.000,0,0,STUCK,False,False,True,0,True,STUCK_DETECTED,0.00,0
