timestamp,elapsed_time,log_number,test_mode,person_detected,person_x_mm,person_y_mm,person_distance_mm,person_angle_deg,person_confidence,time_since_person_update_ms,robot_x_mm,robot_y_mm,robot_orientation_deg,imu_yaw_raw,imu_yaw_smoothed,imu_roll,imu_pitch,imu_angular_vel_z,imu_update_rate,imu_drift_estimate,attr_force_x,attr_force_y,attr_force_magnitude,attr_force_direction_deg,repul_force_x,repul_force_y,repul_force_magnitude,repul_force_direction_deg,num_obstacles_in_range,closest_obstacle_dist_mm,closest_obstacle_angle_deg,total_force_x,total_force_y,total_force_magnitude,total_force_direction_deg,expected_direction_to_person_deg,force_direction_deg,direction_error_deg,direction_mismatch_flag,commanded_direction,commanded_speed,motor_1_speed,motor_2_speed,nav_state,nav_state_changed,goal_reached,stuck_detected,time_in_current_state_s,anomaly_detected,anomaly_type,calculation_time_ms,obstacles_filtered_for_person
1764634553.7687833,241.763,1,TEST2_OBSTACLE_BYPASS,True,-130.7,2646.5,2649.7,357.17,0.710,0.0,3878.1,-2536.1,-171.93,-171.93,-171.93,145.52,88.26,0.0011,10.0,0.000,0.0000,0.0000,0.0000,0.00,-7.8875,-1.3372,8.0000,-99.62,5,300.0,113.0,-7.8875,-1.3372,8.0000,-99.62,-2.83,-99.62,-96.79,True,LEFT,0.700,0,0,NAVIGATING,True,False,False,0,True,FORCE_AWAY_FROM_PERSON,0.00,0
1764634553.8151178,241.810,2,TEST2_OBSTACLE_BYPASS,True,-130.7,2646.5,2649.7,357.17,0.710,0.0,3878.1,-2536.1,-171.93,-171.93,-171.93,145.52,88.26,-0.0032,10.0,0.000,0.0000,0.0000,0.0000,0.00,-7.8875,-1.3372,8.0000,-99.62,5,300.0,113.0,-7.8875,-1.3372,8.0000,-99.62,-2.83,-99.62,-96.79,True,LEFT,0.700,0,0,NAVIGATING,False,False,False,0,True,FORCE_AWAY_FROM_PERSON,0.00,0
1764634553.8468149,241.842,3,TEST2_OBSTACLE_BYPASS,True,-130.7,2646.5,2649.7,357.17,0.710,0.0,3878.1,-2536.1,-171.93,-171.93,-171.93,145.52,88.26,0.0021,10.0,0.000,0.0000,0.0000,0.0000,0.00,-7.9167,-1.1514,8.0000,-98.27,5,300.0,113.0,-7.9167,-1.1514,8.0000,-98.27,-2.83,-98.27,-95.45,True,LEFT,0.700,0,0,NAVIGATING,False,False,False,0,True,FORCE_AWAY_FROM_PERSON,0.00,0
1764634553.8856418,241.880,4,TEST2_OBSTACLE_BYPASS,False,0.0,0.0,0.0,0.00,0.000,0.0,3878.1,-2536.1,-171.93,-171.93,-171.93,145.52,88.26,0.0107,10.0,0.000,0.0000,0.0000,0.0000,0.00,-7.9167,-1.1514,8.0000,-98.27,5,300.0,113.0,-7.9167,-1.1514,8.0000,-98.27,0.00,-98.27,0.00,False,NONE,0.000,0,0,SEARCHING,True,False,False,0,False,,0.00,0
1764634553.9255548,241.920,5,TEST2_OBSTACLE_BYPASS,False,0.0,0.0,0.0,0.00,0.000,0.0,3878.1,-2536.1,-171.93,-171.93,-171.93,145.52,88.26,-0.0064,10.0,0.000,0.0000,0.0000,0.0000,0.00,-7.9294,-1.0607,8.0000,-97.62,6,300.0,113.0,-7.9294,-1.0607,8.0000,-97.62,0.00,-97.62,0.00,False,NONE,0.000,0,0,SEARCHING,False,False,False,0,False,,0.00,0
1764634553.9673831,241.962,6,TEST2_OBSTACLE_BYPASS,False,0.0,0.0,0.0,0.00,0.000,0.0,3878.1,-2536.1,-171.93,-171.93,-171.93,145.52,88.26,0.0021,10.0,0.000,0.0000,0.0000,0.0000,0.00,-7.9294,-1.0607,8.0000,-97.62,6,300.0,113.0,-7.9294,-1.0607,8.0000,-97.62,0.00,-97.62,0.00,False,NONE,0.000,0,0,SEARCHING,False,False,False,0,False,,0.00,0
1764634554.0056121,242.000,7,TEST2_OBSTACLE_BYPASS,False,0.0,0.0,0.0,0.00,0.000,0.0,3878.1,-2536.1,-171.93,-171.93,-171.93,145.52,88.26,-0.0043,10.0,0.000,0.0000,0.0000,0.0000,0.00,-7.8958,-1.2872,8.0000,-99.26,5,300.0,113.0,-7.8958,-1.2872,8.0000,-99.26,0.00,-99.26,0.00,False,NONE,0.000,0,0,SEARCHING,False,False,False,0,False,,0.00,0
1764634554.048911,242.044,8,TEST2_OBSTACLE_BYPASS,False,0.0,0.0,0.0,0.00,0.000,0.0,3878.1,-2536.1,-171.93,-171.93,-171.93,145.52,88.26,-0.0043,10.0,0.000,0.0000,0.0000,0.0000,0.00,-7.8934,-1.3014,8.0000,-99.36,6,300.0,113.0,-7.8934,-1.3014,8.0000,-99.36,0.00,-99.36,0.00,False,NONE,0.000,0,0,SEARCHING,False,False,False,0,False,,0.00,0
1764634554.0849686,242.080,9,TEST2_OBSTACLE_BYPASS,False,0.0,0.0,0.0,0.00,0.000,0.0,3878.1,-2536.1,-171.93,-171.93,-171.93,145.52,88.26,0.0043,10.0,0.000,0.0000,0.0000,0.0000,0.00,-7.9579,-0.8193,8.0000,-95.88,5,300.0,113.0,-7.9579,-0.8193,8.0000,-95.88,0.00,-95.88,0.00,False,NONE,0.000,0,0,SEARCHING,False,False,False,0,False,,0.00,0
1764634554.1265593,242.121,10,TEST2_OBSTACLE_BYPASS,False,0.0,0.0,0.0,0.00,0.000,0.0,3878.1,-2536.1,-171.96,-172.25,-171.96,145.20,88.26,-0.0053,10.0,0.000,0.0000,0.0000,0.0000,0.00,-7.9579,-0.8193,8.0000,-95.88,5,300.0,113.0,-7.9579,-0.8193,8.0000,-95.88,0.00,-95.88,0.00,False,NONE,0.000,0,0,SEARCHING,False,False,True,0,True,STUCK_DETECTED,0.00,0
1764634554.173221,242.168,11,TEST2_OBSTACLE_BYPASS,False,0.0,0.0,0.0,0.00,0.000,0.0,3878.1,-2536.1,-171.96,-171.96,-171.96,145.42,88.16,-0.0075,10.0,0.000,0.0000,0.0000,0.0000,0.00,-7.9073,-1.2143,8.0000,-98.73,8,300.0,113.0,-7.9073,-1.2143,8.0000,-98.73,0.00,-98.73,0.00,False,LEFT,0.700,0,0,SEARCHING,False,False,True,0,True,STUCK_DETECTED,0.00,0
1764634554.215568,242.210,12,TEST2_OBSTACLE_BYPASS,True,-147.8,2642.7,2646.8,356.80,0.703,0.0,3878.1,-2536.1,-171.68,-169.12,-171.68,148.26,88.28,-0.0330,10.0,0.016,0.0000,0.0000,0.0000,0.00,-7.9073,-1.2143,8.0000,-98.73,8,300.0,113.0,-7.9073,-1.2143,8.0000,-98.73,-3.20,-98.73,-95.53,True,LEFT,0.700,0,0,NAVIGATING,True,False,True,0,True,FORCE_AWAY_FROM_PERSON|STUCK_DETECTED,0.00,0
1764634554.2493114,242.244,13,TEST2_OBSTACLE_BYPASS,True,-147.8,2642.7,2646.8,356.80,0.703,0.0,3878.1,-2536.1,-170.82,-163.30,-170.82,153.86,88.26,-0.1097,10.0,0.107,0.0000,0.0000,0.0000,0.00,-7.9462,-0.9265,8.0000,-96.65,10,300.0,113.0,-7.9462,-0.9265,8.0000,-96.65,-3.20,-96.65,-93.45,True,LEFT,0.700,0,0,STUCK,True,False,True,0,True,FORCE_AWAY_FROM_PERSON|STUCK_DETECTED,0.00,0
1764634554.2942157,242.289,14,TEST2_OBSTACLE_BYPASS,True,-147.8,2642.7,2646.8,356.80,0.703,0.0,3878.1,-2536.1,-169.29,-156.65,-169.29,160.25,88.29,-0.0586,10.0,0.302,0.0000,0.0000,0.0000,0.00,-7.9728,-0.6596,8.0000,-94.73,8,300.0,113.0,-7.9728,-0.6596,8.0000,-94.73,-3.20,-94.73,-91.53,True,LEFT,0.700,0,0,STUCK,False,False,True,0,True,FORCE_AWAY_FROM_PERSON|STUCK_DETECTED,0.00,0
1764634554.331614,242.326,15,TEST2_OBSTACLE_BYPASS,True,-147.8,2642.7,2646.8,356.80,0.687,0.0,3878.1,-2536.1,-167.76,-156.57,-167.76,160.21,88.28,0.0405,10.0,0.578,0.0000,0.0000,0.0000,0.00,-7.9728,-0.6596,8.0000,-94.73,8,300.0,113.0,-7.9728,-0.6596,8.0000,-94.73,-3.20,-94.73,-91.53,True,LEFT,0.700,0,0,STUCK,False,False,True,0,True,FORCE_AWAY_FROM_PERSON|STUCK_DETECTED,0.00,0
1764634554.3750303,242.370,16,TEST2_OBSTACLE_BYPASS,True,-147.8,2642.7,2646.8,356.80,0.687,0.0,3878.1,-2536.1,-167.52,-169.54,-167.52,146.77,88.18,0.1641,10.0,0.833,0.0000,0.0000,0.0000,0.00,-7.9530,-0.8656,8.0000,-96.21,8,300.0,113.0,-7.9530,-0.8656,8.0000,-96.21,-3.20,-96.21,-93.01,True,LEFT,0.700,0,0,STUCK,False,False,True,0,True,FORCE_AWAY_FROM_PERSON|STUCK_DETECTED,0.00,0
1764634554.4123156,242.407,17,TEST2_OBSTACLE_BYPASS,True,-147.8,2642.7,2646.8,356.80,0.687,0.0,3878.1,-2536.1,-167.73,-174.04,-167.73,142.05,88.32,0.1257,10.0,1.044,0.0000,0.0000,0.0000,0.00,-7.9530,-0.8656,8.0000,-96.21,8,300.0,113.0,-7.9530,-0.8656,8.0000,-96.21,-3.20,-96.21,-93.01,True,LEFT,0.700,0,0,STUCK,False,False,True,0,True,FORCE_AWAY_FROM_PERSON|STUCK_DETECTED,0.00,0
1764634554.4534707,242.448,18,TEST2_OBSTACLE_BYPASS,True,-147.8,2642.7,2646.8,356.80,0.687,0.0,3878.1,-2536.1,-168.26,-177.19,-168.26,136.99,87.98,-0.0256,10.0,1.198,0.0000,0.0000,0.0000,0.00,-7.9489,-0.9023,8.0000,-96.48,6,300.0,113.0,-7.9489,-0.9023,8.0000,-96.48,-3.20,-96.48,-93.27,True,LEFT,0.700,0,0,STUCK,False,False,True,0,True,FORCE_AWAY_FROM_PERSON|STUCK_DETECTED,0.00,0
1764634554.5066226,242.501,19,TEST2_OBSTACLE_BYPASS,True,-147.8,2642.7,2646.8,356.80,0.687,0.0,3878.1,-2536.1,-168.26,-171.93,-168.26,140.38,88.05,-0.0927,10.0,1.336,0.0000,0.0000,0.0000,0.00,-7.9489,-0.9023,8.0000,-96.48,6,300.0,113.0,-7.9489,-0.9023,8.0000,-96.48,-3.20,-96.48,-93.27,True,LEFT,0.700,0,0,STUCK,False,False,True,0,True,FORCE_AWAY_FROM_PERSON|STUCK_DETECTED,0.00,0
1764634554.5306213,242.525,20,TEST2_OBSTACLE_BYPASS,True,-147.8,2642.7,2646.8,356.80,0.687,0.0,3878.1,-2536.1,-167.67,-166.35,-167.67,144.22,88.15,-0.0895,10.0,1.490,0.0000,0.0000,0.0000,0.00,-7.9865,-0.4648,8.0000,-93.33,3,300.0,261.0,-7.9865,-0.4648,8.0000,-93.33,-3.20,-93.33,-90.13,True,LEFT,0.700,0,0,STUCK,False,False,True,0,True,FORCE_AWAY_FROM_PERSON|STUCK_DETECTED,0.00,0
1764634554.5756173,242.570,21,TEST2_OBSTACLE_BYPASS,True,-147.8,2642.7,2646.8,356.80,0.687,0.0,3878.1,-2536.1,-166.91,-164.41,-166.91,144.46,88.23,0.0181,10.0,1.666,0.0000,0.0000,0.0000,0.00,-7.9865,-0.4648,8.0000,-93.33,3,300.0,261.0,-7.9865,-0.4648,8.0000,-93.33,-3.20,-93.33,-90.13,True,LEFT,0.700,0,0,STUCK,False,False,True,0,True,FORCE_AWAY_FROM_PERSON|STUCK_DETECTED,0.00,0
1764634554.613284,242.608,22,TEST2_OBSTACLE_BYPASS,True,-147.8,2642.7,2646.8,356.80,0.687,0.0,3878.1,-2536.1,-166.66,-166.58,-166.66,141.57,88.12,0.0607,10.0,1.838,0.0000,0.0000,0.0000,0.00,-7.9999,-0.0411,8.0000,-90.29,1,300.0,141.0,-7.9999,-0.0411,8.0000,-90.29,-3.20,-90.29,-87.09,False,LEFT,0.700,0,0,STUCK,False,False,True,0,True,STUCK_DETECTED,0.00,0
1764634554.6534357,242.648,23,TEST2_OBSTACLE_BYPASS,False,0.0,0.0,0.0,0.00,0.000,0.0,3878.1,-2536.1,-167.21,-168.82,-167.21,138.25,88.05,0.0298,10.0,1.968,0.0000,0.0000,0.0000,0.00,-7.9999,-0.0411,8.0000,-90.29,1,300.0,141.0,-7.9999,-0.0411,8.0000,-90.29,0.00,-90.29,0.00,False,NONE,0.000,0,0,STUCK,False,False,True,0,True,STUCK_DETECTED,0.00,0
1764634554.6908033,242.685,24,TEST2_OBSTACLE_BYPASS,False,0.0,0.0,0.0,0.00,0.000,0.0,3878.1,-2536.1,-168.23,-166.85,-168.23,139.11,87.98,-0.0213,10.0,2.044,0.0000,0.0000,0.0000,0.00,-7.9989,0.1339,8.0000,-89.04,1,300.0,141.0,-7.9989,0.1339,8.0000,-89.04,0.00,-89.04,0.00,False,NONE,0.000,0,0,STUCK,False,False,True,0,True,STUCK_DETECTED,0.00,0
1764634554.7327728,242.727,25,TEST2_OBSTACLE_BYPASS,False,0.0,0.0,0.0,0.00,0.000,0.0,3878.1,-2536.1,-168.86,-162.86,-168.86,141.64,88.03,-0.0405,10.0,2.086,0.0000,0.0000,0.0000,0.00,-7.9989,0.1339,8.0000,-89.04,1,300.0,141.0,-7.9989,0.1339,8.0000,-89.04,0.00,-89.04,0.00,False,NONE,0.000,0,0,STUCK,False,False,True,0,True,STUCK_DETECTED,0.00,0
1764634554.7713802,242.766,26,TEST2_OBSTACLE_BYPASS,False,0.0,0.0,0.0,0.00,0.000,0.0,3878.1,-2536.1,-168.07,-161.63,-168.07,141.59,88.12,0.0053,10.0,2.157,0.0000,0.0000,0.0000,0.00,-7.9026,1.2447,8.0000,-81.05,1,300.0,141.0,-7.9026,1.2447,8.0000,-81.05,0.00,-81.05,0.00,False,NONE,0.000,0,0,STUCK,False,False,True,0,True,STUCK_DETECTED,0.00,0
1764634554.8122294,242.807,27,TEST2_OBSTACLE_BYPASS,False,0.0,0.0,0.0,0.00,0.000,0.0,3878.1,-2536.1,-166.89,-162.30,-166.89,139.64,88.04,0.0128,10.0,2.268,0.0000,0.0000,0.0000,0.00,-7.8786,-1.3885,8.0000,-100.00,1,300.0,141.0,-7.8786,-1.3885,8.0000,-100.00,0.00,-100.00,0.00,False,NONE,0.000,0,0,STUCK,False,False,True,0,True,STUCK_DETECTED,0.00,0
1764634554.850272,242.845,28,TEST2_OBSTACLE_BYPASS,False,0.0,0.0,0.0,0.00,0.000,0.0,3878.1,-2536.1,-165.28,-161.02,-165.28,139.37,87.91,0.0138,10.0,2.431,0.0000,0.0000,0.0000,0.00,-7.7417,2.0166,8.0000,-75.40,7,300.0,13.0,-7.7417,2.0166,8.0000,-75.40,0.00,-75.40,0.00,False,NONE,0.000,0,0,STUCK,False,False,True,0,True,STUCK_DETECTED,0.00,0
1764634554.8913584,242.886,29,TEST2_OBSTACLE_BYPASS,False,0.0,0.0,0.0,0.00,0.000,0.0,3878.1,-2536.1,-164.00,-159.16,-164.00,139.57,87.98,-0.0160,10.0,2.627,0.0000,0.0000,0.0000,0.00,-7.7417,2.0166,8.0000,-75.40,7,300.0,13.0,-7.7417,2.0166,8.0000,-75.40,0.00,-75.40,0.00,False,NONE,0.000,0,0,STUCK,False,False,True,0,True,STUCK_DETECTED,0.00,0
1764634554.9346013,242.929,30,TEST2_OBSTACLE_BYPASS,False,0.0,0.0,0.0,0.00,0.000,0.0,3878.1,-2536.1,-163.21,-158.44,-163.21,139.19,87.92,-0.0053,10.0,2.837,0.0000,0.0000,0.0000,0.00,-7.5634,2.6068,8.0000,-70.98,13,300.0,145.0,-7.5634,2.6068,8.0000,-70.98,0.00,-70.98,0.00,False,LEFT,0.700,0,0,STUCK,False,False,True,0,True,STUCK_DETECTED,0.00,0
1764634554.9756966,242.970,31,TEST2_OBSTACLE_BYPASS,True,256.8,2673.0,2685.3,5.49,0.867,0.0,3878.1,-2536.1,-162.46,-156.95,-162.46,139.33,87.91,0.0021,10.0,3.058,0.0000,0.0000,0.0000,0.00,-7.5634,2.6068,8.0000,-70.98,13,300.0,145.0,-7.5634,2.6068,8.0000,-70.98,5.49,-70.98,-76.47,False,LEFT,0.700,0,0,STUCK,False,False,True,0,True,STUCK_DETECTED,0.00,0
1764634555.0144908,243.009,32,TEST2_OBSTACLE_BYPASS,True,256.8,2673.0,2685.3,5.49,0.867,0.0,3878.1,-2536.1,-161.42,-156.12,-161.42,139.26,87.91,0.0011,10.0,3.298,0.0000,0.0000,0.0000,0.00,-6.3012,4.9290,8.0000,-51.97,19,300.0,145.0,-6.3012,4.9290,8.0000,-51.97,5.49,-51.97,-57.45,False,FORWARDS_LEFT,1.000,0,0,STUCK,False,False,True,0,True,STUCK_DETECTED,0.00,0
1764634555.0568862,243.052,33,TEST2_OBSTACLE_BYPASS,True,434.0,2651.7,2687.0,9.29,0.846,0.0,3869.7,-2539.1,-160.07,-155.31,-160.07,138.83,87.80,0.0053,10.0,3.566,0.0000,0.0000,0.0000,0.00,-6.3012,4.9290,8.0000,-51.97,19,300.0,145.0,-6.3012,4.9290,8.0000,-51.97,9.29,-51.97,-61.26,False,FORWARDS_LEFT,1.000,0,0,STUCK,False,False,True,0,True,STUCK_DETECTED,0.00,0
1764634555.0972712,243.092,34,TEST2_OBSTACLE_BYPASS,True,434.0,2651.7,2687.0,9.29,0.846,0.0,3862.3,-2542.0,-158.92,-155.35,-158.92,137.88,87.82,-0.0149,10.0,3.852,0.0000,0.0000,0.0000,0.00,-5.8347,5.4732,8.0000,-46.83,23,300.0,202.0,-5.8347,5.4732,8.0000,-46.83,9.29,-46.83,-56.12,False,FORWARDS_LEFT,1.000,0,0,STUCK,False,False,True,0,True,STUCK_DETECTED,0.00,0
1764634555.1347342,243.129,35,TEST2_OBSTACLE_BYPASS,True,434.0,2651.7,2687.0,9.29,0.846,0.0,3854.2,-2545.2,-158.12,-154.92,-158.12,136.85,87.79,-0.0234,10.0,4.145,0.0000,0.0000,0.0000,0.00,-6.9734,3.9207,8.0000,-60.65,17,300.0,202.0,-6.9734,3.9207,8.0000,-60.65,9.29,-60.65,-69.95,False,FORWARDS_LEFT,1.000,0,0,STUCK,False,False,True,0,True,STUCK_DETECTED,0.00,0
1764634555.1779115,243.173,36,TEST2_OBSTACLE_BYPASS,True,434.0,2651.7,2687.0,9.29,0.846,0.0,3846.4,-2548.5,-157.22,-152.65,-157.22,137.53,87.79,-0.0107,10.0,4.447,0.0000,0.0000,0.0000,0.00,-6.4966,4.6684,8.0000,-54.30,23,300.0,202.0,-6.4966,4.6684,8.0000,-54.30,9.29,-54.30,-63.59,False,FORWARDS_LEFT,1.000,0,0,STUCK,False,False,True,0,True,STUCK_DETECTED,0.00,0
1764634555.217717,243.212,37,TEST2_OBSTACLE_BYPASS,True,434.0,2651.7,2687.0,9.29,0.846,0.0,3838.6,-2552.0,-156.07,-150.76,-156.07,137.81,87.72,0.0075,10.0,4.764,0.0000,0.0000,0.0000,0.00,-6.5563,4.5842,8.0000,-55.04,18,300.0,202.0,-6.5563,4.5842,8.0000,-55.04,9.29,-55.04,-64.33,False,FORWARDS_LEFT,1.000,0,0,STUCK,False,False,True,0,True,STUCK_DETECTED,0.00,0
1764634555.2616577,243.256,38,TEST2_OBSTACLE_BYPASS,True,485.9,2642.7,2687.0,10.42,0.846,0.0,3830.5,-2555.7,-154.99,-150.27,-154.99,136.67,87.71,-0.0064,10.0,5.093,0.0000,0.0000,0.0000,0.00,-5.9009,5.4018,8.0000,-47.53,26,300.0,202.0,-5.9009,5.4018,8.0000,-47.53,10.42,-47.53,-57.95,False,FORWARDS_LEFT,1.000,0,0,STUCK,False,False,True,0,True,STUCK_DETECTED,0.00,0
1764634555.2977674,243.292,39,TEST2_OBSTACLE_BYPASS,True,485.9,2642.7,2687.0,10.42,0.846,0.0,3823.4,-2559.2,-154.02,-149.41,-154.02,135.95,87.75,-0.0266,10.0,5.430,0.0000,0.0000,0.0000,0.00,-6.0703,5.2107,8.0000,-49.36,21,300.0,202.0,-6.0703,5.2107,8.0000,-49.36,10.42,-49.36,-59.78,False,FORWARDS_LEFT,1.000,0,0,STUCK,False,False,True,0,True,STUCK_DETECTED,0.00,0
1764634555.3402717,243.335,40,TEST2_OBSTACLE_BYPASS,True,1037.3,2646.6,2842.6,21.40,0.809,0.0,3815.5,-2563.2,-152.91,-147.30,-152.91,136.49,87.78,-0.0202,10.0,5.778,0.0000,0.0000,0.0000,0.00,-5.8578,5.4485,8.0000,-47.07,35,300.0,202.0,-5.8578,5.4485,8.0000,-47.07,21.40,-47.07,-68.48,False,FORWARDS_LEFT,1.000,0,0,STUCK,False,False,True,0,True,STUCK_DETECTED,0.00,0
1764634555.377543,243.372,41,TEST2_OBSTACLE_BYPASS,True,1037.3,2646.6,2842.6,21.40,0.809,0.0,3808.5,-2567.0,-151.78,-145.68,-151.78,137.00,87.73,0.0266,10.0,6.138,0.0000,0.0000,0.0000,0.00,-5.8578,5.4485,8.0000,-47.07,35,300.0,202.0,-5.8578,5.4485,8.0000,-47.07,21.40,-47.07,-68.48,False,FORWARDS_LEFT,1.000,0,0,STUCK,False,False,True,0,True,STUCK_DETECTED,0.00,0
1764634555.4223819,243.417,42,TEST2_OBSTACLE_BYPASS,True,1126.7,2598.6,2832.3,23.44,0.891,0.0,3800.6,-2571.4,-150.50,-143.38,-150.50,137.86,87.55,0.0245,10.0,6.511,0.0000,0.0000,0.0000,0.00,-6.1188,5.1537,8.0000,-49.89,46,300.0,202.0,-6.1188,5.1537,8.0000,-49.89,23.44,-49.89,-73.33,False,FORWARDS_LEFT,1.000,0,0,STUCK,False,False,True,0,True,STUCK_DETECTED,0.00,0
1764634555.4630036,243.458,43,TEST2_OBSTACLE_BYPASS,True,1177.5,2576.0,2832.3,24.57,0.891,0.0,3793.6,-2575.7,-149.07,-140.98,-149.07,139.06,87.33,-0.0117,10.0,6.900,0.0000,0.0000,0.0000,0.00,-6.0849,5.1937,8.0000,-49.52,32,300.0,202.0,-6.0849,5.1937,8.0000,-49.52,24.57,-49.52,-74.08,False,FORWARDS_LEFT,1.000,0,0,STUCK,False,False,True,0,True,STUCK_DETECTED,0.00,0
1764634555.5026162,243.497,44,TEST2_OBSTACLE_BYPASS,True,1177.5,2576.0,2832.3,24.57,0.891,0.0,3786.3,-2580.3,-147.41,-138.74,-147.41,140.19,87.26,-0.0394,10.0,7.309,0.0000,0.0000,0.0000,0.00,-6.3955,4.8060,8.0000,-53.08,60,550.0,160.0,-6.3955,4.8060,8.0000,-53.08,24.57,-53.08,-77.64,False,FORWARDS_LEFT,1.000,0,0,STUCK,False,False,True,0,True,STUCK_DETECTED,0.00,0
1764634555.5429769,243.538,45,TEST2_OBSTACLE_BYPASS,True,1177.5,2576.0,2832.3,24.57,0.891,0.0,3779.6,-2584.9,-145.61,-136.92,-145.61,140.74,87.38,-0.0607,10.0,7.741,0.0000,0.0000,0.0000,0.00,-6.3955,4.8060,8.0000,-53.08,60,550.0,160.0,-6.3955,4.8060,8.0000,-53.08,24.57,-53.08,-77.64,False,FORWARDS_LEFT,1.000,0,0,STUCK,False,False,True,0,True,STUCK_DETECTED,0.00,0
1764634555.584916,243.580,46,TEST2_OBSTACLE_BYPASS,True,1177.5,2576.0,2832.3,24.57,0.891,0.0,3772.3,-2590.2,-144.04,-136.91,-144.04,138.46,87.45,-0.0085,10.0,8.189,0.0000,0.0000,0.0000,0.00,-6.6121,4.5033,8.0000,-55.74,86,500.0,160.0,-6.6121,4.5033,8.0000,-55.74,24.57,-55.74,-80.31,False,FORWARDS_LEFT,1.000,0,0,STUCK,False,False,True,0,True,STUCK_DETECTED,0.00,0
1764634555.6202552,243.615,47,TEST2_OBSTACLE_BYPASS,True,1177.5,2576.0,2832.3,24.57,0.891,0.0,3766.1,-2594.9,-142.87,-139.12,-142.87,134.43,87.45,0.0490,10.0,8.643,0.0000,0.0000,0.0000,0.00,-6.6138,4.5008,8.0000,-55.76,60,300.0,202.0,-6.6138,4.5008,8.0000,-55.76,24.57,-55.76,-80.33,False,FORWARDS_LEFT,1.000,0,0,STUCK,False,False,True,0,True,STUCK_DETECTED,0.00,0
1764634555.6646938,243.659,48,TEST2_OBSTACLE_BYPASS,True,1177.5,2576.0,2832.3,24.57,0.891,0.0,3759.0,-2600.5,-141.96,-141.14,-141.96,131.00,87.49,0.0309,10.0,9.097,0.0000,0.0000,0.0000,0.00,-6.6043,4.5148,8.0000,-55.64,90,500.0,290.0,-6.6043,4.5148,8.0000,-55.64,24.57,-55.64,-80.21,False,FORWARDS_LEFT,1.000,0,0,STUCK,False,False,True,0,True,STUCK_DETECTED,0.00,0
1764634555.7049878,243.700,49,TEST2_OBSTACLE_BYPASS,True,1227.9,2552.3,2832.3,25.69,0.891,0.0,3752.4,-2605.8,-141.02,-140.06,-141.02,130.53,87.25,0.0309,10.0,9.551,0.0000,0.0000,0.0000,0.00,-6.6043,4.5148,8.0000,-55.64,90,500.0,290.0,-6.6043,4.5148,8.0000,-55.64,25.69,-55.64,-81.33,False,FORWARDS_LEFT,1.000,0,0,STUCK,False,False,True,0,True,STUCK_DETECTED,0.00,0
1764634555.7380764,243.733,50,TEST2_OBSTACLE_BYPASS,False,0.0,0.0,0.0,0.00,0.000,0.0,3746.2,-2611.0,-139.91,-136.18,-139.91,132.56,87.03,0.0256,10.0,10.009,0.0000,0.0000,0.0000,0.00,-6.7103,4.3557,8.0000,-57.01,126,450.0,290.0,-6.7103,4.3557,8.0000,-57.01,0.00,-57.01,0.00,False,NONE,0.000,0,0,STUCK,False,False,True,0,True,STUCK_DETECTED,0.00,0
1764634555.7784681,243.773,51,TEST2_OBSTACLE_BYPASS,False,0.0,0.0,0.0,0.00,0.000,0.0,3739.8,-2616.6,-138.82,-134.77,-138.82,132.07,86.80,0.0511,10.0,10.471,0.0000,0.0000,0.0000,0.00,-6.7103,4.3557,8.0000,-57.01,126,450.0,290.0,-6.7103,4.3557,8.0000,-57.01,0.00,-57.01,0.00,False,NONE,0.000,0,0,STUCK,False,False,True,0,True,STUCK_DETECTED,0.00,0
1764634555.8182995,243.813,52,TEST2_OBSTACLE_BYPASS,False,0.0,0.0,0.0,0.00,0.000,0.0,3733.7,-2622.1,-138.02,-135.37,-138.02,130.02,86.64,0.0213,10.0,10.931,0.0000,0.0000,0.0000,0.00,-6.6843,4.3954,8.0000,-56.67,151,400.0,290.0,-6.6843,4.3954,8.0000,-56.67,0.00,-56.67,0.00,False,NONE,0.000,0,0,STUCK,False,False,True,0,True,STUCK_DETECTED,0.00,0
1764634555.8647473,243.859,53,TEST2_OBSTACLE_BYPASS,False,0.0,0.0,0.0,0.00,0.000,0.0,3726.4,-2628.8,-137.44,-135.20,-137.44,129.31,86.73,-0.0394,10.0,11.384,0.0000,0.0000,0.0000,0.00,-6.7919,4.2272,8.0000,-58.10,171,400.0,295.0,-6.7919,4.2272,8.0000,-58.10,0.00,-58.10,0.00,False,NONE,0.000,0,0,STUCK,False,False,True,0,True,STUCK_DETECTED,0.00,0
1764634555.898503,243.893,54,TEST2_OBSTACLE_BYPASS,False,0.0,0.0,0.0,0.00,0.000,0.0,3721.3,-2633.6,-136.96,-133.95,-136.96,130.24,86.79,-0.0927,10.0,11.829,0.0000,0.0000,0.0000,0.00,-6.7919,4.2272,8.0000,-58.10,171,400.0,295.0,-6.7919,4.2272,8.0000,-58.10,0.00,-58.10,0.00,False,NONE,0.000,0,0,STUCK,False,False,True,0,True,STUCK_DETECTED,0.00,0
1764634555.942419,243.937,55,TEST2_OBSTACLE_BYPASS,False,0.0,0.0,0.0,0.00,0.000,0.0,3714.8,-2639.8,-136.45,-131.77,-136.45,131.96,87.01,-0.1044,10.0,12.267,0.0000,0.0000,0.0000,0.00,-6.9286,3.9993,8.0000,-60.01,179,300.0,291.0,-6.9286,3.9993,8.0000,-60.01,0.00,-60.01,0.00,False,NONE,0.000,0,0,STUCK,False,False,True,0,True,STUCK_DETECTED,0.00,0
1764634555.98097,243.976,56,TEST2_OBSTACLE_BYPASS,False,0.0,0.0,0.0,0.00,0.000,0.0,3709.0,-2645.4,-135.79,-130.32,-135.79,133.17,87.16,-0.0533,10.0,12.701,0.0000,0.0000,0.0000,0.00,-6.9286,3.9993,8.0000,-60.01,179,300.0,291.0,-6.9286,3.9993,8.0000,-60.01,0.00,-60.01,0.00,False,NONE,0.000,0,0,STUCK,False,False,True,0,True,STUCK_DETECTED,0.00,0
1764634556.0260775,244.021,57,TEST2_OBSTACLE_BYPASS,False,0.0,0.0,0.0,0.00,0.000,0.0,3702.9,-2651.5,-134.87,-129.98,-134.87,133.81,87.30,0.0447,10.0,13.136,0.0000,0.0000,0.0000,0.00,-6.9286,3.9993,8.0000,-60.01,179,300.0,291.0,-6.9286,3.9993,8.0000,-60.01,0.00,-60.01,0.00,False,FORWARDS_LEFT,1.000,0,0,STUCK,False,False,True,0,True,STUCK_DETECTED,0.00,0
1764634556.0650637,244.060,58,TEST2_OBSTACLE_BYPASS,False,0.0,0.0,0.0,0.00,0.000,0.0,3696.6,-2658.0,-133.83,-130.66,-133.83,133.36,87.13,0.0543,10.0,13.574,0.0000,0.0000,0.0000,0.00,-7.0692,3.7452,8.0000,-62.09,192,300.0,70.0,-7.0692,3.7452,8.0000,-62.09,0.00,-62.09,0.00,False,FORWARDS_LEFT,1.000,0,0,STUCK,False,False,True,0,True,STUCK_DETECTED,0.00,0
1764634556.1147134,244.109,59,TEST2_OBSTACLE_BYPASS,False,0.0,0.0,0.0,0.00,0.000,0.0,3690.3,-2664.8,-132.92,-130.97,-132.92,133.04,86.97,-0.0064,10.0,14.012,0.0000,0.0000,0.0000,0.00,-6.9500,3.9621,8.0000,-60.31,191,300.0,72.0,-6.9500,3.9621,8.0000,-60.31,0.00,-60.31,0.00,False,FORWARDS_LEFT,1.000,0,0,STUCK,False,False,True,0,True,STUCK_DETECTED,0.00,0
1764634556.1564696,244.151,60,TEST2_OBSTACLE_BYPASS,False,0.0,0.0,0.0,0.00,0.000,0.0,3684.4,-2671.3,-132.30,-130.01,-132.30,133.96,87.04,-0.0288,10.0,14.446,0.0000,0.0000,0.0000,0.00,-6.9668,3.9324,8.0000,-60.56,191,300.0,72.0,-6.9668,3.9324,8.0000,-60.56,0.00,-60.56,0.00,False,FORWARDS_LEFT,1.000,0,0,STUCK,False,False,True,0,True,STUCK_DETECTED,0.00,0
1764634556.1929276,244.188,61,TEST2_OBSTACLE_BYPASS,False,0.0,0.0,0.0,0.00,0.000,0.0,3678.8,-2677.6,-131.72,-129.01,-131.72,134.70,87.07,-0.0426,10.0,14.876,0.0000,0.0000,0.0000,0.00,-7.1573,3.5740,8.0000,-63.46,201,250.0,75.0,-7.1573,3.5740,8.0000,-63.46,0.00,-63.46,0.00,False,FORWARDS_LEFT,1.000,0,0,STUCK,False,False,True,0,True,STUCK_DETECTED,0.00,0
1764634556.2365227,244.231,62,TEST2_OBSTACLE_BYPASS,False,0.0,0.0,0.0,0.00,0.000,0.0,3672.9,-2684.3,-131.03,-128.45,-131.03,134.64,87.04,-0.0011,10.0,15.302,0.0000,0.0000,0.0000,0.00,-7.1218,3.6442,8.0000,-62.90,201,250.0,75.0,-7.1218,3.6442,8.0000,-62.90,0.00,-62.90,0.00,False,FORWARDS_LEFT,1.000,0,0,STUCK,False,False,True,0,True,STUCK_DETECTED,0.00,0
1764634556.2735147,244.268,63,TEST2_OBSTACLE_BYPASS,False,0.0,0.0,0.0,0.00,0.000,0.0,3667.9,-2690.2,-130.34,-128.29,-130.34,134.31,87.09,-0.0213,10.0,15.726,0.0000,0.0000,0.0000,0.00,-7.3277,3.2101,8.0000,-66.34,233,250.0,79.0,-7.3277,3.2101,8.0000,-66.34,0.00,-66.34,0.00,False,FORWARDS_LEFT,1.000,0,0,STUCK,False,False,True,0,True,STUCK_DETECTED,0.00,0
1764634556.3199708,244.315,64,TEST2_OBSTACLE_BYPASS,False,0.0,0.0,0.0,0.00,0.000,0.0,3661.5,-2698.0,-129.74,-127.94,-129.74,134.09,87.04,0.0352,10.0,16.146,0.0000,0.0000,0.0000,0.00,-7.3277,3.2101,8.0000,-66.34,233,250.0,79.0,-7.3277,3.2101,8.0000,-66.34,0.00,-66.34,0.00,False,FORWARDS_LEFT,1.000,0,0,STUCK,False,False,True,0,True,STUCK_DETECTED,0.00,0
1764634556.3570833,244.352,65,TEST2_OBSTACLE_BYPASS,False,0.0,0.0,0.0,0.00,0.000,0.0,3656.7,-2703.9,-129.24,-126.80,-129.24,135.03,86.92,-0.0138,10.0,16.561,0.0000,0.0000,0.0000,0.00,-7.3387,3.1848,8.0000,-66.54,249,200.0,81.0,-7.3387,3.1848,8.0000,-66.54,0.00,-66.54,0.00,False,FORWARDS_LEFT,1.000,0,0,STUCK,False,False,True,0,True,STUCK_DETECTED,0.00,0
1764634556.4004734,244.395,66,TEST2_OBSTACLE_BYPASS,False,0.0,0.0,0.0,0.00,0.000,0.0,3651.1,-2710.8,-128.68,-124.70,-128.68,137.09,87.01,-0.0447,10.0,16.972,0.0000,0.0000,0.0000,0.00,-7.3377,3.1872,8.0000,-66.52,249,200.0,81.0,-7.3377,3.1872,8.0000,-66.52,0.00,-66.52,0.00,False,FORWARDS_LEFT,1.000,0,0,STUCK,False,False,True,0,True,STUCK_DETECTED,0.00,0
1764634556.449262,244.444,67,TEST2_OBSTACLE_BYPASS,False,0.0,0.0,0.0,0.00,0.000,0.0,3644.8,-2718.9,-128.12,-124.33,-128.12,136.86,87.15,-0.0213,10.0,17.378,0.0000,0.0000,0.0000,0.00,-7.2305,3.4235,8.0000,-64.66,250,200.0,80.0,-7.2305,3.4235,8.0000,-64.66,0.00,-64.66,0.00,False,FORWARDS_LEFT,1.000,0,0,STUCK,False,False,True,0,True,STUCK_DETECTED,0.00,0
1764634556.4858625,244.481,68,TEST2_OBSTACLE_BYPASS,False,0.0,0.0,0.0,0.00,0.000,0.0,3640.0,-2725.1,-127.50,-124.47,-127.50,136.18,87.18,0.0245,10.0,17.782,0.0000,0.0000,0.0000,0.00,-7.2269,3.4311,8.0000,-64.60,250,200.0,80.0,-7.2269,3.4311,8.0000,-64.60,0.00,-64.60,0.00,False,FORWARDS_LEFT,1.000,0,0,STUCK,False,False,True,0,True,STUCK_DETECTED,0.00,0
1764634556.529218,244.524,69,TEST2_OBSTACLE_BYPASS,False,0.0,0.0,0.0,0.00,0.000,0.0,3634.6,-2732.4,-126.84,-124.44,-126.84,135.81,86.97,0.0234,10.0,18.183,0.0000,0.0000,0.0000,0.00,-7.5419,2.6683,8.0000,-70.52,285,200.0,80.0,-7.5419,2.6683,8.0000,-70.52,0.00,-70.52,0.00,False,LEFT,0.700,0,0,STUCK,False,False,True,0,True,STUCK_DETECTED,0.00,0
1764634556.5745304,244.569,70,TEST2_OBSTACLE_BYPASS,False,0.0,0.0,0.0,0.00,0.000,0.0,3634.6,-2732.4,-126.25,-124.08,-126.25,136.21,86.95,-0.0032,10.0,18.582,0.0000,0.0000,0.0000,0.00,-7.5419,2.6683,8.0000,-70.52,285,200.0,80.0,-7.5419,2.6683,8.0000,-70.52,0.00,-70.52,0.00,False,LEFT,0.700,0,0,STUCK,False,False,True,0,True,STUCK_DETECTED,0.00,0
1764634556.6118457,244.607,71,TEST2_OBSTACLE_BYPASS,False,0.0,0.0,0.0,0.00,0.000,0.0,3634.6,-2732.4,-125.62,-122.67,-125.62,137.58,87.00,-0.0128,10.0,18.978,0.0000,0.0000,0.0000,0.00,-7.7089,2.1383,8.0000,-74.50,291,200.0,84.0,-7.7089,2.1383,8.0000,-74.50,0.00,-74.50,0.00,False,LEFT,0.700,0,0,STUCK,False,False,True,0,True,STUCK_DETECTED,0.00,0
1764634556.6608262,244.656,72,TEST2_OBSTACLE_BYPASS,False,0.0,0.0,0.0,0.00,0.000,0.0,3634.6,-2732.4,-124.91,-121.42,-124.91,138.58,86.98,-0.0298,10.0,19.373,0.0000,0.0000,0.0000,0.00,-7.7089,2.1383,8.0000,-74.50,291,200.0,84.0,-7.7089,2.1383,8.0000,-74.50,0.00,-74.50,0.00,False,LEFT,0.700,0,0,STUCK,False,False,True,0,True,STUCK_DETECTED,0.00,0
1764634556.6970696,244.692,73,TEST2_OBSTACLE_BYPASS,False,0.0,0.0,0.0,0.00,0.000,0.0,3634.6,-2732.4,-124.33,-122.46,-124.33,137.29,87.01,-0.0224,10.0,19.765,0.0000,0.0000,0.0000,0.00,-7.5808,2.5556,8.0000,-71.37,265,200.0,90.0,-7.5808,2.5556,8.0000,-71.37,0.00,-71.37,0.00,False,LEFT,0.700,0,0,STUCK,False,False,True,0,True,STUCK_DETECTED,0.00,0
1764634556.7411556,244.736,74,TEST2_OBSTACLE_BYPASS,False,0.0,0.0,0.0,0.00,0.000,0.0,3634.6,-2732.4,-124.60,-130.61,-124.60,129.18,87.70,-0.1385,10.0,20.143,0.0000,0.0000,0.0000,0.00,-7.5808,2.5556,8.0000,-71.37,265,200.0,90.0,-7.5808,2.5556,8.0000,-71.37,0.00,-71.37,0.00,False,LEFT,0.700,0,0,STUCK,False,False,True,0,True,STUCK_DETECTED,0.00,0
1764634556.773872,244.769,75,TEST2_OBSTACLE_BYPASS,False,0.0,0.0,0.0,0.00,0.000,0.0,3634.6,-2732.4,-95.50,164.17,-95.50,63.27,88.04,0.1481,10.0,20.903,0.0000,0.0000,0.0000,0.00,-7.6450,2.3565,8.0000,-72.87,223,200.0,227.0,-7.6450,2.3565,8.0000,-72.87,0.00,-72.87,0.00,False,LEFT,0.700,0,0,STUCK,False,False,True,0,True,STUCK_DETECTED,0.00,0
1764634556.8192916,244.814,76,TEST2_OBSTACLE_BYPASS,False,0.0,0.0,0.0,0.00,0.000,0.0,3634.6,-2732.4,-66.96,160.71,-66.96,58.44,87.56,0.4964,10.0,22.024,0.0000,0.0000,0.0000,0.00,-7.6450,2.3565,8.0000,-72.87,223,200.0,227.0,-7.6450,2.3565,8.0000,-72.87,0.00,-72.87,0.00,False,LEFT,0.700,0,0,STUCK,False,False,True,0,True,STUCK_DETECTED,0.00,0
1764634556.857658,244.852,77,TEST2_OBSTACLE_BYPASS,False,0.0,0.0,0.0,0.00,0.000,0.0,3634.6,-2732.4,-67.61,-130.87,-67.61,126.74,87.02,-0.2418,10.0,23.107,0.0000,0.0000,0.0000,0.00,-7.8351,1.6159,8.0000,-78.35,193,200.0,94.0,-7.8351,1.6159,8.0000,-78.35,0.00,-78.35,0.00,False,LEFT,0.700,0,0,STUCK,False,False,True,0,True,STUCK_DETECTED,0.00,0
1764634556.8970368,244.892,78,TEST2_OBSTACLE_BYPASS,False,0.0,0.0,0.0,0.00,0.000,0.0,3634.6,-2732.4,-65.95,-107.84,-65.95,148.78,86.13,-0.2589,10.0,24.183,0.0000,0.0000,0.0000,0.00,-7.9593,0.8061,8.0000,-84.22,171,200.0,101.0,-7.9593,0.8061,8.0000,-84.22,0.00,-84.22,0.00,False,LEFT,0.700,0,0,STUCK,False,False,True,0,True,STUCK_DETECTED,0.00,0
1764634556.938472,244.933,79,TEST2_OBSTACLE_BYPASS,False,0.0,0.0,0.0,0.00,0.000,0.0,3634.6,-2732.4,-63.29,-97.84,-63.29,157.81,85.36,0.0011,10.0,25.266,0.0000,0.0000,0.0000,0.00,-7.9593,0.8061,8.0000,-84.22,171,200.0,101.0,-7.9593,0.8061,8.0000,-84.22,0.00,-84.22,0.00,False,LEFT,0.700,0,0,STUCK,False,False,True,0,True,STUCK_DETECTED,0.00,0
1764634556.9794471,244.974,80,TEST2_OBSTACLE_BYPASS,False,0.0,0.0,0.0,0.00,0.000,0.0,3634.6,-2732.4,-60.86,-99.82,-60.86,155.53,85.30,0.0948,10.0,26.352,0.0000,0.0000,0.0000,0.00,-7.9546,0.8514,8.0000,-83.89,167,200.0,101.0,-7.9546,0.8514,8.0000,-83.89,0.00,-83.89,0.00,False,LEFT,0.700,0,0,STUCK,False,False,True,0,True,STUCK_DETECTED,0.00,0
1764634557.0171793,245.012,81,TEST2_OBSTACLE_BYPASS,False,0.0,0.0,0.0,0.00,0.000,0.0,3634.6,-2732.4,-59.44,-108.41,-59.44,146.58,85.92,0.1055,10.0,27.428,0.0000,0.0000,0.0000,0.00,-7.9546,0.8514,8.0000,-83.89,167,200.0,101.0,-7.9546,0.8514,8.0000,-83.89,0.00,-83.89,0.00,False,LEFT,0.700,0,0,STUCK,False,False,True,0,True,STUCK_DETECTED,0.00,0
1764634557.063645,245.058,82,TEST2_OBSTACLE_BYPASS,False,0.0,0.0,0.0,0.00,0.000,0.0,3634.6,-2732.4,-59.99,-126.93,-59.99,127.84,86.84,-0.0341,10.0,28.472,0.0000,0.0000,0.0000,0.00,-7.9419,0.9625,8.0000,-83.09,164,200.0,101.0,-7.9419,0.9625,8.0000,-83.09,0.00,-83.09,0.00,False,LEFT,0.700,0,0,STUCK,False,False,True,0,True,STUCK_DETECTED,0.00,0
1764634557.1021786,245.097,83,TEST2_OBSTACLE_BYPASS,False,0.0,0.0,0.0,0.00,0.000,0.0,3634.6,-2732.4,-61.00,-132.61,-61.00,122.16,87.20,-0.1374,10.0,29.477,0.0000,0.0000,0.0000,0.00,-7.9419,0.9625,8.0000,-83.09,164,200.0,101.0,-7.9419,0.9625,8.0000,-83.09,0.00,-83.09,0.00,False,LEFT,0.700,0,0,STUCK,False,False,True,0,True,STUCK_DETECTED,0.00,0
1764634557.1427426,245.137,84,TEST2_OBSTACLE_BYPASS,False,0.0,0.0,0.0,0.00,0.000,0.0,3634.6,-2732.4,-60.66,-127.16,-60.66,127.61,87.41,-0.1140,10.0,30.463,0.0000,0.0000,0.0000,0.00,-7.9073,1.2144,8.0000,-81.27,171,200.0,101.0,-7.9073,1.2144,8.0000,-81.27,0.00,-81.27,0.00,False,LEFT,0.700,0,0,STUCK,False,False,True,0,True,STUCK_DETECTED,0.00,0
1764634557.1869144,245.182,85,TEST2_OBSTACLE_BYPASS,False,0.0,0.0,0.0,0.00,0.000,0.0,3634.6,-2732.4,-88.67,-115.90,-88.67,139.38,87.27,0.0128,10.0,31.091,0.0000,0.0000,0.0000,0.00,-7.9073,1.2144,8.0000,-81.27,171,200.0,101.0,-7.9073,1.2144,8.0000,-81.27,0.00,-81.27,0.00,False,LEFT,0.700,0,0,STUCK,False,False,True,0,True,STUCK_DETECTED,0.00,0
1764634557.223561,245.218,86,TEST2_OBSTACLE_BYPASS,False,0.0,0.0,0.0,0.00,0.000,0.0,3634.6,-2732.4,-115.94,-111.98,-115.94,143.91,86.73,0.1140,10.0,31.384,0.0000,0.0000,0.0000,0.00,-7.8814,1.3726,8.0000,-80.12,197,200.0,101.0,-7.8814,1.3726,8.0000,-80.12,0.00,-80.12,0.00,False,LEFT,0.700,0,0,STUCK,False,False,True,0,True,STUCK_DETECTED,0.00,0
1764634557.2675421,245.262,87,TEST2_OBSTACLE_BYPASS,False,0.0,0.0,0.0,0.00,0.000,0.0,3634.6,-2732.4,-114.15,-112.98,-114.15,143.35,86.59,0.0650,10.0,31.691,0.0000,0.0000,0.0000,0.00,-7.8814,1.3726,8.0000,-80.12,197,200.0,101.0,-7.8814,1.3726,8.0000,-80.12,0.00,-80.12,0.00,False,LEFT,0.700,0,0,STUCK,False,False,True,0,True,STUCK_DETECTED,0.00,0
1764634557.3045704,245.299,88,TEST2_OBSTACLE_BYPASS,False,0.0,0.0,0.0,0.00,0.000,0.0,3634.6,-2732.4,-114.78,-114.18,-114.78,141.96,86.47,0.0192,10.0,31.984,0.0000,0.0000,0.0000,0.00,-7.8880,1.3341,8.0000,-80.40,242,200.0,102.0,-7.8880,1.3341,8.0000,-80.40,0.00,-80.40,0.00,False,LEFT,0.700,0,0,STUCK,False,False,True,0,True,STUCK_DETECTED,0.00,0
1764634557.3472722,245.342,89,TEST2_OBSTACLE_BYPASS,False,0.0,0.0,0.0,0.00,0.000,0.0,3634.6,-2732.4,-116.64,-116.40,-116.64,139.53,86.80,-0.0671,10.0,32.249,0.0000,0.0000,0.0000,0.00,-7.9958,0.2601,8.0000,-88.14,228,200.0,104.0,-7.9958,0.2601,8.0000,-88.14,0.00,-88.14,0.00,False,LEFT,0.700,0,0,STUCK,False,False,True,0,True,STUCK_DETECTED,0.00,0
1764634557.3841212,245.379,90,TEST2_OBSTACLE_BYPASS,False,0.0,0.0,0.0,0.00,0.000,0.0,3634.6,-2732.4,-118.37,-117.12,-118.37,138.48,87.12,-0.0799,10.0,32.488,0.0000,0.0000,0.0000,0.00,-7.9992,0.1110,8.0000,-89.21,202,200.0,105.0,-7.9992,0.1110,8.0000,-89.21,0.00,-89.21,0.00,False,LEFT,0.700,0,0,STUCK,False,False,True,0,True,STUCK_DETECTED,0.00,0
1764634557.4266143,245.421,91,TEST2_OBSTACLE_BYPASS,False,0.0,0.0,0.0,0.00,0.000,0.0,3634.6,-2732.4,-119.20,-116.73,-119.20,138.43,87.47,-0.0479,10.0,32.713,0.0000,0.0000,0.0000,0.00,-7.7763,-1.8785,8.0000,-103.58,178,200.0,109.0,-7.7763,-1.8785,8.0000,-103.58,0.00,-103.58,0.00,False,LEFT,0.700,0,0,STUCK,False,False,True,0,True,STUCK_DETECTED,0.00,0
1764634557.4642284,245.459,92,TEST2_OBSTACLE_BYPASS,False,0.0,0.0,0.0,0.00,0.000,0.0,3634.6,-2732.4,-118.28,-117.75,-118.28,137.09,87.53,-0.1055,10.0,32.943,0.0000,0.0000,0.0000,0.00,-7.8059,-1.7515,8.0000,-102.65,141,200.0,167.0,-7.8059,-1.7515,8.0000,-102.65,0.00,-102.65,0.00,False,LEFT,0.700,0,0,STUCK,False,False,True,0,True,STUCK_DETECTED,0.00,0
1764634557.504401,245.499,93,TEST2_OBSTACLE_BYPASS,False,0.0,0.0,0.0,0.00,0.000,0.0,3634.6,-2732.4,-116.63,-116.05,-116.63,138.72,87.70,0.0170,10.0,33.186,0.0000,0.0000,0.0000,0.00,-7.6642,-2.2935,8.0000,-106.66,145,200.0,110.0,-7.6642,-2.2935,8.0000,-106.66,0.00,-106.66,0.00,False,LEFT,0.700,0,0,STUCK,False,False,True,0,True,STUCK_DETECTED,0.00,0
1764634557.546454,245.541,94,TEST2_OBSTACLE_BYPASS,False,0.0,0.0,0.0,0.00,0.000,0.0,3634.6,-2732.4,-115.52,-116.10,-115.52,138.09,87.36,0.1289,10.0,33.436,0.0000,0.0000,0.0000,0.00,-7.8160,-1.7061,8.0000,-102.31,146,200.0,110.0,-7.8160,-1.7061,8.0000,-102.31,0.00,-102.31,0.00,False,LEFT,0.700,0,0,STUCK,False,False,True,0,True,STUCK_DETECTED,0.00,0
1764634557.5838647,245.579,95,TEST2_OBSTACLE_BYPASS,False,0.0,0.0,0.0,0.00,0.000,0.0,3634.6,-2732.4,-115.69,-117.65,-115.69,135.68,87.07,0.2589,10.0,33.678,0.0000,0.0000,0.0000,0.00,-7.8160,-1.7061,8.0000,-102.31,146,200.0,110.0,-7.8160,-1.7061,8.0000,-102.31,0.00,-102.31,0.00,False,LEFT,0.700,0,0,STUCK,False,False,True,0,True,STUCK_DETECTED,0.00,0
1764634557.6262264,245.621,96,TEST2_OBSTACLE_BYPASS,False,0.0,0.0,0.0,0.00,0.000,0.0,3634.6,-2732.4,-117.32,-128.27,-117.32,123.07,86.63,0.2461,10.0,33.898,0.0000,0.0000,0.0000,0.00,-7.7938,-1.8047,8.0000,-103.04,156,200.0,279.0,-7.7938,-1.8047,8.0000,-103.04,0.00,-103.04,0.00,False,LEFT,0.700,0,0,STUCK,False,False,True,0,True,STUCK_DETECTED,0.00,0
1764634557.6641226,245.659,97,TEST2_OBSTACLE_BYPASS,False,0.0,0.0,0.0,0.00,0.000,0.0,3634.6,-2732.4,-118.44,-124.17,-118.44,124.91,86.19,-0.1811,10.0,34.103,0.0000,0.0000,0.0000,0.00,-7.7938,-1.8047,8.0000,-103.04,156,200.0,279.0,-7.7938,-1.8047,8.0000,-103.04,0.00,-103.04,0.00,False,LEFT,0.700,0,0,STUCK,False,False,True,0,True,STUCK_DETECTED,0.00,0
1764634557.7058432,245.701,98,TEST2_OBSTACLE_BYPASS,False,0.0,0.0,0.0,0.00,0.000,0.0,3634.6,-2732.4,-118.59,-115.61,-118.59,131.79,86.91,-0.2344,10.0,34.301,0.0000,0.0000,0.0000,0.00,-7.7445,-2.0057,8.0000,-104.52,165,200.0,110.0,-7.7445,-2.0057,8.0000,-104.52,0.00,-104.52,0.00,False,LEFT,0.700,0,0,STUCK,False,False,True,0,True,STUCK_DETECTED,0.00,0
1764634557.7466648,245.741,99,TEST2_OBSTACLE_BYPASS,False,0.0,0.0,0.0,0.00,0.000,0.0,3634.6,-2732.4,-118.22,-112.77,-118.22,135.47,87.42,-0.0778,10.0,34.499,0.0000,0.0000,0.0000,0.00,-7.7324,-2.0518,8.0000,-104.86,161,200.0,110.0,-7.7324,-2.0518,8.0000,-104.86,0.00,-104.86,0.00,False,LEFT,0.700,0,0,STUCK,False,False,True,0,True,STUCK_DETECTED,0.00,0
1764634557.78431,245.779,100,TEST2_OBSTACLE_BYPASS,False,0.0,0.0,0.0,0.00,0.000,0.0,3634.6,-2732.4,-117.99,-114.83,-117.99,134.75,87.71,-0.0256,10.0,34.695,0.0000,0.0000,0.0000,0.00,-7.7934,-1.8065,8.0000,-103.05,154,200.0,279.0,-7.7934,-1.8065,8.0000,-103.05,0.00,-103.05,0.00,False,LEFT,0.700,0,0,STUCK,False,False,True,0,True,STUCK_DETECTED,0.00,0
1764634557.826625,245.821,101,TEST2_OBSTACLE_BYPASS,False,0.0,0.0,0.0,0.00,0.000,0.0,3634.6,-2732.4,-118.23,-119.12,-118.23,132.23,87.86,0.0138,10.0,34.885,0.0000,0.0000,0.0000,0.00,-7.6809,-2.2370,8.0000,-106.24,160,200.0,279.0,-7.6809,-2.2370,8.0000,-106.24,0.00,-106.24,0.00,False,LEFT,0.700,0,0,STUCK,False,False,True,0,True,STUCK_DETECTED,0.00,0
1764634557.8646355,245.859,102,TEST2_OBSTACLE_BYPASS,False,0.0,0.0,0.0,0.00,0.000,0.0,3634.6,-2732.4,-118.40,-119.42,-118.40,132.75,87.78,0.0224,10.0,35.421,0.0000,0.0000,0.0000,0.00,-7.7366,-2.0359,8.0000,-104.74,148,200.0,279.0,-7.7366,-2.0359,8.0000,-104.74,0.00,-104.74,0.00,False,LEFT,0.700,0,0,STUCK,False,False,True,0,True,STUCK_DETECTED,0.00,0
1764634557.9077039,245.902,103,TEST2_OBSTACLE_BYPASS,False,0.0,0.0,0.0,0.00,0.000,0.0,3634.6,-2732.4,-118.42,-116.24,-118.42,136.02,87.68,0.0181,10.0,35.956,0.0000,0.0000,0.0000,0.00,-7.6689,-2.2776,8.0000,-106.54,152,200.0,279.0,-7.6689,-2.2776,8.0000,-106.54,0.00,-106.54,0.00,False,LEFT,0.700,0,0,STUCK,False,False,True,0,True,STUCK_DETECTED,0.00,0
1764634557.9461505,245.941,104,TEST2_OBSTACLE_BYPASS,False,0.0,0.0,0.0,0.00,0.000,0.0,3634.6,-2732.4,-118.24,-114.31,-118.24,137.52,87.61,-0.0011,10.0,36.493,0.0000,0.0000,0.0000,0.00,-7.7552,-1.9639,8.0000,-104.21,149,200.0,279.0,-7.7552,-1.9639,8.0000,-104.21,0.00,-104.21,0.00,False,LEFT,0.700,0,0,STUCK,False,False,True,0,True,STUCK_DETECTED,0.00,0
1764634557.9848764,245.980,105,TEST2_OBSTACLE_BYPASS,False,0.0,0.0,0.0,0.00,0.000,0.0,3634.6,-2732.4,-117.75,-112.78,-117.75,138.29,87.51,0.0075,10.0,37.034,0.0000,0.0000,0.0000,0.00,-7.6771,-2.2498,8.0000,-106.33,146,200.0,279.0,-7.6771,-2.2498,8.0000,-106.33,0.00,-106.33,0.00,False,LEFT,0.700,0,0,STUCK,False,False,True,0,True,STUCK_DETECTED,0.00,0
1764634558.025598,246.020,106,TEST2_OBSTACLE_BYPASS,False,0.0,0.0,0.0,0.00,0.000,0.0,3634.6,-2732.4,-116.27,-113.46,-116.27,137.10,87.62,0.0288,10.0,37.591,0.0000,0.0000,0.0000,0.00,-7.7792,-1.8668,8.0000,-103.49,144,200.0,279.0,-7.7792,-1.8668,8.0000,-103.49,0.00,-103.49,0.00,False,LEFT,0.700,0,0,STUCK,False,False,True,0,True,STUCK_DETECTED,0.00,0
1764634558.0667932,246.061,107,TEST2_OBSTACLE_BYPASS,False,0.0,0.0,0.0,0.00,0.000,0.0,3634.6,-2732.4,-115.38,-115.26,-115.38,134.61,87.55,0.0149,10.0,38.156,0.0000,0.0000,0.0000,0.00,-7.6955,-2.1862,8.0000,-105.86,147,200.0,279.0,-7.6955,-2.1862,8.0000,-105.86,0.00,-105.86,0.00,False,LEFT,0.700,0,0,STUCK,False,False,True,0,True,STUCK_DETECTED,0.00,0
1764634558.1067574,246.101,108,TEST2_OBSTACLE_BYPASS,False,0.0,0.0,0.0,0.00,0.000,0.0,3634.6,-2732.4,-115.70,-118.82,-115.70,130.86,87.82,0.0053,10.0,38.719,0.0000,0.0000,0.0000,0.00,-7.8139,-1.7154,8.0000,-102.38,143,200.0,279.0,-7.8139,-1.7154,8.0000,-102.38,0.00,-102.38,0.00,False,LEFT,0.700,0,0,STUCK,False,False,True,0,True,STUCK_DETECTED,0.00,0
1764634558.146857,246.142,109,TEST2_OBSTACLE_BYPASS,False,0.0,0.0,0.0,0.00,0.000,0.0,3634.6,-2732.4,-116.40,-119.76,-116.40,129.51,87.62,-0.0011,10.0,39.274,0.0000,0.0000,0.0000,0.00,-7.7411,-2.0187,8.0000,-104.62,145,200.0,279.0,-7.7411,-2.0187,8.0000,-104.62,0.00,-104.62,0.00,False,LEFT,0.700,0,0,STUCK,False,False,True,0,True,STUCK_DETECTED,0.00,0
1764634558.1884222,246.183,110,TEST2_OBSTACLE_BYPASS,False,0.0,0.0,0.0,0.00,0.000,0.0,3634.6,-2732.4,-116.63,-117.13,-116.63,132.26,87.67,-0.0043,10.0,39.827,0.0000,0.0000,0.0000,0.00,-7.8359,-1.6119,8.0000,-101.62,136,200.0,279.0,-7.8359,-1.6119,8.0000,-101.62,0.00,-101.62,0.00,False,LEFT,0.700,0,0,STUCK,False,False,True,0,True,STUCK_DETECTED,0.00,0
1764634558.226885,246.222,111,TEST2_OBSTACLE_BYPASS,False,0.0,0.0,0.0,0.00,0.000,0.0,3634.6,-2732.4,-116.27,-115.51,-116.27,133.81,87.63,-0.0181,10.0,40.384,0.0000,0.0000,0.0000,0.00,-7.7470,-1.9959,8.0000,-104.45,149,200.0,279.0,-7.7470,-1.9959,8.0000,-104.45,0.00,-104.45,0.00,False,LEFT,0.700,0,0,STUCK,False,False,True,0,True,STUCK_DETECTED,0.00,0
1764634558.2695332,246.264,112,TEST2_OBSTACLE_BYPASS,False,0.0,0.0,0.0,0.00,0.000,0.0,3634.6,-2732.4,-115.70,-113.72,-115.70,135.46,87.59,0.0021,10.0,40.944,0.0000,0.0000,0.0000,0.00,-7.8248,-1.6653,8.0000,-102.01,142,200.0,279.0,-7.8248,-1.6653,8.0000,-102.01,0.00,-102.01,0.00,False,LEFT,0.700,0,0,STUCK,False,False,True,0,True,STUCK_DETECTED,0.00,0
1764634558.3103206,246.305,113,TEST2_OBSTACLE_BYPASS,False,0.0,0.0,0.0,0.00,0.000,0.0,3634.6,-2732.4,-115.55,-114.71,-115.55,134.37,87.64,-0.0245,10.0,41.497,0.0000,0.0000,0.0000,0.00,-7.7779,-1.8719,8.0000,-103.53,144,200.0,279.0,-7.7779,-1.8719,8.0000,-103.53,0.00,-103.53,0.00,False,LEFT,0.700,0,0,STUCK,False,False,True,0,True,STUCK_DETECTED,0.00,0
1764634558.3478007,246.342,114,TEST2_OBSTACLE_BYPASS,False,0.0,0.0,0.0,0.00,0.000,0.0,3634.6,-2732.4,-115.72,-116.05,-115.72,133.00,87.75,0.0128,10.0,42.032,0.0000,0.0000,0.0000,0.00,-7.8628,-1.4753,8.0000,-100.63,137,200.0,279.0,-7.8628,-1.4753,8.0000,-100.63,0.00,-100.63,0.00,False,LEFT,0.700,0,0,STUCK,False,False,True,0,True,STUCK_DETECTED,0.00,0
1764634558.3909178,246.386,115,TEST2_OBSTACLE_BYPASS,False,0.0,0.0,0.0,0.00,0.000,0.0,3634.6,-2732.4,-116.12,-116.76,-116.12,132.53,87.73,0.0405,10.0,42.549,0.0000,0.0000,0.0000,0.00,-7.7747,-1.8851,8.0000,-103.63,141,200.0,279.0,-7.7747,-1.8851,8.0000,-103.63,0.00,-103.63,0.00,False,LEFT,0.700,0,0,STUCK,False,False,True,0,True,STUCK_DETECTED,0.00,0
1764634558.4309201,246.426,116,TEST2_OBSTACLE_BYPASS,False,0.0,0.0,0.0,0.00,0.000,0.0,3634.6,-2732.4,-115.99,-112.14,-115.99,136.99,87.63,-0.0522,10.0,43.064,0.0000,0.0000,0.0000,0.00,-7.8580,-1.5008,8.0000,-100.81,136,200.0,279.0,-7.8580,-1.5008,8.0000,-100.81,0.00,-100.81,0.00,False,LEFT,0.700,0,0,STUCK,False,False,True,0,True,STUCK_DETECTED,0.00,0
1764634558.475254,246.470,117,TEST2_OBSTACLE_BYPASS,False,0.0,0.0,0.0,0.00,0.000,0.0,3634.6,-2732.4,-115.55,-110.86,-115.55,138.41,87.63,0.0245,10.0,43.586,0.0000,0.0000,0.0000,0.00,-7.8580,-1.5008,8.0000,-100.81,136,200.0,279.0,-7.8580,-1.5008,8.0000,-100.81,0.00,-100.81,0.00,False,LEFT,0.700,0,0,STUCK,False,False,True,0,True,STUCK_DETECTED,0.00,0
1764634558.512699,246.507,118,TEST2_OBSTACLE_BYPASS,False,0.0,0.0,0.0,0.00,0.000,0.0,3634.6,-2732.4,-114.79,-111.26,-114.79,137.97,87.59,-0.0128,10.0,44.121,0.0000,0.0000,0.0000,0.00,-7.8137,-1.7163,8.0000,-102.39,138,200.0,279.0,-7.8137,-1.7163,8.0000,-102.39,0.00,-102.39,0.00,False,LEFT,0.700,0,0,STUCK,False,False,True,0,True,STUCK_DETECTED,0.00,0
1764634558.552324,246.547,119,TEST2_OBSTACLE_BYPASS,False,0.0,0.0,0.0,0.00,0.000,0.0,3634.6,-2732.4,-114.07,-112.50,-114.07,136.64,87.66,-0.0096,10.0,44.662,0.0000,0.0000,0.0000,0.00,-7.8137,-1.7163,8.0000,-102.39,138,200.0,279.0,-7.8137,-1.7163,8.0000,-102.39,0.00,-102.39,0.00,False,LEFT,0.700,0,0,STUCK,False,False,True,0,True,STUCK_DETECTED,0.00,0
1764634558.5908234,246.586,120,TEST2_OBSTACLE_BYPASS,False,0.0,0.0,0.0,0.00,0.000,0.0,3634.6,-2732.4,-114.05,-116.97,-114.05,132.15,87.89,-0.0128,10.0,45.199,0.0000,0.0000,0.0000,0.00,-7.8001,-1.7770,8.0000,-102.83,145,200.0,279.0,-7.8001,-1.7770,8.0000,-102.83,0.00,-102.83,0.00,False,LEFT,0.700,0,0,STUCK,False,False,True,0,True,STUCK_DETECTED,0.00,0
1764634558.628101,246.623,121,TEST2_OBSTACLE_BYPASS,False,0.0,0.0,0.0,0.00,0.000,0.0,3634.6,-2732.4,-114.30,-118.05,-114.30,131.17,87.93,0.0256,10.0,45.725,0.0000,0.0000,0.0000,0.00,-7.7164,-2.1111,8.0000,-105.30,149,200.0,279.0,-7.7164,-2.1111,8.0000,-105.30,0.00,-105.30,0.00,False,LEFT,0.700,0,0,STUCK,False,False,True,0,True,STUCK_DETECTED,0.00,0
1764634558.6688204,246.664,122,TEST2_OBSTACLE_BYPASS,False,0.0,0.0,0.0,0.00,0.000,0.0,3634.6,-2732.4,-114.53,-115.98,-114.53,133.36,87.94,0.0213,10.0,46.246,0.0000,0.0000,0.0000,0.00,-7.7822,-1.8541,8.0000,-103.40,145,200.0,279.0,-7.7822,-1.8541,8.0000,-103.40,0.00,-103.40,0.00,False,LEFT,0.700,0,0,STUCK,False,False,True,0,True,STUCK_DETECTED,0.00,0
1764634558.7105744,246.705,123,TEST2_OBSTACLE_BYPASS,False,0.0,0.0,0.0,0.00,0.000,0.0,3634.6,-2732.4,-114.46,-114.05,-114.46,135.12,87.77,-0.0021,10.0,46.773,0.0000,0.0000,0.0000,0.00,-7.7822,-1.8541,8.0000,-103.40,145,200.0,279.0,-7.7822,-1.8541,8.0000,-103.40,0.00,-103.40,0.00,False,LEFT,0.700,0,0,STUCK,False,False,True,0,True,STUCK_DETECTED,0.00,0
1764634558.7482262,246.743,124,TEST2_OBSTACLE_BYPASS,False,0.0,0.0,0.0,0.00,0.000,0.0,3634.6,-2732.4,-114.18,-113.20,-114.18,136.06,87.78,0.0138,10.0,47.314,0.0000,0.0000,0.0000,0.00,-7.7072,-2.1447,8.0000,-105.55,159,200.0,279.0,-7.7072,-2.1447,8.0000,-105.55,0.00,-105.55,0.00,False,LEFT,0.700,0,0,STUCK,False,False,True,0,True,STUCK_DETECTED,0.00,0
1764634558.7924445,246.787,125,TEST2_OBSTACLE_BYPASS,False,0.0,0.0,0.0,0.00,0.000,0.0,3634.6,-2732.4,-113.92,-114.17,-113.92,135.11,87.79,-0.0064,10.0,47.863,0.0000,0.0000,0.0000,0.00,-7.6085,-2.4719,8.0000,-108.00,164,200.0,279.0,-7.6085,-2.4719,8.0000,-108.00,0.00,-108.00,0.00,False,LEFT,0.700,0,0,STUCK,False,False,True,0,True,STUCK_DETECTED,0.00,0
1764634558.8298023,246.824,126,TEST2_OBSTACLE_BYPASS,False,0.0,0.0,0.0,0.00,0.000,0.0,3634.6,-2732.4,-114.23,-115.27,-114.23,134.09,87.89,-0.0021,10.0,48.402,0.0000,0.0000,0.0000,0.00,-7.7510,-1.9802,8.0000,-104.33,147,200.0,279.0,-7.7510,-1.9802,8.0000,-104.33,0.00,-104.33,0.00,False,LEFT,0.700,0,0,STUCK,False,False,True,0,True,STUCK_DETECTED,0.00,0
1764634558.874142,246.869,127,TEST2_OBSTACLE_BYPASS,False,0.0,0.0,0.0,0.00,0.000,0.0,3634.6,-2732.4,-114.77,-116.28,-114.77,132.93,87.89,-0.0234,10.0,48.923,0.0000,0.0000,0.0000,0.00,-7.7510,-1.9802,8.0000,-104.33,147,200.0,279.0,-7.7510,-1.9802,8.0000,-104.33,0.00,-104.33,0.00,False,LEFT,0.700,0,0,STUCK,False,False,True,0,True,STUCK_DETECTED,0.00,0
1764634558.911578,246.906,128,TEST2_OBSTACLE_BYPASS,False,0.0,0.0,0.0,0.00,0.000,0.0,3634.6,-2732.4,-115.18,-115.31,-115.18,134.00,87.96,0.0075,10.0,49.424,0.0000,0.0000,0.0000,0.00,-7.7027,-2.1607,8.0000,-105.67,158,200.0,279.0,-7.7027,-2.1607,8.0000,-105.67,0.00,-105.67,0.00,False,LEFT,0.700,0,0,STUCK,False,False,True,0,True,STUCK_DETECTED,0.00,0
1764634558.9517515,246.946,129,TEST2_OBSTACLE_BYPASS,False,0.0,0.0,0.0,0.00,0.000,0.0,3634.6,-2732.4,-115.39,-114.64,-115.39,134.76,87.97,0.0043,10.0,49.910,0.0000,0.0000,0.0000,0.00,-7.6844,-2.2249,8.0000,-106.15,163,200.0,279.0,-7.6844,-2.2249,8.0000,-106.15,0.00,-106.15,0.00,False,LEFT,0.700,0,0,STUCK,False,False,True,0,True,STUCK_DETECTED,0.00,0
1764634559.0038724,246.999,130,TEST2_OBSTACLE_BYPASS,False,0.0,0.0,0.0,0.00,0.000,0.0,3634.6,-2732.4,-115.17,-114.78,-115.17,134.43,87.83,0.0096,10.0,50.390,0.0000,0.0000,0.0000,0.00,-7.6844,-2.2249,8.0000,-106.15,163,200.0,279.0,-7.6844,-2.2249,8.0000,-106.15,0.00,-106.15,0.00,False,LEFT,0.700,0,0,STUCK,False,False,True,0,True,STUCK_DETECTED,0.00,0
1764634559.0424044,247.037,131,TEST2_OBSTACLE_BYPASS,False,0.0,0.0,0.0,0.00,0.000,0.0,3634.6,-2732.4,-114.90,-115.33,-114.90,133.83,87.81,-0.0160,10.0,50.866,0.0000,0.0000,0.0000,0.00,-7.6685,-2.2791,8.0000,-106.55,169,200.0,279.0,-7.6685,-2.2791,8.0000,-106.55,0.00,-106.55,0.00,False,LEFT,0.700,0,0,STUCK,False,False,True,0,True,STUCK_DETECTED,0.00,0
1764634559.0799966,247.075,132,TEST2_OBSTACLE_BYPASS,False,0.0,0.0,0.0,0.00,0.000,0.0,3634.6,-2732.4,-114.80,-114.95,-114.80,134.23,87.88,-0.0192,10.0,51.332,0.0000,0.0000,0.0000,0.00,-7.5466,-2.6551,8.0000,-109.38,174,200.0,279.0,-7.5466,-2.6551,8.0000,-109.38,0.00,-109.38,0.00,False,LEFT,0.700,0,0,STUCK,False,False,True,0,True,STUCK_DETECTED,0.00,0
1764634559.1234322,247.118,133,TEST2_OBSTACLE_BYPASS,False,0.0,0.0,0.0,0.00,0.000,0.0,3634.6,-2732.4,-114.85,-114.58,-114.85,134.71,87.97,-0.0021,10.0,51.784,0.0000,0.0000,0.0000,0.00,-7.7246,-2.0810,8.0000,-105.08,156,200.0,279.0,-7.7246,-2.0810,8.0000,-105.08,0.00,-105.08,0.00,False,LEFT,0.700,0,0,STUCK,False,False,True,0,True,STUCK_DETECTED,0.00,0
1764634559.161147,247.156,134,TEST2_OBSTACLE_BYPASS,False,0.0,0.0,0.0,0.00,0.000,0.0,3634.6,-2732.4,-114.99,-114.55,-114.99,134.80,88.00,0.0192,10.0,52.223,0.0000,0.0000,0.0000,0.00,-7.7286,-2.0662,8.0000,-104.97,153,200.0,279.0,-7.7286,-2.0662,8.0000,-104.97,0.00,-104.97,0.00,False,LEFT,0.700,0,0,STUCK,False,False,True,0,True,STUCK_DETECTED,0.00,0
1764634559.2057672,247.200,135,TEST2_OBSTACLE_BYPASS,False,0.0,0.0,0.0,0.00,0.000,0.0,3634.6,-2732.4,-115.03,-114.66,-115.03,134.59,87.91,0.0117,10.0,52.654,0.0000,0.0000,0.0000,0.00,-7.7959,-1.7957,8.0000,-102.97,145,200.0,279.0,-7.7959,-1.7957,8.0000,-102.97,0.00,-102.97,0.00,False,LEFT,0.700,0,0,STUCK,False,False,True,0,True,STUCK_DETECTED,0.00,0
1764634559.254358,247.249,136,TEST2_OBSTACLE_BYPASS,False,0.0,0.0,0.0,0.00,0.000,0.0,3634.6,-2732.4,-115.00,-114.92,-115.00,134.32,87.91,-0.0117,10.0,53.077,0.0000,0.0000,0.0000,0.00,-7.7684,-1.9109,8.0000,-103.82,145,200.0,279.0,-7.7684,-1.9109,8.0000,-103.82,0.00,-103.82,0.00,False,LEFT,0.700,0,0,RECOVERING,True,False,True,0,True,STUCK_DETECTED,0.00,0
1764634559.2949793,247.290,137,TEST2_OBSTACLE_BYPASS,False,0.0,0.0,0.0,0.00,0.000,0.0,3634.6,-2732.4,-114.79,-114.23,-114.79,134.99,87.92,-0.0149,10.0,53.489,0.0000,0.0000,0.0000,0.00,-7.7957,-1.7965,8.0000,-102.98,142,200.0,279.0,-7.7957,-1.7965,8.0000,-102.98,0.00,-102.98,0.00,False,LEFT,0.700,0,0,RECOVERING,False,False,True,0,True,STUCK_DETECTED,0.00,0
1764634559.3337235,247.328,138,TEST2_OBSTACLE_BYPASS,False,0.0,0.0,0.0,0.00,0.000,0.0,3634.6,-2732.4,-114.66,-113.93,-114.66,135.35,87.98,-0.0149,10.0,53.893,0.0000,0.0000,0.0000,0.00,-7.7957,-1.7965,8.0000,-102.98,142,200.0,279.0,-7.7957,-1.7965,8.0000,-102.98,0.00,-102.98,0.00,False,LEFT,0.700,0,0,RECOVERING,False,False,True,0,True,STUCK_DETECTED,0.00,0
1764634559.3720727,247.367,139,TEST2_OBSTACLE_BYPASS,False,0.0,0.0,0.0,0.00,0.000,0.0,3634.6,-2732.4,-114.58,-113.84,-114.58,135.36,87.96,-0.0107,10.0,54.287,0.0000,0.0000,0.0000,0.00,-7.8088,-1.7385,8.0000,-102.55,148,200.0,279.0,-7.8088,-1.7385,8.0000,-102.55,0.00,-102.55,0.00,False,LEFT,0.700,0,0,RECOVERING,False,False,True,0,True,STUCK_DETECTED,0.00,0
1764634559.4113555,247.406,140,TEST2_OBSTACLE_BYPASS,False,0.0,0.0,0.0,0.00,0.000,0.0,3634.6,-2732.4,-114.48,-113.81,-114.48,135.44,87.99,0.0128,10.0,54.671,0.0000,0.0000,0.0000,0.00,-7.7607,-1.9422,8.0000,-104.05,150,200.0,279.0,-7.7607,-1.9422,8.0000,-104.05,0.00,-104.05,0.00,False,LEFT,0.700,0,0,RECOVERING,False,False,True,0,True,STUCK_DETECTED,0.00,0
1764634559.453914,247.449,141,TEST2_OBSTACLE_BYPASS,False,0.0,0.0,0.0,0.00,0.000,0.0,3634.6,-2732.4,-114.35,-114.06,-114.35,135.26,88.02,-0.0043,10.0,55.046,0.0000,0.0000,0.0000,0.00,-7.8328,-1.6272,8.0000,-101.74,143,200.0,279.0,-7.8328,-1.6272,8.0000,-101.74,0.00,-101.74,0.00,False,LEFT,0.700,0,0,RECOVERING,False,False,True,0,True,STUCK_DETECTED,0.00,0
1764634559.491525,247.486,142,TEST2_OBSTACLE_BYPASS,False,0.0,0.0,0.0,0.00,0.000,0.0,3634.6,-2732.4,-114.24,-113.79,-114.24,135.53,88.02,-0.0096,10.0,55.408,0.0000,0.0000,0.0000,0.00,-7.7494,-1.9865,8.0000,-104.38,143,200.0,279.0,-7.7494,-1.9865,8.0000,-104.38,0.00,-104.38,0.00,False,LEFT,0.700,0,0,RECOVERING,False,False,True,0,True,STUCK_DETECTED,0.00,0
1764634559.5337582,247.528,143,TEST2_OBSTACLE_BYPASS,False,0.0,0.0,0.0,0.00,0.000,0.0,3634.6,-2732.4,-114.12,-113.38,-114.12,135.74,87.92,-0.0011,10.0,55.758,0.0000,0.0000,0.0000,0.00,-7.8412,-1.5862,8.0000,-101.44,136,200.0,279.0,-7.8412,-1.5862,8.0000,-101.44,0.00,-101.44,0.00,False,LEFT,0.700,0,0,RECOVERING,False,False,True,0,True,STUCK_DETECTED,0.00,0
1764634559.576283,247.571,144,TEST2_OBSTACLE_BYPASS,False,0.0,0.0,0.0,0.00,0.000,0.0,3634.6,-2732.4,-114.03,-113.64,-114.03,135.59,88.01,0.0000,10.0,56.092,0.0000,0.0000,0.0000,0.00,-7.8290,-1.6453,8.0000,-101.87,137,200.0,279.0,-7.8290,-1.6453,8.0000,-101.87,0.00,-101.87,0.00,False,LEFT,0.700,0,0,RECOVERING,False,False,True,0,True,STUCK_DETECTED,0.00,0
1764634559.6129777,247.608,145,TEST2_OBSTACLE_BYPASS,False,0.0,0.0,0.0,0.00,0.000,0.0,3634.6,-2732.4,-113.88,-113.18,-113.88,135.97,87.96,0.0021,10.0,56.409,0.0000,0.0000,0.0000,0.00,-7.8625,-1.4768,8.0000,-100.64,137,200.0,279.0,-7.8625,-1.4768,8.0000,-100.64,0.00,-100.64,0.00,False,LEFT,0.700,0,0,RECOVERING,False,False,True,0,True,STUCK_DETECTED,0.00,0
1764634559.6572027,247.652,146,TEST2_OBSTACLE_BYPASS,False,0.0,0.0,0.0,0.00,0.000,0.0,3634.6,-2732.4,-113.70,-113.15,-113.70,136.19,88.08,-0.0064,10.0,56.712,0.0000,0.0000,0.0000,0.00,-7.8545,-1.5187,8.0000,-100.94,135,200.0,279.0,-7.8545,-1.5187,8.0000,-100.94,0.00,-100.94,0.00,False,LEFT,0.700,0,0,RECOVERING,False,False,True,0,True,STUCK_DETECTED,0.00,0
1764634559.6968675,247.692,147,TEST2_OBSTACLE_BYPASS,False,0.0,0.0,0.0,0.00,0.000,0.0,3634.6,-2732.4,-113.58,-113.04,-113.58,136.16,88.00,0.0011,10.0,57.005,0.0000,0.0000,0.0000,0.00,-7.8545,-1.5187,8.0000,-100.94,135,200.0,279.0,-7.8545,-1.5187,8.0000,-100.94,0.00,-100.94,0.00,False,LEFT,0.700,0,0,RECOVERING,False,False,True,0,True,STUCK_DETECTED,0.00,0
1764634559.7430964,247.738,148,TEST2_OBSTACLE_BYPASS,False,0.0,0.0,0.0,0.00,0.000,0.0,3634.6,-2732.4,-113.47,-112.84,-113.47,136.31,87.97,-0.0011,10.0,57.290,0.0000,0.0000,0.0000,0.00,-7.8545,-1.5187,8.0000,-100.94,135,200.0,279.0,-7.8545,-1.5187,8.0000,-100.94,0.00,-100.94,0.00,False,LEFT,0.700,0,0,RECOVERING,False,False,True,0,True,STUCK_DETECTED,0.00,0
1764634559.7788467,247.774,149,TEST2_OBSTACLE_BYPASS,False,0.0,0.0,0.0,0.00,0.000,0.0,3634.6,-2732.4,-113.38,-112.87,-113.38,136.53,88.14,-0.0085,10.0,57.567,0.0000,0.0000,0.0000,0.00,-7.8445,-1.5696,8.0000,-101.31,137,200.0,279.0,-7.8445,-1.5696,8.0000,-101.31,0.00,-101.31,0.00,False,LEFT,0.700,0,0,RECOVERING,False,False,True,0,True,STUCK_DETECTED,0.00,0
1764634559.8156857,247.810,150,TEST2_OBSTACLE_BYPASS,False,0.0,0.0,0.0,0.00,0.000,0.0,3634.6,-2732.4,-113.25,-112.51,-113.25,136.56,87.94,-0.0043,10.0,57.833,0.0000,0.0000,0.0000,0.00,-7.8015,-1.7709,8.0000,-102.79,139,200.0,279.0,-7.8015,-1.7709,8.0000,-102.79,0.00,-102.79,0.00,False,LEFT,0.700,0,0,RECOVERING,False,False,True,0,True,STUCK_DETECTED,0.00,0
1764634559.8637826,247.858,151,TEST2_OBSTACLE_BYPASS,False,0.0,0.0,0.0,0.00,0.000,0.0,3634.6,-2732.4,-113.08,-112.37,-113.08,136.75,87.98,0.0032,10.0,58.091,0.0000,0.0000,0.0000,0.00,-7.8664,-1.4560,8.0000,-100.49,127,200.0,279.0,-7.8664,-1.4560,8.0000,-100.49,0.00,-100.49,0.00,False,LEFT,0.700,0,0,RECOVERING,False,False,True,0,True,STUCK_DETECTED,0.00,0
1764634559.9006667,247.895,152,TEST2_OBSTACLE_BYPASS,False,0.0,0.0,0.0,0.00,0.000,0.0,3634.6,-2732.4,-112.95,-112.48,-112.95,136.78,88.06,0.0043,10.0,58.341,0.0000,0.0000,0.0000,0.00,-7.9104,-1.1937,8.0000,-98.58,122,200.0,279.0,-7.9104,-1.1937,8.0000,-98.58,0.00,-98.58,0.00,False,LEFT,0.700,0,0,RECOVERING,False,False,True,0,True,STUCK_DETECTED,0.00,0
1764634559.941718,247.936,153,TEST2_OBSTACLE_BYPASS,False,0.0,0.0,0.0,0.00,0.000,0.0,3634.6,-2732.4,-112.83,-112.23,-112.83,136.95,88.02,0.0053,10.0,58.588,0.0000,0.0000,0.0000,0.00,-7.9104,-1.1937,8.0000,-98.58,122,200.0,279.0,-7.9104,-1.1937,8.0000,-98.58,0.00,-98.58,0.00,False,LEFT,0.700,0,0,RECOVERING,False,False,True,0,True,STUCK_DETECTED,0.00,0
1764634559.9794054,247.974,154,TEST2_OBSTACLE_BYPASS,False,0.0,0.0,0.0,0.00,0.000,0.0,3634.6,-2732.4,-112.67,-112.07,-112.67,137.18,88.07,-0.0021,10.0,58.830,0.0000,0.0000,0.0000,0.00,-7.8897,-1.3239,8.0000,-99.53,127,200.0,279.0,-7.8897,-1.3239,8.0000,-99.53,0.00,-99.53,0.00,False,LEFT,0.700,0,0,RECOVERING,False,False,True,0,True,STUCK_DETECTED,0.00,0
1764634560.0223544,248.017,155,TEST2_OBSTACLE_BYPASS,False,0.0,0.0,0.0,0.00,0.000,0.0,3634.6,-2732.4,-112.52,-111.65,-112.52,137.59,88.07,0.0043,10.0,59.070,0.0000,0.0000,0.0000,0.00,-7.8897,-1.3239,8.0000,-99.53,127,200.0,279.0,-7.8897,-1.3239,8.0000,-99.53,0.00,-99.53,0.00,False,LEFT,0.700,0,0,RECOVERING,False,False,True,0,True,STUCK_DETECTED,0.00,0
1764634560.066953,248.062,156,TEST2_OBSTACLE_BYPASS,False,0.0,0.0,0.0,0.00,0.000,0.0,3634.6,-2732.4,-112.37,-111.65,-112.37,137.59,88.07,0.0053,10.0,59.304,0.0000,0.0000,0.0000,0.00,-7.8986,-1.2698,8.0000,-99.13,124,200.0,279.0,-7.8986,-1.2698,8.0000,-99.13,0.00,-99.13,0.00,False,LEFT,0.700,0,0,RECOVERING,False,False,True,0,True,STUCK_DETECTED,0.00,0
1764634560.1172242,248.112,157,TEST2_OBSTACLE_BYPASS,False,0.0,0.0,0.0,0.00,0.000,0.0,3634.6,-2732.4,-112.25,-111.86,-112.25,137.33,88.03,0.0053,10.0,59.530,0.0000,0.0000,0.0000,0.00,-7.8986,-1.2698,8.0000,-99.13,124,200.0,279.0,-7.8986,-1.2698,8.0000,-99.13,0.00,-99.13,0.00,False,LEFT,0.700,0,0,RECOVERING,False,False,True,0,True,STUCK_DETECTED,0.00,0
1764634560.1553357,248.150,158,TEST2_OBSTACLE_BYPASS,False,0.0,0.0,0.0,0.00,0.000,0.0,3634.6,-2732.4,-112.15,-111.79,-112.15,137.47,88.07,0.0032,10.0,59.747,0.0000,0.0000,0.0000,0.00,-7.9040,-1.2358,8.0000,-98.89,127,200.0,279.0,-7.9040,-1.2358,8.0000,-98.89,0.00,-98.89,0.00,False,LEFT,0.700,0,0,RECOVERING,False,False,True,0,True,STUCK_DETECTED,0.00,0
1764634560.2061365,248.201,159,TEST2_OBSTACLE_BYPASS,False,0.0,0.0,0.0,0.00,0.000,0.0,3634.6,-2732.4,-112.03,-111.70,-112.03,137.57,88.08,0.0011,10.0,59.956,0.0000,0.0000,0.0000,0.00,-7.9040,-1.2358,8.0000,-98.89,127,200.0,279.0,-7.9040,-1.2358,8.0000,-98.89,0.00,-98.89,0.00,False,LEFT,0.700,0,0,RECOVERING,False,False,True,0,True,STUCK_DETECTED,0.00,0
1764634560.2394342,248.234,160,TEST2_OBSTACLE_BYPASS,False,0.0,0.0,0.0,0.00,0.000,0.0,3634.6,-2732.4,-111.95,-111.72,-111.95,137.46,88.04,0.0085,10.0,60.159,0.0000,0.0000,0.0000,0.00,-7.8993,-1.2656,8.0000,-99.10,129,200.0,279.0,-7.8993,-1.2656,8.0000,-99.10,0.00,-99.10,0.00,False,LEFT,0.700,0,0,RECOVERING,False,False,True,0,True,STUCK_DETECTED,0.00,0
1764634560.2883868,248.283,161,TEST2_OBSTACLE_BYPASS,False,0.0,0.0,0.0,0.00,0.000,0.0,3634.6,-2732.4,-111.88,-111.63,-111.88,137.64,88.09,-0.0043,10.0,60.358,0.0000,0.0000,0.0000,0.00,-7.8793,-1.3843,8.0000,-99.96,131,200.0,279.0,-7.8793,-1.3843,8.0000,-99.96,0.00,-99.96,0.00,False,LEFT,0.700,0,0,RECOVERING,False,False,True,0,True,STUCK_DETECTED,0.00,0
1764634560.3246434,248.319,162,TEST2_OBSTACLE_BYPASS,False,0.0,0.0,0.0,0.00,0.000,0.0,3634.6,-2732.4,-111.79,-111.59,-111.79,137.55,88.00,-0.0085,10.0,60.550,0.0000,0.0000,0.0000,0.00,-7.8793,-1.3843,8.0000,-99.96,131,200.0,279.0,-7.8793,-1.3843,8.0000,-99.96,0.00,-99.96,0.00,False,LEFT,0.700,0,0,RECOVERING,False,False,True,0,True,STUCK_DETECTED,0.00,0
1764634560.368651,248.363,163,TEST2_OBSTACLE_BYPASS,False,0.0,0.0,0.0,0.00,0.000,0.0,3634.6,-2732.4,-111.69,-111.27,-111.69,138.05,88.12,-0.0075,10.0,60.737,0.0000,0.0000,0.0000,0.00,-7.8793,-1.3843,8.0000,-99.96,131,200.0,279.0,-7.8793,-1.3843,8.0000,-99.96,0.00,-99.96,0.00,False,LEFT,0.700,0,0,RECOVERING,False,False,True,0,True,STUCK_DETECTED,0.00,0
1764634560.4109123,248.406,164,TEST2_OBSTACLE_BYPASS,False,0.0,0.0,0.0,0.00,0.000,0.0,3634.6,-2732.4,-111.59,-111.05,-111.59,138.32,88.17,-0.0021,10.0,60.918,0.0000,0.0000,0.0000,0.00,-7.8695,-1.4392,8.0000,-100.36,128,200.0,279.0,-7.8695,-1.4392,8.0000,-100.36,0.00,-100.36,0.00,False,LEFT,0.700,0,0,RECOVERING,False,False,True,0,True,STUCK_DETECTED,0.00,0
1764634560.4503918,248.445,165,TEST2_OBSTACLE_BYPASS,False,0.0,0.0,0.0,0.00,0.000,0.0,3634.6,-2732.4,-111.53,-111.01,-111.53,138.16,88.05,-0.0053,10.0,61.095,0.0000,0.0000,0.0000,0.00,-7.9046,-1.2317,8.0000,-98.86,123,200.0,279.0,-7.9046,-1.2317,8.0000,-98.86,0.00,-98.86,0.00,False,LEFT,0.700,0,0,RECOVERING,False,False,True,0,True,STUCK_DETECTED,0.00,0
1764634560.4940212,248.489,166,TEST2_OBSTACLE_BYPASS,False,0.0,0.0,0.0,0.00,0.000,0.0,3634.6,-2732.4,-111.46,-111.01,-111.46,138.16,88.05,-0.0032,10.0,61.267,0.0000,0.0000,0.0000,0.00,-7.9046,-1.2317,8.0000,-98.86,123,200.0,279.0,-7.9046,-1.2317,8.0000,-98.86,0.00,-98.86,0.00,False,LEFT,0.700,0,0,RECOVERING,False,False,True,0,True,STUCK_DETECTED,0.00,0
