timestamp,elapsed_time,log_number,test_mode,person_detected,person_x_mm,person_y_mm,person_distance_mm,person_angle_deg,person_confidence,time_since_person_update_ms,robot_x_mm,robot_y_mm,robot_orientation_deg,imu_yaw_raw,imu_yaw_smoothed,imu_roll,imu_pitch,imu_angular_vel_z,imu_update_rate,imu_drift_estimate,attr_force_x,attr_force_y,attr_force_magnitude,attr_force_direction_deg,repul_force_x,repul_force_y,repul_force_magnitude,repul_force_direction_deg,num_obstacles_in_range,closest_obstacle_dist_mm,closest_obstacle_angle_deg,total_force_x,total_force_y,total_force_magnitude,total_force_direction_deg,expected_direction_to_person_deg,force_direction_deg,direction_error_deg,direction_mismatch_flag,commanded_direction,commanded_speed,motor_1_speed,motor_2_speed,nav_state,nav_state_changed,goal_reached,stuck_detected,time_in_current_state_s,anomaly_detected,anomaly_type,calculation_time_ms,obstacles_filtered_for_person
1764556861.0522408,157.105,1,GENERAL,True,101.5,2244.4,2246.7,2.59,0.992,0.0,4124.5,-1714.3,138.25,138.25,138.25,170.52,87.47,0.0075,10.0,0.000,0.8906,0.0403,0.8915,2.59,0.1761,-4.5309,4.5343,-87.77,0,800.0,306.0,1.0668,-4.4906,4.6156,-76.64,2.59,-76.64,-79.23,False,LEFT,0.600,0,0,NAVIGATING,True,False,True,0,True,STUCK_DETECTED,0.00,5
1764556861.093883,157.147,2,GENERAL,True,98.7,2237.8,2239.9,2.52,0.996,0.0,4124.5,-1714.3,138.25,138.25,138.25,170.52,87.47,-0.0043,10.0,0.000,0.8960,0.0395,0.8969,2.52,0.1761,-4.5309,4.5343,-87.77,0,800.0,306.0,1.0722,-4.4914,4.6176,-76.57,2.52,-76.57,-79.10,False,LEFT,0.600,0,0,STUCK,True,False,True,0,True,STUCK_DETECTED,0.00,5
1764556861.130195,157.183,3,GENERAL,True,98.7,2237.8,2239.9,2.52,0.996,0.0,4124.5,-1714.3,138.25,138.25,138.25,170.52,87.47,0.0043,10.0,0.000,0.8960,0.0395,0.8969,2.52,0.1761,-4.5309,4.5343,-87.77,0,800.0,306.0,1.0722,-4.4914,4.6176,-76.57,2.52,-76.57,-79.10,False,LEFT,0.600,0,0,STUCK,False,False,True,0,True,STUCK_DETECTED,0.00,4
1764556861.1743,157.227,4,GENERAL,True,98.7,2237.8,2239.9,2.52,0.996,0.0,4124.5,-1714.3,138.25,138.25,138.25,170.52,87.47,0.0085,10.0,0.000,0.8960,0.0395,0.8969,2.52,0.1761,-4.5309,4.5343,-87.77,0,800.0,306.0,1.0722,-4.4914,4.6176,-76.57,2.52,-76.57,-79.10,False,LEFT,0.600,0,0,STUCK,False,False,True,0,True,STUCK_DETECTED,0.00,4
1764556861.218927,157.272,5,GENERAL,True,98.7,2237.8,2239.9,2.52,0.996,0.0,4124.5,-1714.3,138.25,138.25,138.25,170.52,87.47,0.0021,10.0,0.000,0.8960,0.0395,0.8969,2.52,0.1761,-4.5309,4.5343,-87.77,0,800.0,306.0,1.0722,-4.4914,4.6176,-76.57,2.52,-76.57,-79.10,False,LEFT,0.600,0,0,STUCK,False,False,True,0,True,STUCK_DETECTED,0.00,4
1764556861.254046,157.307,6,GENERAL,True,98.7,2237.8,2239.9,2.52,0.996,0.0,4124.5,-1714.3,138.25,138.25,138.25,170.52,87.47,0.0075,10.0,0.000,0.8960,0.0395,0.8969,2.52,0.1761,-4.5309,4.5343,-87.77,0,800.0,306.0,1.0722,-4.4914,4.6176,-76.57,2.52,-76.57,-79.10,False,LEFT,0.600,0,0,STUCK,False,False,True,0,True,STUCK_DETECTED,0.00,4
1764556861.2981386,157.351,7,GENERAL,True,98.7,2237.8,2239.9,2.52,0.996,0.0,4124.5,-1714.3,138.25,138.25,138.25,170.52,87.47,0.0032,10.0,0.000,0.8960,0.0395,0.8969,2.52,0.1761,-4.5309,4.5343,-87.77,0,800.0,306.0,1.0722,-4.4914,4.6176,-76.57,2.52,-76.57,-79.10,False,LEFT,0.600,0,0,STUCK,False,False,True,0,True,STUCK_DETECTED,0.00,4
1764556861.3379729,157.391,8,GENERAL,True,98.7,2237.8,2239.9,2.52,0.996,0.0,4124.5,-1714.3,138.25,138.25,138.25,170.52,87.47,-0.0032,10.0,0.000,0.8960,0.0395,0.8969,2.52,0.1761,-4.5309,4.5343,-87.77,0,800.0,306.0,1.0722,-4.4914,4.6176,-76.57,2.52,-76.57,-79.10,False,LEFT,0.600,0,0,STUCK,False,False,True,0,True,STUCK_DETECTED,0.00,4
1764556861.3807056,157.434,9,GENERAL,True,98.7,2237.8,2239.9,2.52,0.996,0.0,4124.5,-1714.3,138.25,138.25,138.25,170.52,87.47,-0.0085,10.0,0.000,0.8960,0.0395,0.8969,2.52,0.1761,-4.5309,4.5343,-87.77,0,800.0,306.0,1.0722,-4.4914,4.6176,-76.57,2.52,-76.57,-79.10,False,LEFT,0.600,0,0,STUCK,False,False,True,0,True,STUCK_DETECTED,0.00,4
1764556861.4155736,157.469,10,GENERAL,False,0.0,0.0,0.0,0.00,0.000,0.0,4124.5,-1714.3,138.24,138.13,138.24,170.41,87.44,-0.0138,10.0,0.000,0.8960,0.0395,0.8969,2.52,0.1761,-4.5309,4.5343,-87.77,0,800.0,306.0,1.0722,-4.4914,4.6176,-76.57,0.00,-76.57,0.00,False,LEFT,0.600,0,0,STUCK,False,False,True,0,True,STUCK_DETECTED,0.00,0
1764556861.4583302,157.511,11,GENERAL,False,0.0,0.0,0.0,0.00,0.000,0.0,4124.5,-1714.3,138.27,138.57,138.27,170.74,87.51,-0.0085,10.0,0.000,0.8960,0.0395,0.8969,2.52,0.1761,-4.5309,4.5343,-87.77,0,800.0,306.0,1.0722,-4.4914,4.6176,-76.57,0.00,-76.57,0.00,False,LEFT,0.600,0,0,STUCK,False,False,True,0,True,STUCK_DETECTED,0.00,0
1764556861.4954572,157.548,12,GENERAL,False,0.0,0.0,0.0,0.00,0.000,0.0,4124.5,-1714.3,138.40,139.52,138.40,171.45,87.57,-0.0309,10.0,0.014,0.8960,0.0395,0.8969,2.52,0.1761,-4.5309,4.5343,-87.77,0,800.0,306.0,1.0722,-4.4914,4.6176,-76.57,0.00,-76.57,0.00,False,LEFT,0.600,0,0,STUCK,False,False,True,0,True,STUCK_DETECTED,0.00,0
1764556861.540085,157.593,13,GENERAL,False,0.0,0.0,0.0,0.00,0.000,0.0,4124.5,-1714.3,138.63,140.52,138.63,172.16,87.45,-0.0085,10.0,0.044,0.8960,0.0395,0.8969,2.52,0.1761,-4.5309,4.5343,-87.77,0,800.0,306.0,1.0722,-4.4914,4.6176,-76.57,0.00,-76.57,0.00,False,LEFT,0.600,0,0,STUCK,False,False,True,0,True,STUCK_DETECTED,0.00,0
1764556861.5848117,157.638,14,GENERAL,False,0.0,0.0,0.0,0.00,0.000,0.0,4124.5,-1714.3,138.85,140.48,138.85,171.67,87.48,0.0277,10.0,0.087,0.8960,0.0395,0.8969,2.52,0.1761,-4.5309,4.5343,-87.77,0,800.0,306.0,1.0722,-4.4914,4.6176,-76.57,0.00,-76.57,0.00,False,LEFT,0.600,0,0,STUCK,False,False,True,0,True,STUCK_DETECTED,0.00,0
1764556861.6221437,157.675,15,GENERAL,False,0.0,0.0,0.0,0.00,0.000,0.0,4124.5,-1714.3,138.95,139.27,138.95,169.88,87.44,0.0320,10.0,0.130,0.8960,0.0395,0.8969,2.52,0.1761,-4.5309,4.5343,-87.77,0,800.0,306.0,1.0722,-4.4914,4.6176,-76.57,0.00,-76.57,0.00,False,LEFT,0.600,0,0,STUCK,False,False,True,0,True,STUCK_DETECTED,0.00,0
1764556861.6677892,157.721,16,GENERAL,True,91.6,2233.1,2235.0,2.35,0.996,0.0,4124.5,-1714.3,139.00,138.72,139.00,168.70,87.49,-0.0064,10.0,0.171,0.9001,0.0369,0.9009,2.35,0.1761,-4.5309,4.5343,-87.77,0,800.0,306.0,1.0763,-4.4940,4.6211,-76.53,2.35,-76.53,-78.88,False,LEFT,0.600,0,0,STUCK,False,False,True,0,True,STUCK_DETECTED,0.00,4
1764556861.7164965,157.770,17,GENERAL,True,91.6,2233.1,2235.0,2.35,0.996,0.0,4124.5,-1714.3,139.13,139.55,139.13,168.75,87.35,-0.0075,10.0,0.215,0.9001,0.0369,0.9009,2.35,0.1761,-4.5309,4.5343,-87.77,0,800.0,306.0,1.0763,-4.4940,4.6211,-76.53,2.35,-76.53,-78.88,False,LEFT,0.600,0,0,STUCK,False,False,True,0,True,STUCK_DETECTED,0.00,3
1764556861.7648368,157.818,18,GENERAL,True,91.6,2233.1,2235.0,2.35,0.996,0.0,4124.5,-1714.3,139.32,140.14,139.32,168.57,87.37,0.0064,10.0,0.265,0.9001,0.0369,0.9009,2.35,0.1761,-4.5309,4.5343,-87.77,0,800.0,306.0,1.0763,-4.4940,4.6211,-76.53,2.35,-76.53,-78.88,False,LEFT,0.600,0,0,STUCK,False,False,True,0,True,STUCK_DETECTED,0.00,3
1764556861.796022,157.849,19,GENERAL,True,95.4,2231.2,2233.3,2.45,0.995,0.0,4124.5,-1714.3,139.53,140.45,139.53,167.99,87.27,0.0149,10.0,0.321,0.9014,0.0385,0.9023,2.45,0.1761,-4.5309,4.5343,-87.77,0,800.0,306.0,1.0776,-4.4924,4.6198,-76.51,2.45,-76.51,-78.96,False,LEFT,0.600,0,0,STUCK,False,False,True,0,True,STUCK_DETECTED,0.00,3
1764556861.8461232,157.899,20,GENERAL,True,95.4,2231.2,2233.3,2.45,0.995,0.0,4124.5,-1714.3,139.78,140.55,139.78,167.19,87.23,0.0075,10.0,0.385,0.9014,0.0385,0.9023,2.45,0.1761,-4.5309,4.5343,-87.77,0,800.0,306.0,1.0776,-4.4924,4.6198,-76.51,2.45,-76.51,-78.96,False,LEFT,0.600,0,0,STUCK,False,False,True,0,True,STUCK_DETECTED,0.00,4
1764556861.884523,157.938,21,GENERAL,True,95.4,2231.2,2233.3,2.45,0.995,0.0,4124.5,-1714.3,139.98,140.61,139.98,166.58,87.35,-0.0053,10.0,0.452,0.9014,0.0385,0.9023,2.45,0.1761,-4.5309,4.5343,-87.77,0,800.0,306.0,1.0776,-4.4924,4.6198,-76.51,2.45,-76.51,-78.96,False,LEFT,0.600,0,0,STUCK,False,False,True,0,True,STUCK_DETECTED,0.00,4
1764556861.926679,157.980,22,GENERAL,True,95.4,2231.2,2233.3,2.45,0.995,0.0,4124.5,-1714.3,140.14,141.08,140.14,166.37,87.18,-0.0043,10.0,0.520,0.9014,0.0385,0.9023,2.45,0.1761,-4.5309,4.5343,-87.77,0,800.0,306.0,1.0776,-4.4924,4.6198,-76.51,2.45,-76.51,-78.96,False,LEFT,0.600,0,0,STUCK,False,False,True,0,True,STUCK_DETECTED,0.00,4
1764556861.97511,158.028,23,GENERAL,True,95.4,2231.2,2233.3,2.45,0.995,0.0,4124.5,-1714.3,140.24,141.54,140.24,165.94,87.22,-0.0032,10.0,0.587,0.9014,0.0385,0.9023,2.45,0.1761,-4.5309,4.5343,-87.77,0,800.0,306.0,1.0776,-4.4924,4.6198,-76.51,2.45,-76.51,-78.96,False,LEFT,0.600,0,0,STUCK,False,False,True,0,True,STUCK_DETECTED,0.00,4
1764556862.0181344,158.071,24,GENERAL,True,95.4,2231.2,2233.3,2.45,0.995,0.0,4124.5,-1714.3,140.42,142.29,140.42,165.73,87.20,-0.0053,10.0,0.655,0.9014,0.0385,0.9023,2.45,0.1761,-4.5309,4.5343,-87.77,0,800.0,306.0,1.0776,-4.4924,4.6198,-76.51,2.45,-76.51,-78.96,False,LEFT,0.600,0,0,STUCK,False,False,True,0,True,STUCK_DETECTED,0.00,5
1764556862.0645638,158.118,25,GENERAL,True,95.4,2231.2,2233.3,2.45,0.995,0.0,4124.5,-1714.3,140.77,142.82,140.77,165.54,87.26,0.0064,10.0,0.733,0.9014,0.0385,0.9023,2.45,0.1761,-4.5309,4.5343,-87.77,0,800.0,306.0,1.0776,-4.4924,4.6198,-76.51,2.45,-76.51,-78.96,False,LEFT,0.600,0,0,STUCK,False,False,True,0,True,STUCK_DETECTED,0.00,5
1764556862.1108236,158.164,26,GENERAL,False,0.0,0.0,0.0,0.00,0.000,0.0,4124.5,-1714.3,141.17,142.68,141.17,164.29,87.27,-0.0011,10.0,0.821,0.9014,0.0385,0.9023,2.45,0.1761,-4.5309,4.5343,-87.77,0,800.0,306.0,1.0776,-4.4924,4.6198,-76.51,0.00,-76.51,0.00,False,LEFT,0.600,0,0,STUCK,False,False,True,0,True,STUCK_DETECTED,0.00,0
1764556862.148807,158.202,27,GENERAL,False,0.0,0.0,0.0,0.00,0.000,0.0,4124.5,-1714.3,141.50,142.86,141.50,163.97,87.21,-0.0117,10.0,0.914,0.9014,0.0385,0.9023,2.45,0.1761,-4.5309,4.5343,-87.77,0,800.0,306.0,1.0776,-4.4924,4.6198,-76.51,0.00,-76.51,0.00,False,LEFT,0.600,0,0,STUCK,False,False,True,0,True,STUCK_DETECTED,0.00,0
1764556862.1935618,158.247,28,GENERAL,False,0.0,0.0,0.0,0.00,0.000,0.0,4124.5,-1714.3,141.84,143.53,141.84,163.61,87.23,-0.0192,10.0,1.013,0.9014,0.0385,0.9023,2.45,0.1761,-4.5309,4.5343,-87.77,0,800.0,306.0,1.0776,-4.4924,4.6198,-76.51,0.00,-76.51,0.00,False,LEFT,0.600,0,0,STUCK,False,False,True,0,True,STUCK_DETECTED,0.00,0
1764556862.2441669,158.297,29,GENERAL,False,0.0,0.0,0.0,0.00,0.000,0.0,4124.5,-1714.3,142.25,144.53,142.25,163.50,87.18,-0.0064,10.0,1.120,0.9014,0.0385,0.9023,2.45,0.1761,-4.5309,4.5343,-87.77,0,800.0,306.0,1.0776,-4.4924,4.6198,-76.51,0.00,-76.51,0.00,False,LEFT,0.600,0,0,STUCK,False,False,True,0,True,STUCK_DETECTED,0.00,0
1764556862.2958937,158.349,30,GENERAL,True,446.2,2215.1,2259.6,11.39,0.995,0.0,4124.5,-1714.3,142.68,144.86,142.68,163.06,87.14,0.0107,10.0,1.234,0.8640,0.1740,0.8813,11.39,0.1761,-4.5309,4.5343,-87.77,0,800.0,306.0,1.0401,-4.3569,4.4793,-76.57,11.39,-76.57,-87.96,False,LEFT,0.600,0,0,STUCK,False,False,True,0,True,STUCK_DETECTED,0.00,12
1764556862.3277962,158.381,31,GENERAL,True,446.2,2215.1,2259.6,11.39,0.995,0.0,4124.5,-1714.3,143.12,144.97,143.12,162.37,87.17,0.0011,10.0,1.355,0.8640,0.1740,0.8813,11.39,0.1761,-4.5309,4.5343,-87.77,0,800.0,306.0,1.0401,-4.3569,4.4793,-76.57,11.39,-76.57,-87.96,False,LEFT,0.600,0,0,STUCK,False,False,True,0,True,STUCK_DETECTED,0.00,12
1764556862.3858616,158.439,32,GENERAL,True,451.2,2190.9,2236.9,11.64,0.993,0.0,4124.5,-1714.3,143.58,145.70,143.58,161.92,87.21,-0.0149,10.0,1.483,0.8808,0.1814,0.8993,11.64,0.1761,-4.5309,4.5343,-87.77,0,800.0,306.0,1.0570,-4.3495,4.4761,-76.34,11.64,-76.34,-87.98,False,LEFT,0.600,0,0,STUCK,False,False,True,0,True,STUCK_DETECTED,0.00,12
1764556862.4152918,158.468,33,GENERAL,True,494.1,2181.7,2236.9,12.76,0.993,0.0,4124.5,-1714.3,144.03,146.03,144.03,161.49,87.20,-0.0096,10.0,1.617,0.8771,0.1986,0.8993,12.76,0.1761,-4.5309,4.5343,-87.77,0,800.0,306.0,1.0533,-4.3323,4.4584,-76.34,12.76,-76.34,-89.10,False,LEFT,0.600,0,0,STUCK,False,False,True,0,True,STUCK_DETECTED,0.00,14
1764556862.4650686,158.518,34,GENERAL,True,576.2,2167.3,2242.6,14.89,0.825,0.0,4124.5,-1714.3,144.48,146.84,144.48,160.85,87.05,-0.0085,10.0,1.757,0.8647,0.2299,0.8948,14.89,0.1761,-4.5309,4.5343,-87.77,0,800.0,306.0,1.0409,-4.3010,4.4252,-76.40,14.89,-76.40,-91.28,True,LEFT,0.600,0,0,STUCK,False,False,True,0,True,FORCE_AWAY_FROM_PERSON|STUCK_DETECTED,0.00,16
1764556862.527723,158.581,35,GENERAL,True,576.2,2167.3,2242.6,14.89,0.825,0.0,4124.5,-1714.3,144.94,147.43,144.94,160.39,87.10,-0.0043,10.0,1.902,0.8647,0.2299,0.8948,14.89,0.1761,-4.5309,4.5343,-87.77,0,800.0,306.0,1.0409,-4.3010,4.4252,-76.40,14.89,-76.40,-91.28,True,LEFT,0.600,0,0,STUCK,False,False,True,0,True,FORCE_AWAY_FROM_PERSON|STUCK_DETECTED,0.00,16
1764556862.5569546,158.610,36,GENERAL,True,576.2,2167.3,2242.6,14.89,0.825,0.0,4124.5,-1714.3,145.47,147.92,145.47,160.04,87.16,-0.0085,10.0,2.053,0.8647,0.2299,0.8948,14.89,0.2293,-3.6631,3.6702,-86.42,0,800.0,307.0,1.0940,-3.4332,3.6033,-72.33,14.89,-72.33,-87.21,False,LEFT,0.600,0,0,STUCK,False,False,True,0,True,STUCK_DETECTED,0.00,14
1764556862.6054165,158.658,37,GENERAL,True,576.2,2167.3,2242.6,14.89,0.825,0.0,4124.5,-1714.3,145.99,148.09,145.99,159.37,87.10,-0.0032,10.0,2.211,0.8647,0.2299,0.8948,14.89,0.2293,-3.6631,3.6702,-86.42,0,800.0,307.0,1.0940,-3.4332,3.6033,-72.33,14.89,-72.33,-87.21,False,LEFT,0.600,0,0,STUCK,False,False,True,0,True,STUCK_DETECTED,0.00,14
1764556862.6619136,158.715,38,GENERAL,True,618.6,2155.6,2242.6,16.01,0.825,0.0,4124.5,-1714.3,146.47,148.35,146.47,158.26,87.02,0.0021,10.0,2.374,0.8601,0.2468,0.8948,16.01,0.2442,-3.2341,3.2433,-85.68,0,800.0,91.0,1.1043,-2.9873,3.1848,-69.71,16.01,-69.71,-85.72,False,LEFT,0.573,0,0,STUCK,False,False,True,0,True,STUCK_DETECTED,0.00,15
1764556862.7003512,158.753,39,GENERAL,True,618.6,2155.6,2242.6,16.01,0.825,0.0,4124.5,-1714.3,146.89,148.71,146.89,157.49,87.11,-0.0138,10.0,2.539,0.8601,0.2468,0.8948,16.01,0.2442,-2.8122,2.8228,-85.04,0,800.0,92.0,1.1043,-2.5654,2.7930,-66.71,16.01,-66.71,-82.72,False,LEFT,0.503,0,0,STUCK,False,False,True,0,True,STUCK_DETECTED,0.00,10
1764556862.7439418,158.797,40,GENERAL,True,618.6,2155.6,2242.6,16.01,0.825,0.0,4124.5,-1714.3,147.34,149.38,147.34,157.29,87.27,-0.0138,10.0,2.707,0.8601,0.2468,0.8948,16.01,0.2442,-2.8122,2.8228,-85.04,0,800.0,92.0,1.1043,-2.5654,2.7930,-66.71,16.01,-66.71,-82.72,False,LEFT,0.503,0,0,STUCK,False,False,True,0,True,STUCK_DETECTED,0.00,10
1764556862.7987573,158.852,41,GENERAL,False,0.0,0.0,0.0,0.00,0.000,0.0,4124.5,-1714.3,147.88,150.36,147.88,156.83,87.10,0.0000,10.0,2.880,0.8601,0.2468,0.8948,16.01,0.1118,-1.2013,1.2065,-84.68,0,800.0,94.0,0.9719,-0.9545,1.3622,-44.48,0.00,-44.48,0.00,False,FORWARDS_LEFT,0.327,0,0,STUCK,False,False,True,0,True,STUCK_DETECTED,0.00,0
1764556862.8424253,158.895,42,GENERAL,False,0.0,0.0,0.0,0.00,0.000,0.0,4122.2,-1712.9,148.45,151.38,148.45,156.69,87.08,-0.0234,10.0,3.058,0.8589,0.2457,0.8934,15.96,0.1118,-1.2013,1.2065,-84.68,0,800.0,94.0,0.9708,-0.9556,1.3622,-44.55,0.00,-44.55,0.00,False,FORWARDS_LEFT,0.327,0,0,STUCK,False,False,True,0,True,STUCK_DETECTED,0.00,0
1764556862.8785863,158.932,43,GENERAL,False,0.0,0.0,0.0,0.00,0.000,0.0,4119.7,-1711.4,149.15,153.08,149.15,157.36,87.09,-0.0085,10.0,3.245,0.8576,0.2445,0.8918,15.91,0.0000,0.0000,0.0000,0.00,0,850.0,98.0,0.8576,0.2445,0.8918,15.91,0.00,15.91,0.00,False,FORWARDS,0.268,0,0,STUCK,False,False,True,0,True,STUCK_DETECTED,0.00,0
1764556862.9250443,158.978,44,GENERAL,False,0.0,0.0,0.0,0.00,0.000,0.0,4116.4,-1709.5,149.88,154.08,149.88,157.24,86.94,0.0011,10.0,3.440,0.8559,0.2428,0.8897,15.84,0.0000,0.0000,0.0000,0.00,0,850.0,98.0,0.8559,0.2428,0.8897,15.84,0.00,15.84,0.00,False,FORWARDS,0.267,0,0,STUCK,False,False,True,0,True,STUCK_DETECTED,0.00,0
1764556862.9677517,159.021,45,GENERAL,False,0.0,0.0,0.0,0.00,0.000,0.0,4113.5,-1707.9,150.54,154.02,150.54,156.21,86.98,0.0117,10.0,3.641,0.8544,0.2414,0.8878,15.78,0.0000,0.0000,0.0000,0.00,0,850.0,98.0,0.8544,0.2414,0.8878,15.78,0.00,15.78,0.00,False,FORWARDS,0.266,0,0,STUCK,False,False,True,0,True,STUCK_DETECTED,0.00,0
1764556863.0064023,159.059,46,GENERAL,False,0.0,0.0,0.0,0.00,0.000,0.0,4110.8,-1706.4,151.14,153.95,151.14,155.40,87.04,0.0000,10.0,3.846,0.8529,0.2401,0.8861,15.72,0.0000,0.0000,0.0000,0.00,0,850.0,98.0,0.8529,0.2401,0.8861,15.72,0.00,15.72,0.00,False,FORWARDS,0.266,0,0,STUCK,False,False,True,0,True,STUCK_DETECTED,0.00,0
1764556863.0718853,159.125,47,GENERAL,True,-1837.5,2753.5,3310.3,326.28,0.943,0.0,4107.4,-1704.5,151.75,154.17,151.75,154.88,86.99,0.0021,10.0,4.056,0.3416,-0.2279,0.4107,-33.72,0.0000,0.0000,0.0000,0.00,0,850.0,98.0,0.3416,-0.2279,0.4107,-33.72,326.28,-33.72,0.00,False,FORWARDS_LEFT,0.099,0,0,STUCK,False,False,True,0,True,STUCK_DETECTED,0.00,0
1764556863.101188,159.154,48,GENERAL,True,-1837.5,2753.5,3310.3,326.28,0.943,0.0,4106.6,-1704.1,152.40,154.90,152.40,155.13,86.94,-0.0330,10.0,4.271,0.3416,-0.2279,0.4107,-33.72,0.0000,0.0000,0.0000,0.00,0,850.0,261.0,0.3416,-0.2279,0.4107,-33.72,326.28,-33.72,0.00,False,FORWARDS_LEFT,0.099,0,0,STUCK,False,False,True,0,True,STUCK_DETECTED,0.00,0
1764556863.1436543,159.197,49,GENERAL,True,-1891.2,2716.9,3310.3,325.16,0.943,0.0,4105.9,-1703.8,153.18,156.43,153.18,156.10,86.94,-0.0213,10.0,4.493,0.3370,-0.2346,0.4107,-34.84,0.0000,0.0000,0.0000,0.00,0,850.0,261.0,0.3370,-0.2346,0.4107,-34.84,325.16,-34.84,0.00,False,FORWARDS_LEFT,0.099,0,0,STUCK,False,False,True,0,True,STUCK_DETECTED,0.00,0
1764556863.204525,159.258,50,GENERAL,True,-1324.2,3160.4,3426.6,337.27,0.867,0.0,4104.7,-1703.2,153.96,157.27,153.96,156.42,86.84,0.0320,10.0,4.722,0.3535,-0.1481,0.3832,-22.73,0.0000,0.0000,0.0000,0.00,0,900.0,261.0,0.3535,-0.1481,0.3832,-22.73,337.27,-22.73,0.00,False,FORWARDS,0.115,0,0,STUCK,False,False,True,0,True,STUCK_DETECTED,0.00,0
1764556863.2380636,159.291,51,GENERAL,True,-1324.2,3160.4,3426.6,337.27,0.867,0.0,4103.6,-1702.6,154.55,156.25,154.55,155.63,86.80,0.0383,10.0,4.953,0.3535,-0.1481,0.3832,-22.73,0.0000,0.0000,0.0000,0.00,0,900.0,261.0,0.3535,-0.1481,0.3832,-22.73,337.27,-22.73,0.00,False,FORWARDS,0.115,0,0,STUCK,False,False,True,0,True,STUCK_DETECTED,0.00,0
1764556863.2806077,159.334,52,GENERAL,True,-1324.2,3160.4,3426.6,337.27,0.867,0.0,4102.3,-1702.0,154.86,154.46,154.86,154.21,86.90,-0.0043,10.0,5.182,0.3535,-0.1481,0.3832,-22.73,0.0000,0.0000,0.0000,0.00,0,900.0,261.0,0.3535,-0.1481,0.3832,-22.73,337.27,-22.73,0.00,False,FORWARDS,0.115,0,0,STUCK,False,False,True,0,True,STUCK_DETECTED,0.00,0
1764556863.3367577,159.390,53,GENERAL,True,-1324.2,3160.4,3426.6,337.27,0.867,0.0,4100.5,-1701.2,155.09,155.39,155.09,155.38,87.08,-0.0543,10.0,5.406,0.3535,-0.1481,0.3832,-22.73,0.0000,0.0000,0.0000,0.00,0,900.0,323.0,0.3535,-0.1481,0.3832,-22.73,337.27,-22.73,0.00,False,FORWARDS,0.115,0,0,STUCK,False,False,True,0,True,STUCK_DETECTED,0.00,0
1764556863.3795831,159.433,54,GENERAL,True,-1386.0,3133.8,3426.6,336.14,0.867,0.0,4099.3,-1700.6,155.53,158.46,155.53,158.36,86.95,-0.0096,10.0,5.630,0.3505,-0.1550,0.3832,-23.86,0.0000,0.0000,0.0000,0.00,0,900.0,323.0,0.3505,-0.1550,0.3832,-23.86,336.14,-23.86,0.00,False,FORWARDS,0.115,0,0,STUCK,False,False,True,0,True,STUCK_DETECTED,0.00,0
1764556863.4167798,159.470,55,GENERAL,True,-1386.0,3133.8,3426.6,336.14,0.867,0.0,4098.0,-1700.1,156.01,158.83,156.01,158.85,86.87,0.0469,10.0,5.855,0.3505,-0.1550,0.3832,-23.86,0.0000,0.0000,0.0000,0.00,0,900.0,326.0,0.3505,-0.1550,0.3832,-23.86,336.14,-23.86,0.00,False,FORWARDS,0.115,0,0,STUCK,False,False,True,0,True,STUCK_DETECTED,0.00,0
1764556863.467842,159.521,56,GENERAL,True,-1386.0,3133.8,3426.6,336.14,0.867,0.0,4096.5,-1699.4,156.30,156.80,156.30,156.93,86.90,0.0234,10.0,6.076,0.3505,-0.1550,0.3832,-23.86,0.0000,0.0000,0.0000,0.00,0,900.0,326.0,0.3505,-0.1550,0.3832,-23.86,336.14,-23.86,0.00,False,FORWARDS,0.115,0,0,STUCK,False,False,True,0,True,STUCK_DETECTED,0.00,0
1764556863.5003943,159.553,57,GENERAL,False,0.0,0.0,0.0,0.00,0.000,0.0,4095.2,-1698.8,156.58,157.04,156.58,157.23,87.09,-0.0543,10.0,6.295,0.3502,-0.1549,0.3829,-23.86,0.0000,0.0000,0.0000,0.00,0,950.0,327.0,0.3502,-0.1549,0.3829,-23.86,0.00,-23.86,0.00,False,FORWARDS,0.115,0,0,STUCK,False,False,True,0,True,STUCK_DETECTED,0.00,0
1764556863.5426612,159.596,58,GENERAL,False,0.0,0.0,0.0,0.00,0.000,0.0,4093.9,-1698.3,156.98,158.89,156.98,159.06,87.09,-0.0202,10.0,6.513,0.3499,-0.1548,0.3826,-23.86,0.0000,0.0000,0.0000,0.00,0,950.0,327.0,0.3499,-0.1548,0.3826,-23.86,0.00,-23.86,0.00,False,FORWARDS,0.115,0,0,STUCK,False,False,True,0,True,STUCK_DETECTED,0.00,0
1764556863.584793,159.638,59,GENERAL,False,0.0,0.0,0.0,0.00,0.000,0.0,4092.5,-1697.7,157.22,158.79,157.22,158.98,86.94,0.0490,10.0,6.728,0.3496,-0.1546,0.3823,-23.86,0.0000,0.0000,0.0000,0.00,0,950.0,264.0,0.3496,-0.1546,0.3823,-23.86,0.00,-23.86,0.00,False,FORWARDS,0.115,0,0,STUCK,False,False,True,0,True,STUCK_DETECTED,0.00,0
1764556863.6322827,159.685,60,GENERAL,True,-438.4,3267.6,3296.8,352.36,0.666,0.0,4091.1,-1697.1,157.24,157.52,157.24,157.67,86.90,0.0373,10.0,6.936,0.4103,-0.0551,0.4140,-7.64,0.0000,0.0000,0.0000,0.00,0,950.0,264.0,0.4103,-0.0551,0.4140,-7.64,352.36,-7.64,0.00,False,FORWARDS,0.124,0,0,STUCK,False,False,True,0,True,STUCK_DETECTED,0.00,0
1764556863.6675134,159.721,61,GENERAL,True,-438.4,3267.6,3296.8,352.36,0.666,0.0,4089.8,-1696.6,157.33,157.13,157.33,157.25,86.90,-0.0138,10.0,7.138,0.4103,-0.0551,0.4140,-7.64,1.0908,0.5320,1.2136,26.00,1,350.0,264.0,1.5011,0.4769,1.5750,17.63,352.36,17.63,25.27,False,FORWARDS,0.473,0,0,STUCK,False,False,True,0,True,STUCK_DETECTED,0.00,0
1764556863.711051,159.764,62,GENERAL,True,-444.2,3185.0,3215.8,352.06,0.827,0.0,4084.2,-1694.3,157.63,157.45,157.63,157.55,86.93,-0.0288,10.0,7.339,0.4310,-0.0601,0.4352,-7.94,1.0908,0.5320,1.2136,26.00,1,350.0,264.0,1.5217,0.4719,1.5932,17.23,352.06,17.23,25.17,False,FORWARDS,0.478,0,0,STUCK,False,False,True,0,True,STUCK_DETECTED,0.00,0
1764556863.7486575,159.802,63,GENERAL,True,-444.2,3185.0,3215.8,352.06,0.827,0.0,4079.3,-1692.3,157.90,158.04,157.90,158.14,86.96,-0.0224,10.0,7.537,0.4310,-0.0601,0.4352,-7.94,1.0908,0.5320,1.2136,26.00,1,350.0,264.0,1.5217,0.4719,1.5932,17.23,352.06,17.23,25.17,False,FORWARDS,0.478,0,0,STUCK,False,False,True,0,True,STUCK_DETECTED,0.00,0
1764556863.7905161,159.844,64,GENERAL,True,-510.8,3127.1,3168.5,350.72,0.766,0.0,4073.6,-1690.0,157.92,158.68,157.92,158.77,87.07,-0.0117,10.0,7.730,0.4424,-0.0723,0.4482,-9.28,1.0908,0.5320,1.2136,26.00,1,350.0,264.0,1.5331,0.4597,1.6006,16.69,350.72,16.69,25.97,False,FORWARDS,0.480,0,0,STUCK,False,False,True,0,True,STUCK_DETECTED,0.00,0
1764556863.8307137,159.884,65,GENERAL,True,-510.8,3127.1,3168.5,350.72,0.766,0.0,4068.3,-1687.8,157.93,158.98,157.93,159.07,87.05,0.0053,10.0,7.917,0.4424,-0.0723,0.4482,-9.28,1.0908,0.5320,1.2136,26.00,1,350.0,264.0,1.5331,0.4597,1.6006,16.69,350.72,16.69,25.97,False,FORWARDS,0.480,0,0,STUCK,False,False,True,0,True,STUCK_DETECTED,0.00,0
1764556863.8732736,159.926,66,GENERAL,True,-510.8,3127.1,3168.5,350.72,0.766,0.0,4062.5,-1685.5,158.13,158.83,158.13,158.90,86.93,0.0181,10.0,8.101,0.4424,-0.0723,0.4482,-9.28,0.0000,0.0000,0.0000,0.00,0,1000.0,266.0,0.4424,-0.0723,0.4482,-9.28,350.72,-9.28,0.00,False,FORWARDS,0.134,0,0,STUCK,False,False,True,0,True,STUCK_DETECTED,0.00,0
1764556863.909458,159.962,67,GENERAL,True,-510.8,3127.1,3168.5,350.72,0.766,0.0,4061.1,-1685.0,158.25,158.24,158.25,158.24,86.92,0.0117,10.0,8.281,0.4424,-0.0723,0.4482,-9.28,0.0000,0.0000,0.0000,0.00,0,1000.0,266.0,0.4424,-0.0723,0.4482,-9.28,350.72,-9.28,0.00,False,FORWARDS,0.134,0,0,STUCK,False,False,True,0,True,STUCK_DETECTED,0.00,0
1764556863.9578354,160.011,68,GENERAL,True,-510.8,3127.1,3168.5,350.72,0.766,0.0,4059.4,-1684.3,158.19,158.20,158.19,157.86,86.95,-0.0192,10.0,8.455,0.4424,-0.0723,0.4482,-9.28,0.0000,0.0000,0.0000,0.00,0,1050.0,266.0,0.4424,-0.0723,0.4482,-9.28,350.72,-9.28,0.00,False,FORWARDS,0.134,0,0,STUCK,False,False,True,0,True,STUCK_DETECTED,0.00,0
1764556863.99324,160.046,69,GENERAL,True,-572.1,3116.4,3168.5,349.60,0.766,0.0,4058.0,-1683.7,158.20,158.94,158.20,158.09,87.01,-0.0117,10.0,8.624,0.4409,-0.0809,0.4482,-10.40,0.0000,0.0000,0.0000,0.00,0,1050.0,266.0,0.4409,-0.0809,0.4482,-10.40,349.60,-10.40,0.00,False,FORWARDS,0.134,0,0,STUCK,False,False,True,0,True,STUCK_DETECTED,0.00,0
1764556864.0372756,160.090,70,GENERAL,True,-572.1,3116.4,3168.5,349.60,0.766,0.0,4056.4,-1683.1,158.40,159.52,158.40,158.24,86.99,-0.0138,10.0,8.791,0.4409,-0.0809,0.4482,-10.40,0.0000,0.0000,0.0000,0.00,0,1050.0,266.0,0.4409,-0.0809,0.4482,-10.40,349.60,-10.40,0.00,False,FORWARDS,0.134,0,0,STUCK,False,False,True,0,True,STUCK_DETECTED,0.00,0
1764556864.081493,160.135,71,GENERAL,True,-572.1,3116.4,3168.5,349.60,0.766,0.0,4054.8,-1682.4,158.74,160.54,158.74,158.78,86.96,-0.0064,10.0,8.958,0.4409,-0.0809,0.4482,-10.40,0.0000,0.0000,0.0000,0.00,0,1050.0,266.0,0.4409,-0.0809,0.4482,-10.40,349.60,-10.40,0.00,False,FORWARDS,0.134,0,0,STUCK,False,False,True,0,True,STUCK_DETECTED,0.00,0
1764556864.1164443,160.169,72,GENERAL,False,0.0,0.0,0.0,0.00,0.000,0.0,4053.4,-1681.9,159.11,161.17,159.11,159.11,86.72,0.0277,10.0,9.126,0.4404,-0.0809,0.4478,-10.41,0.0000,0.0000,0.0000,0.00,0,1050.0,266.0,0.4404,-0.0809,0.4478,-10.41,0.00,-10.41,0.00,False,FORWARDS,0.134,0,0,STUCK,False,False,True,0,True,STUCK_DETECTED,0.00,0
1764556864.1620243,160.215,73,GENERAL,False,0.0,0.0,0.0,0.00,0.000,0.0,4051.6,-1681.2,159.43,161.20,159.43,158.41,86.41,0.0724,10.0,9.293,0.4399,-0.0808,0.4473,-10.41,0.0000,0.0000,0.0000,0.00,0,1050.0,266.0,0.4399,-0.0808,0.4473,-10.41,0.00,-10.41,0.00,False,FORWARDS,0.134,0,0,STUCK,False,False,True,0,True,STUCK_DETECTED,0.00,0
1764556864.2009876,160.254,74,GENERAL,False,0.0,0.0,0.0,0.00,0.000,0.0,4050.1,-1680.7,159.49,159.23,159.49,155.47,86.47,0.0213,10.0,9.457,0.4395,-0.0808,0.4469,-10.42,0.0000,0.0000,0.0000,0.00,0,1050.0,266.0,0.4395,-0.0808,0.4469,-10.42,0.00,-10.42,0.00,False,FORWARDS,0.134,0,0,STUCK,False,False,True,0,True,STUCK_DETECTED,0.00,0
1764556864.2439332,160.297,75,GENERAL,True,-630.6,3104.9,3168.3,348.52,0.825,0.0,4048.6,-1680.1,159.27,156.82,159.27,151.93,86.89,-0.0714,10.0,9.613,0.4393,-0.0892,0.4483,-11.48,0.0000,0.0000,0.0000,0.00,0,1050.0,266.0,0.4393,-0.0892,0.4483,-11.48,348.52,-11.48,0.00,False,FORWARDS,0.134,0,0,STUCK,False,False,True,0,True,STUCK_DETECTED,0.00,0
1764556864.280806,160.334,76,GENERAL,True,-630.6,3104.9,3168.3,348.52,0.825,0.0,4047.2,-1679.6,158.99,156.01,158.99,150.32,87.26,-0.0671,10.0,9.761,0.4393,-0.0892,0.4483,-11.48,0.0000,0.0000,0.0000,0.00,0,1050.0,266.0,0.4393,-0.0892,0.4483,-11.48,348.52,-11.48,0.00,False,FORWARDS,0.134,0,0,STUCK,False,False,True,0,True,STUCK_DETECTED,0.00,0
1764556864.3276103,160.381,77,GENERAL,True,-624.2,3093.0,3155.4,348.59,0.733,0.0,4045.4,-1678.9,158.92,157.56,158.92,152.17,87.42,0.0138,10.0,9.905,0.4430,-0.0894,0.4520,-11.41,0.0000,0.0000,0.0000,0.00,0,1050.0,266.0,0.4430,-0.0894,0.4520,-11.41,348.59,-11.41,0.00,False,FORWARDS,0.136,0,0,STUCK,False,False,True,0,True,STUCK_DETECTED,0.00,0
1764556864.3639085,160.417,78,GENERAL,True,-624.2,3093.0,3155.4,348.59,0.733,0.0,4044.0,-1678.3,158.91,158.12,158.91,152.85,87.21,0.0437,10.0,10.044,0.4430,-0.0894,0.4520,-11.41,0.0000,0.0000,0.0000,0.00,0,1050.0,266.0,0.4430,-0.0894,0.4520,-11.41,348.59,-11.41,0.00,False,FORWARDS,0.136,0,0,STUCK,False,False,True,0,True,STUCK_DETECTED,0.00,0
1764556864.407386,160.460,79,GENERAL,True,-684.8,3080.2,3155.4,347.47,0.733,0.0,4042.4,-1677.7,158.90,158.87,158.90,153.48,87.00,0.0160,10.0,10.180,0.4412,-0.0981,0.4520,-12.53,0.0000,0.0000,0.0000,0.00,0,1050.0,266.0,0.4412,-0.0981,0.4520,-12.53,347.47,-12.53,0.00,False,FORWARDS,0.136,0,0,STUCK,False,False,True,0,True,STUCK_DETECTED,0.00,1
1764556864.4518714,160.505,80,GENERAL,True,-684.8,3080.2,3155.4,347.47,0.733,0.0,4040.9,-1677.1,158.92,159.74,158.92,154.13,86.87,-0.0107,10.0,10.313,0.4412,-0.0981,0.4520,-12.53,1.4868,0.6933,1.6405,25.00,1,300.0,266.0,1.9280,0.5952,2.0178,17.16,347.47,17.16,29.69,False,FORWARDS,0.605,0,0,STUCK,False,False,True,0,True,STUCK_DETECTED,0.00,1
1764556864.4862702,160.539,81,GENERAL,True,-684.8,3080.2,3155.4,347.47,0.733,0.0,4033.8,-1674.4,158.90,160.28,158.90,154.29,86.70,-0.0021,10.0,10.442,0.4412,-0.0981,0.4520,-12.53,1.4868,0.6933,1.6405,25.00,1,300.0,266.0,1.9280,0.5952,2.0178,17.16,347.47,17.16,29.69,False,FORWARDS,0.605,0,0,STUCK,False,False,True,0,True,STUCK_DETECTED,0.00,1
1764556864.5235827,160.577,82,GENERAL,True,-684.8,3080.2,3155.4,347.47,0.733,0.0,4027.4,-1671.9,158.84,160.57,158.84,154.25,86.75,-0.0053,10.0,10.567,0.4412,-0.0981,0.4520,-12.53,1.4868,0.6933,1.6405,25.00,1,300.0,266.0,1.9280,0.5952,2.0178,17.16,347.47,17.16,29.69,False,FORWARDS,0.605,0,0,STUCK,False,False,True,0,True,STUCK_DETECTED,0.00,1
1764556864.5698295,160.623,83,GENERAL,True,-684.8,3080.2,3155.4,347.47,0.733,0.0,4020.0,-1669.0,158.69,159.73,158.69,152.90,86.95,-0.0138,10.0,10.688,0.4412,-0.0981,0.4520,-12.53,1.4868,0.6933,1.6405,25.00,1,300.0,266.0,1.9280,0.5952,2.0178,17.16,347.47,17.16,29.69,False,FORWARDS,0.605,0,0,STUCK,False,False,True,0,True,STUCK_DETECTED,0.00,1
1764556864.6067133,160.660,84,GENERAL,True,-745.2,3066.1,3155.4,346.34,0.733,0.0,4013.9,-1666.6,158.64,158.73,158.64,151.55,87.18,0.0181,10.0,10.805,0.4392,-0.1067,0.4520,-13.66,1.4868,0.6933,1.6405,25.00,1,300.0,266.0,1.9260,0.5866,2.0134,16.94,346.34,16.94,30.60,False,FORWARDS,0.604,0,0,STUCK,False,False,True,0,True,STUCK_DETECTED,0.00,2
1764556864.647437,160.700,85,GENERAL,False,0.0,0.0,0.0,0.00,0.000,0.0,4006.7,-1663.9,158.89,159.34,158.89,152.17,86.98,0.0245,10.0,10.922,0.4370,-0.1064,0.4498,-13.68,0.0000,0.0000,0.0000,0.00,0,1050.0,266.0,0.4370,-0.1064,0.4498,-13.68,0.00,-13.68,0.00,False,FORWARDS,0.135,0,0,STUCK,False,False,True,0,True,STUCK_DETECTED,0.00,0
1764556864.6869142,160.740,86,GENERAL,False,0.0,0.0,0.0,0.00,0.000,0.0,4005.2,-1663.3,159.31,160.16,159.31,152.90,86.93,0.0064,10.0,11.041,0.4366,-0.1063,0.4493,-13.68,0.0000,0.0000,0.0000,0.00,0,1050.0,266.0,0.4366,-0.1063,0.4493,-13.68,0.00,-13.68,0.00,False,FORWARDS,0.135,0,0,STUCK,False,False,True,0,True,STUCK_DETECTED,0.00,0
1764556864.7279747,160.781,87,GENERAL,False,0.0,0.0,0.0,0.00,0.000,0.0,4003.6,-1662.7,159.59,160.40,159.59,152.84,86.83,-0.0128,10.0,11.161,0.4361,-0.1062,0.4488,-13.69,0.0000,0.0000,0.0000,0.00,0,1050.0,266.0,0.4361,-0.1062,0.4488,-13.69,0.00,-13.69,0.00,False,FORWARDS,0.135,0,0,STUCK,False,False,True,0,True,STUCK_DETECTED,0.00,0
1764556864.7677913,160.821,88,GENERAL,False,0.0,0.0,0.0,0.00,0.000,0.0,4002.1,-1662.1,159.82,160.37,159.82,152.29,86.99,0.0000,10.0,11.280,0.4357,-0.1061,0.4484,-13.69,0.0000,0.0000,0.0000,0.00,0,1050.0,266.0,0.4357,-0.1061,0.4484,-13.69,0.00,-13.69,0.00,False,FORWARDS,0.135,0,0,STUCK,False,False,True,0,True,STUCK_DETECTED,0.00,0
1764556864.8074062,160.860,89,GENERAL,False,0.0,0.0,0.0,0.00,0.000,0.0,4000.6,-1661.6,159.97,160.41,159.97,151.74,86.93,0.0362,10.0,11.399,0.4352,-0.1060,0.4479,-13.69,0.0000,0.0000,0.0000,0.00,0,1050.0,266.0,0.4352,-0.1060,0.4479,-13.69,0.00,-13.69,0.00,False,FORWARDS,0.134,0,0,STUCK,False,False,True,0,True,STUCK_DETECTED,0.00,0
1764556864.8538501,160.907,90,GENERAL,False,0.0,0.0,0.0,0.00,0.000,0.0,3999.0,-1661.0,160.11,161.09,160.11,152.15,86.65,0.0415,10.0,11.517,0.4347,-0.1059,0.4475,-13.69,0.0000,0.0000,0.0000,0.00,0,1050.0,266.0,0.4347,-0.1059,0.4475,-13.69,0.00,-13.69,0.00,False,FORWARDS,0.134,0,0,STUCK,False,False,True,0,True,STUCK_DETECTED,0.00,0
1764556864.888631,160.942,91,GENERAL,False,0.0,0.0,0.0,0.00,0.000,0.0,3997.6,-1660.5,160.28,161.99,160.28,152.70,86.41,0.0213,10.0,11.633,0.4343,-0.1059,0.4470,-13.70,0.0000,0.0000,0.0000,0.00,0,1050.0,266.0,0.4343,-0.1059,0.4470,-13.70,0.00,-13.70,0.00,False,FORWARDS,0.134,0,0,STUCK,False,False,True,0,True,STUCK_DETECTED,0.00,0
1764556864.9353793,160.988,92,GENERAL,False,0.0,0.0,0.0,0.00,0.000,0.0,3996.0,-1660.0,160.49,162.69,160.49,152.90,86.28,-0.0181,10.0,11.750,0.4339,-0.1058,0.4466,-13.70,0.0000,0.0000,0.0000,0.00,0,1050.0,266.0,0.4339,-0.1058,0.4466,-13.70,0.00,-13.70,0.00,False,FORWARDS,0.134,0,0,STUCK,False,False,True,0,True,STUCK_DETECTED,0.00,0
1764556864.9672096,161.020,93,GENERAL,False,0.0,0.0,0.0,0.00,0.000,0.0,3994.5,-1659.4,160.76,162.41,160.76,152.19,86.41,-0.0533,10.0,11.867,0.4334,-0.1057,0.4461,-13.70,0.0000,0.0000,0.0000,0.00,0,1050.0,266.0,0.4334,-0.1057,0.4461,-13.70,0.00,-13.70,0.00,False,FORWARDS,0.134,0,0,STUCK,False,False,True,0,True,STUCK_DETECTED,0.00,0
1764556865.0092561,161.062,94,GENERAL,False,0.0,0.0,0.0,0.00,0.000,0.0,3992.9,-1658.9,160.91,160.26,160.91,149.30,87.08,-0.0352,10.0,11.983,0.4330,-0.1056,0.4457,-13.71,0.0000,0.0000,0.0000,0.00,0,1050.0,266.0,0.4330,-0.1056,0.4457,-13.71,0.00,-13.71,0.00,False,FORWARDS,0.134,0,0,STUCK,False,False,True,0,True,STUCK_DETECTED,0.00,0
1764556865.0546346,161.108,95,GENERAL,False,0.0,0.0,0.0,0.00,0.000,0.0,3991.2,-1658.3,160.74,157.65,160.74,146.53,87.29,-0.0309,10.0,12.095,0.4325,-0.1055,0.4452,-13.71,0.0000,0.0000,0.0000,0.00,0,1050.0,266.0,0.4325,-0.1055,0.4452,-13.71,0.00,-13.71,0.00,False,FORWARDS,0.134,0,0,STUCK,False,False,True,0,True,STUCK_DETECTED,0.00,0
1764556865.0966203,161.150,96,GENERAL,False,0.0,0.0,0.0,0.00,0.000,0.0,3989.6,-1657.7,160.36,156.31,160.36,145.28,87.55,0.0021,10.0,12.200,0.4320,-0.1054,0.4447,-13.71,0.0000,0.0000,0.0000,0.00,0,1100.0,266.0,0.4320,-0.1054,0.4447,-13.71,0.00,-13.71,0.00,False,FORWARDS,0.133,0,0,STUCK,False,False,True,0,True,STUCK_DETECTED,0.00,0
1764556865.1339853,161.187,97,GENERAL,False,0.0,0.0,0.0,0.00,0.000,0.0,3988.2,-1657.2,160.07,157.57,160.07,146.44,87.51,0.0373,10.0,12.300,0.4316,-0.1053,0.4443,-13.72,0.0000,0.0000,0.0000,0.00,0,1100.0,266.0,0.4316,-0.1053,0.4443,-13.72,0.00,-13.72,0.00,False,FORWARDS,0.133,0,0,STUCK,False,False,True,0,True,STUCK_DETECTED,0.00,0
1764556865.178861,161.232,98,GENERAL,False,0.0,0.0,0.0,0.00,0.000,0.0,3986.6,-1656.6,159.91,158.77,159.91,147.40,87.10,0.0469,10.0,12.397,0.4311,-0.1053,0.4438,-13.72,0.0000,0.0000,0.0000,0.00,0,1100.0,266.0,0.4311,-0.1053,0.4438,-13.72,0.00,-13.72,0.00,False,FORWARDS,0.133,0,0,STUCK,False,False,True,0,True,STUCK_DETECTED,0.00,0
1764556865.2152755,161.268,99,GENERAL,False,0.0,0.0,0.0,0.00,0.000,0.0,3985.2,-1656.1,159.75,158.73,159.75,147.19,86.96,0.0554,10.0,12.490,0.4307,-0.1052,0.4434,-13.72,0.0000,0.0000,0.0000,0.00,0,1100.0,266.0,0.4307,-0.1052,0.4434,-13.72,0.00,-13.72,0.00,False,FORWARDS,0.133,0,0,STUCK,False,False,True,0,True,STUCK_DETECTED,0.00,0
1764556865.2589533,161.312,100,GENERAL,False,0.0,0.0,0.0,0.00,0.000,0.0,3983.5,-1655.5,159.39,157.57,159.39,145.40,86.82,-0.0021,10.0,12.577,0.4302,-0.1051,0.4429,-13.73,0.0000,0.0000,0.0000,0.00,0,1100.0,266.0,0.4302,-0.1051,0.4429,-13.73,0.00,-13.73,0.00,False,FORWARDS,0.133,0,0,STUCK,False,False,True,0,True,STUCK_DETECTED,0.00,0
1764556865.297442,161.350,101,GENERAL,False,0.0,0.0,0.0,0.00,0.000,0.0,3982.2,-1655.0,158.94,157.45,158.94,144.35,86.93,-0.0533,10.0,12.658,0.4298,-0.1050,0.4425,-13.73,0.0000,0.0000,0.0000,0.00,0,1100.0,266.0,0.4298,-0.1050,0.4425,-13.73,0.00,-13.73,0.00,False,FORWARDS,0.133,0,0,STUCK,False,False,True,0,True,STUCK_DETECTED,0.00,0
1764556865.338661,161.392,102,GENERAL,False,0.0,0.0,0.0,0.00,0.000,0.0,3980.6,-1654.4,158.75,160.82,158.75,146.91,87.01,-0.0107,10.0,12.863,0.4294,-0.1049,0.4420,-13.73,0.0000,0.0000,0.0000,0.00,0,1100.0,266.0,0.4294,-0.1049,0.4420,-13.73,0.00,-13.73,0.00,False,FORWARDS,0.133,0,0,STUCK,False,False,True,0,True,STUCK_DETECTED,0.00,0
1764556865.3754911,161.429,103,GENERAL,False,0.0,0.0,0.0,0.00,0.000,0.0,3979.2,-1653.8,158.79,162.80,158.79,148.69,86.82,0.0234,10.0,13.068,0.4290,-0.1049,0.4416,-13.74,0.0000,0.0000,0.0000,0.00,0,1100.0,266.0,0.4290,-0.1049,0.4416,-13.74,0.00,-13.74,0.00,False,FORWARDS,0.132,0,0,STUCK,False,False,True,0,True,STUCK_DETECTED,0.00,0
1764556865.4197793,161.473,104,GENERAL,False,0.0,0.0,0.0,0.00,0.000,0.0,3977.6,-1653.2,158.84,160.76,158.84,146.56,86.81,0.0341,10.0,13.274,0.4285,-0.1048,0.4412,-13.74,0.0000,0.0000,0.0000,0.00,0,1100.0,266.0,0.4285,-0.1048,0.4412,-13.74,0.00,-13.74,0.00,False,FORWARDS,0.132,0,0,STUCK,False,False,True,0,True,STUCK_DETECTED,0.00,0
1764556865.459532,161.513,105,GENERAL,False,0.0,0.0,0.0,0.00,0.000,0.0,3976.1,-1652.6,158.84,157.67,158.84,143.47,87.02,0.0043,10.0,13.480,0.4281,-0.1047,0.4407,-13.74,0.0000,0.0000,0.0000,0.00,0,1100.0,266.0,0.4281,-0.1047,0.4407,-13.74,0.00,-13.74,0.00,False,FORWARDS,0.132,0,0,STUCK,False,False,True,0,True,STUCK_DETECTED,0.00,0
1764556865.4975295,161.551,106,GENERAL,False,0.0,0.0,0.0,0.00,0.000,0.0,3974.7,-1652.1,159.26,160.47,159.26,146.24,86.97,-0.0501,10.0,13.690,0.4277,-0.1046,0.4403,-13.75,0.0000,0.0000,0.0000,0.00,0,1100.0,266.0,0.4277,-0.1046,0.4403,-13.75,0.00,-13.75,0.00,False,FORWARDS,0.132,0,0,STUCK,False,False,True,0,True,STUCK_DETECTED,0.00,0
1764556865.5422711,161.595,107,GENERAL,False,0.0,0.0,0.0,0.00,0.000,0.0,3973.1,-1651.5,159.77,162.69,159.77,148.35,86.89,0.0053,10.0,13.905,0.4272,-0.1045,0.4398,-13.75,0.0000,0.0000,0.0000,0.00,0,1100.0,266.0,0.4272,-0.1045,0.4398,-13.75,0.00,-13.75,0.00,False,FORWARDS,0.132,0,0,STUCK,False,False,True,0,True,STUCK_DETECTED,0.00,0
1764556865.5784888,161.632,108,GENERAL,False,0.0,0.0,0.0,0.00,0.000,0.0,3971.7,-1651.0,160.05,161.51,160.05,147.21,86.96,0.0320,10.0,14.123,0.4268,-0.1045,0.4394,-13.75,0.0000,0.0000,0.0000,0.00,0,1100.0,266.0,0.4268,-0.1045,0.4394,-13.75,0.00,-13.75,0.00,False,FORWARDS,0.132,0,0,STUCK,False,False,True,0,True,STUCK_DETECTED,0.00,0
1764556865.6222792,161.675,109,GENERAL,True,-528.2,3060.7,3106.0,350.21,0.705,0.0,3970.1,-1650.4,160.22,160.44,160.22,145.97,86.97,-0.0160,10.0,14.343,0.4597,-0.0793,0.4665,-9.79,0.0000,0.0000,0.0000,0.00,0,1100.0,266.0,0.4597,-0.0793,0.4665,-9.79,350.21,-9.79,0.00,False,FORWARDS,0.140,0,0,STUCK,False,False,True,0,True,STUCK_DETECTED,0.00,0
1764556865.665646,161.719,110,GENERAL,True,-528.2,3060.7,3106.0,350.21,0.705,0.0,3968.4,-1649.8,160.58,161.17,160.58,146.23,87.01,-0.0256,10.0,14.566,0.4597,-0.0793,0.4665,-9.79,0.0000,0.0000,0.0000,0.00,0,1100.0,266.0,0.4597,-0.0793,0.4665,-9.79,350.21,-9.79,0.00,False,FORWARDS,0.140,0,0,STUCK,False,False,True,0,True,STUCK_DETECTED,0.00,0
1764556865.712345,161.765,111,GENERAL,True,-528.2,3060.7,3106.0,350.21,0.705,0.0,3966.7,-1649.2,160.98,161.50,160.98,145.89,87.02,0.0107,10.0,14.794,0.4597,-0.0793,0.4665,-9.79,0.0000,0.0000,0.0000,0.00,0,1100.0,266.0,0.4597,-0.0793,0.4665,-9.79,350.21,-9.79,0.00,False,FORWARDS,0.140,0,0,STUCK,False,False,True,0,True,STUCK_DETECTED,0.00,0
1764556865.746816,161.800,112,GENERAL,True,-528.2,3060.7,3106.0,350.21,0.705,0.0,3965.2,-1648.7,161.05,161.52,161.05,145.64,86.92,0.0107,10.0,15.020,0.4597,-0.0793,0.4665,-9.79,0.0000,0.0000,0.0000,0.00,0,1100.0,266.0,0.4597,-0.0793,0.4665,-9.79,350.21,-9.79,0.00,False,FORWARDS,0.140,0,0,STUCK,False,False,True,0,True,STUCK_DETECTED,0.00,0
1764556865.7953799,161.848,113,GENERAL,True,-528.2,3060.7,3106.0,350.21,0.705,0.0,3963.5,-1648.1,160.96,161.87,160.96,145.55,86.99,0.0138,10.0,15.243,0.4597,-0.0793,0.4665,-9.79,0.0000,0.0000,0.0000,0.00,0,1100.0,266.0,0.4597,-0.0793,0.4665,-9.79,350.21,-9.79,0.00,False,FORWARDS,0.140,0,0,STUCK,False,False,True,0,True,STUCK_DETECTED,0.00,0
1764556865.827123,161.880,114,GENERAL,True,-528.2,3060.7,3106.0,350.21,0.705,0.0,3962.0,-1647.6,161.06,161.80,161.06,145.04,86.99,-0.0117,10.0,15.466,0.4597,-0.0793,0.4665,-9.79,0.0000,0.0000,0.0000,0.00,0,1100.0,266.0,0.4597,-0.0793,0.4665,-9.79,350.21,-9.79,0.00,False,FORWARDS,0.140,0,0,STUCK,False,False,True,0,True,STUCK_DETECTED,0.00,0
1764556865.8730762,161.926,115,GENERAL,True,-528.2,3060.7,3106.0,350.21,0.705,0.0,3960.2,-1647.0,161.49,161.89,161.49,144.39,87.01,-0.0117,10.0,15.691,0.4597,-0.0793,0.4665,-9.79,0.0000,0.0000,0.0000,0.00,0,1100.0,266.0,0.4597,-0.0793,0.4665,-9.79,350.21,-9.79,0.00,False,FORWARDS,0.140,0,0,STUCK,False,False,True,0,True,STUCK_DETECTED,0.00,0
1764556865.9120262,161.965,116,GENERAL,True,-528.2,3060.7,3106.0,350.21,0.705,0.0,3958.6,-1646.5,161.65,162.10,161.65,143.96,86.94,0.0117,10.0,15.917,0.4597,-0.0793,0.4665,-9.79,0.0000,0.0000,0.0000,0.00,0,1100.0,266.0,0.4597,-0.0793,0.4665,-9.79,350.21,-9.79,0.00,False,FORWARDS,0.140,0,0,STUCK,False,False,True,0,True,STUCK_DETECTED,0.00,0
1764556865.9536572,162.007,117,GENERAL,False,0.0,0.0,0.0,0.00,0.000,0.0,3956.9,-1645.9,161.58,161.96,161.58,143.37,86.88,0.0202,10.0,16.142,0.4591,-0.0793,0.4659,-9.80,0.0000,0.0000,0.0000,0.00,0,1100.0,266.0,0.4591,-0.0793,0.4659,-9.80,0.00,-9.80,0.00,False,FORWARDS,0.140,0,0,STUCK,False,False,True,0,True,STUCK_DETECTED,0.00,0
1764556865.9963336,162.049,118,GENERAL,False,0.0,0.0,0.0,0.00,0.000,0.0,3955.2,-1645.3,161.60,161.77,161.60,142.93,86.92,-0.0021,10.0,16.365,0.4586,-0.0792,0.4654,-9.80,0.0000,0.0000,0.0000,0.00,0,1100.0,266.0,0.4586,-0.0792,0.4654,-9.80,0.00,-9.80,0.00,False,FORWARDS,0.140,0,0,STUCK,False,False,True,0,True,STUCK_DETECTED,0.00,0
1764556866.034546,162.088,119,GENERAL,False,0.0,0.0,0.0,0.00,0.000,0.0,3953.7,-1644.8,161.74,161.85,161.74,142.92,86.97,-0.0085,10.0,16.587,0.4581,-0.0792,0.4649,-9.81,0.0000,0.0000,0.0000,0.00,0,1100.0,266.0,0.4581,-0.0792,0.4649,-9.81,0.00,-9.81,0.00,False,FORWARDS,0.139,0,0,STUCK,False,False,True,0,True,STUCK_DETECTED,0.00,0
1764556866.076317,162.129,120,GENERAL,False,0.0,0.0,0.0,0.00,0.000,0.0,3952.0,-1644.3,161.86,162.37,161.86,143.46,86.99,-0.0011,10.0,16.808,0.4576,-0.0791,0.4644,-9.81,0.0000,0.0000,0.0000,0.00,0,1100.0,266.0,0.4576,-0.0791,0.4644,-9.81,0.00,-9.81,0.00,False,FORWARDS,0.139,0,0,STUCK,False,False,True,0,True,STUCK_DETECTED,0.00,0
1764556866.1142707,162.167,121,GENERAL,False,0.0,0.0,0.0,0.00,0.000,0.0,3950.5,-1643.8,161.95,162.37,161.95,143.46,86.99,0.0138,10.0,17.027,0.4571,-0.0791,0.4639,-9.81,0.0000,0.0000,0.0000,0.00,0,1100.0,266.0,0.4571,-0.0791,0.4639,-9.81,0.00,-9.81,0.00,False,FORWARDS,0.139,0,0,RECOVERING,True,False,True,0,True,STUCK_DETECTED,0.00,0
1764556866.1571004,162.210,122,GENERAL,False,0.0,0.0,0.0,0.00,0.000,0.0,3948.8,-1643.2,162.00,162.04,162.00,143.14,86.97,0.0075,10.0,17.246,0.4566,-0.0790,0.4634,-9.82,0.0000,0.0000,0.0000,0.00,0,1100.0,266.0,0.4566,-0.0790,0.4634,-9.82,0.00,-9.82,0.00,False,FORWARDS,0.139,0,0,RECOVERING,False,False,True,0,True,STUCK_DETECTED,0.00,0
1764556866.1934025,162.246,123,GENERAL,False,0.0,0.0,0.0,0.00,0.000,0.0,3947.3,-1642.8,162.03,162.12,162.03,143.22,86.98,-0.0138,10.0,17.464,0.4562,-0.0790,0.4629,-9.82,0.0000,0.0000,0.0000,0.00,0,1100.0,266.0,0.4562,-0.0790,0.4629,-9.82,0.00,-9.82,0.00,False,FORWARDS,0.139,0,0,RECOVERING,False,False,True,0,True,STUCK_DETECTED,0.00,0
1764556866.2360473,162.289,124,GENERAL,False,0.0,0.0,0.0,0.00,0.000,0.0,3945.7,-1642.2,162.07,162.28,162.07,143.37,86.99,-0.0032,10.0,17.681,0.4556,-0.0789,0.4624,-9.83,0.0000,0.0000,0.0000,0.00,0,1100.0,266.0,0.4556,-0.0789,0.4624,-9.83,0.00,-9.83,0.00,False,FORWARDS,0.139,0,0,RECOVERING,False,False,True,0,True,STUCK_DETECTED,0.00,0
1764556866.2766266,162.330,125,GENERAL,False,0.0,0.0,0.0,0.00,0.000,0.0,3944.1,-1641.7,162.14,162.53,162.14,143.62,87.00,-0.0043,10.0,17.894,0.4552,-0.0789,0.4619,-9.83,0.0000,0.0000,0.0000,0.00,0,1100.0,266.0,0.4552,-0.0789,0.4619,-9.83,0.00,-9.83,0.00,False,FORWARDS,0.139,0,0,RECOVERING,False,False,True,0,True,STUCK_DETECTED,0.00,0
1764556866.3186696,162.372,126,GENERAL,False,0.0,0.0,0.0,0.00,0.000,0.0,3942.4,-1641.2,162.16,162.36,162.16,143.45,86.98,0.0138,10.0,18.104,0.4546,-0.0788,0.4614,-9.84,0.0000,0.0000,0.0000,0.00,0,1100.0,266.0,0.4546,-0.0788,0.4614,-9.84,0.00,-9.84,0.00,False,FORWARDS,0.138,0,0,RECOVERING,False,False,True,0,True,STUCK_DETECTED,0.00,0
1764556866.3570855,162.410,127,GENERAL,False,0.0,0.0,0.0,0.00,0.000,0.0,3940.8,-1640.7,162.19,162.20,162.19,143.30,87.01,0.0011,10.0,18.311,0.4542,-0.0788,0.4609,-9.84,0.0000,0.0000,0.0000,0.00,0,1100.0,266.0,0.4542,-0.0788,0.4609,-9.84,0.00,-9.84,0.00,False,FORWARDS,0.138,0,0,RECOVERING,False,False,True,0,True,STUCK_DETECTED,0.00,0
1764556866.3999145,162.453,128,GENERAL,False,0.0,0.0,0.0,0.00,0.000,0.0,3939.2,-1640.1,162.23,162.21,162.23,143.30,87.03,-0.0149,10.0,18.515,0.4537,-0.0787,0.4604,-9.85,0.0000,0.0000,0.0000,0.00,0,1100.0,266.0,0.4537,-0.0787,0.4604,-9.85,0.00,-9.85,0.00,False,FORWARDS,0.138,0,0,RECOVERING,False,False,True,0,True,STUCK_DETECTED,0.00,0
1764556866.435713,162.489,129,GENERAL,False,0.0,0.0,0.0,0.00,0.000,0.0,3937.7,-1639.7,162.30,162.54,162.30,143.62,87.04,-0.0021,10.0,18.715,0.4532,-0.0787,0.4600,-9.85,0.0000,0.0000,0.0000,0.00,0,1100.0,266.0,0.4532,-0.0787,0.4600,-9.85,0.00,-9.85,0.00,False,FORWARDS,0.138,0,0,RECOVERING,False,False,True,0,True,STUCK_DETECTED,0.00,0
1764556866.48046,162.533,130,GENERAL,False,0.0,0.0,0.0,0.00,0.000,0.0,3936.1,-1639.1,162.33,162.60,162.33,143.71,87.13,0.0085,10.0,18.912,0.4527,-0.0786,0.4595,-9.85,0.0000,0.0000,0.0000,0.00,0,1100.0,266.0,0.4527,-0.0786,0.4595,-9.85,0.00,-9.85,0.00,False,FORWARDS,0.138,0,0,RECOVERING,False,False,True,0,True,STUCK_DETECTED,0.00,0
1764556866.517941,162.571,131,GENERAL,False,0.0,0.0,0.0,0.00,0.000,0.0,3934.5,-1638.7,162.33,162.43,162.33,143.54,87.12,0.0170,10.0,19.104,0.4522,-0.0786,0.4590,-9.86,0.0000,0.0000,0.0000,0.00,0,1100.0,266.0,0.4522,-0.0786,0.4590,-9.86,0.00,-9.86,0.00,False,FORWARDS,0.138,0,0,RECOVERING,False,False,True,0,True,STUCK_DETECTED,0.00,0
1764556866.5599174,162.613,132,GENERAL,False,0.0,0.0,0.0,0.00,0.000,0.0,3932.9,-1638.1,162.37,162.45,162.37,143.53,87.03,0.0021,10.0,19.292,0.4517,-0.0785,0.4585,-9.86,0.0000,0.0000,0.0000,0.00,0,1100.0,266.0,0.4517,-0.0785,0.4585,-9.86,0.00,-9.86,0.00,False,FORWARDS,0.138,0,0,RECOVERING,False,False,True,0,True,STUCK_DETECTED,0.00,0
1764556866.5971808,162.650,133,GENERAL,False,0.0,0.0,0.0,0.00,0.000,0.0,3931.4,-1637.7,162.41,162.53,162.41,143.61,87.03,-0.0117,10.0,19.476,0.4513,-0.0785,0.4581,-9.87,0.0000,0.0000,0.0000,0.00,0,1100.0,266.0,0.4513,-0.0785,0.4581,-9.87,0.00,-9.87,0.00,False,FORWARDS,0.137,0,0,RECOVERING,False,False,True,0,True,STUCK_DETECTED,0.00,0
1764556866.644836,162.698,134,GENERAL,False,0.0,0.0,0.0,0.00,0.000,0.0,3929.7,-1637.1,162.46,162.77,162.46,143.88,87.14,0.0000,10.0,19.656,0.4508,-0.0784,0.4575,-9.87,0.0000,0.0000,0.0000,0.00,0,1100.0,266.0,0.4508,-0.0784,0.4575,-9.87,0.00,-9.87,0.00,False,FORWARDS,0.137,0,0,RECOVERING,False,False,True,0,True,STUCK_DETECTED,0.00,0
1764556866.6770923,162.730,135,GENERAL,False,0.0,0.0,0.0,0.00,0.000,0.0,3928.3,-1636.7,162.48,162.69,162.48,143.80,87.15,0.0021,10.0,19.831,0.4503,-0.0784,0.4571,-9.87,0.0000,0.0000,0.0000,0.00,0,1100.0,266.0,0.4503,-0.0784,0.4571,-9.87,0.00,-9.87,0.00,False,FORWARDS,0.137,0,0,RECOVERING,False,False,True,0,True,STUCK_DETECTED,0.00,0
1764556866.7218232,162.775,136,GENERAL,False,0.0,0.0,0.0,0.00,0.000,0.0,3926.6,-1636.1,162.49,162.52,162.49,143.60,87.04,-0.0043,10.0,20.001,0.4498,-0.0783,0.4566,-9.88,0.0000,0.0000,0.0000,0.00,0,1100.0,266.0,0.4498,-0.0783,0.4566,-9.88,0.00,-9.88,0.00,False,FORWARDS,0.137,0,0,RECOVERING,False,False,True,0,True,STUCK_DETECTED,0.00,0
1764556866.7604654,162.813,137,GENERAL,False,0.0,0.0,0.0,0.00,0.000,0.0,3925.0,-1635.7,162.53,162.53,162.53,143.61,87.06,-0.0021,10.0,20.167,0.4494,-0.0783,0.4561,-9.88,0.0000,0.0000,0.0000,0.00,0,1100.0,266.0,0.4494,-0.0783,0.4561,-9.88,0.00,-9.88,0.00,False,FORWARDS,0.137,0,0,RECOVERING,False,False,True,0,True,STUCK_DETECTED,0.00,0
1764556866.8015795,162.855,138,GENERAL,False,0.0,0.0,0.0,0.00,0.000,0.0,3923.5,-1635.2,162.57,162.67,162.57,143.78,87.13,-0.0043,10.0,20.328,0.4489,-0.0782,0.4557,-9.89,0.0000,0.0000,0.0000,0.00,0,1100.0,266.0,0.4489,-0.0782,0.4557,-9.89,0.00,-9.89,0.00,False,FORWARDS,0.137,0,0,RECOVERING,False,False,True,0,True,STUCK_DETECTED,0.00,0
1764556866.8409853,162.894,139,GENERAL,False,0.0,0.0,0.0,0.00,0.000,0.0,3921.8,-1634.7,162.59,162.68,162.59,143.78,87.16,0.0075,10.0,20.485,0.4484,-0.0782,0.4552,-9.89,0.0000,0.0000,0.0000,0.00,0,1100.0,266.0,0.4484,-0.0782,0.4552,-9.89,0.00,-9.89,0.00,False,FORWARDS,0.137,0,0,RECOVERING,False,False,True,0,True,STUCK_DETECTED,0.00,0
1764556866.881593,162.935,140,GENERAL,False,0.0,0.0,0.0,0.00,0.000,0.0,3920.3,-1634.2,162.59,162.59,162.59,143.69,87.16,0.0011,10.0,20.637,0.4479,-0.0781,0.4547,-9.89,0.0000,0.0000,0.0000,0.00,0,1100.0,266.0,0.4479,-0.0781,0.4547,-9.89,0.00,-9.89,0.00,False,FORWARDS,0.136,0,0,RECOVERING,False,False,True,0,True,STUCK_DETECTED,0.00,0
1764556866.9251974,162.978,141,GENERAL,False,0.0,0.0,0.0,0.00,0.000,0.0,3918.6,-1633.6,162.60,162.59,162.60,143.69,87.16,-0.0053,10.0,20.784,0.4474,-0.0781,0.4542,-9.90,0.0000,0.0000,0.0000,0.00,0,1100.0,266.0,0.4474,-0.0781,0.4542,-9.90,0.00,-9.90,0.00,False,FORWARDS,0.136,0,0,RECOVERING,False,False,True,0,True,STUCK_DETECTED,0.00,0
1764556866.962248,163.015,142,GENERAL,False,0.0,0.0,0.0,0.00,0.000,0.0,3917.1,-1633.2,162.61,162.58,162.61,143.68,87.15,-0.0064,10.0,20.926,0.4470,-0.0780,0.4538,-9.90,0.0000,0.0000,0.0000,0.00,0,1100.0,266.0,0.4470,-0.0780,0.4538,-9.90,0.00,-9.90,0.00,False,FORWARDS,0.136,0,0,RECOVERING,False,False,True,0,True,STUCK_DETECTED,0.00,0
1764556867.0066893,163.060,143,GENERAL,False,0.0,0.0,0.0,0.00,0.000,0.0,3915.4,-1632.6,162.63,162.74,162.63,143.84,87.14,0.0096,10.0,21.061,0.4465,-0.0780,0.4532,-9.91,0.0000,0.0000,0.0000,0.00,0,1100.0,266.0,0.4465,-0.0780,0.4532,-9.91,0.00,-9.91,0.00,False,FORWARDS,0.136,0,0,RECOVERING,False,False,True,0,True,STUCK_DETECTED,0.00,0
1764556867.041709,163.095,144,GENERAL,False,0.0,0.0,0.0,0.00,0.000,0.0,3914.0,-1632.2,162.63,162.73,162.63,143.85,87.24,-0.0032,10.0,21.188,0.4461,-0.0779,0.4528,-9.91,0.0000,0.0000,0.0000,0.00,0,1100.0,266.0,0.4461,-0.0779,0.4528,-9.91,0.00,-9.91,0.00,False,FORWARDS,0.136,0,0,RECOVERING,False,False,True,0,True,STUCK_DETECTED,0.00,0
1764556867.0839565,163.137,145,GENERAL,False,0.0,0.0,0.0,0.00,0.000,0.0,3912.4,-1631.7,162.62,162.57,162.62,143.67,87.16,0.0021,10.0,21.309,0.4456,-0.0779,0.4523,-9.91,0.0000,0.0000,0.0000,0.00,0,1100.0,266.0,0.4456,-0.0779,0.4523,-9.91,0.00,-9.91,0.00,False,FORWARDS,0.136,0,0,RECOVERING,False,False,True,0,True,STUCK_DETECTED,0.00,0
1764556867.1250076,163.178,146,GENERAL,False,0.0,0.0,0.0,0.00,0.000,0.0,3910.8,-1631.2,162.64,162.75,162.64,143.85,87.16,-0.0043,10.0,21.424,0.4451,-0.0778,0.4519,-9.92,0.0000,0.0000,0.0000,0.00,0,1100.0,266.0,0.4451,-0.0778,0.4519,-9.92,0.00,-9.92,0.00,False,FORWARDS,0.136,0,0,RECOVERING,False,False,True,0,True,STUCK_DETECTED,0.00,0
1764556867.1664474,163.219,147,GENERAL,False,0.0,0.0,0.0,0.00,0.000,0.0,3909.2,-1630.7,162.67,162.82,162.67,143.92,87.14,-0.0032,10.0,21.533,0.4446,-0.0778,0.4514,-9.92,0.0000,0.0000,0.0000,0.00,0,1100.0,266.0,0.4446,-0.0778,0.4514,-9.92,0.00,-9.92,0.00,False,FORWARDS,0.135,0,0,RECOVERING,False,False,True,0,True,STUCK_DETECTED,0.00,0
1764556867.2046115,163.258,148,GENERAL,False,0.0,0.0,0.0,0.00,0.000,0.0,3907.7,-1630.2,162.69,162.83,162.69,143.92,87.16,0.0064,10.0,21.636,0.4442,-0.0777,0.4509,-9.92,0.0000,0.0000,0.0000,0.00,0,1100.0,266.0,0.4442,-0.0777,0.4509,-9.92,0.00,-9.92,0.00,False,FORWARDS,0.135,0,0,RECOVERING,False,False,True,0,True,STUCK_DETECTED,0.00,0
1764556867.2468226,163.300,149,GENERAL,False,0.0,0.0,0.0,0.00,0.000,0.0,3906.0,-1629.7,162.71,162.91,162.71,144.00,87.14,0.0096,10.0,21.731,0.4437,-0.0777,0.4505,-9.93,0.0000,0.0000,0.0000,0.00,0,1100.0,266.0,0.4437,-0.0777,0.4505,-9.93,0.00,-9.93,0.00,False,FORWARDS,0.135,0,0,RECOVERING,False,False,True,0,True,STUCK_DETECTED,0.00,0
1764556867.284232,163.337,150,GENERAL,False,0.0,0.0,0.0,0.00,0.000,0.0,3904.6,-1629.3,162.75,162.99,162.75,144.11,87.26,-0.0011,10.0,21.819,0.4433,-0.0776,0.4500,-9.93,0.0000,0.0000,0.0000,0.00,0,1100.0,266.0,0.4433,-0.0776,0.4500,-9.93,0.00,-9.93,0.00,False,FORWARDS,0.135,0,0,RECOVERING,False,False,True,0,True,STUCK_DETECTED,0.00,0
1764556867.3279245,163.381,151,GENERAL,False,0.0,0.0,0.0,0.00,0.000,0.0,3902.9,-1628.8,162.80,163.10,162.80,144.19,87.17,-0.0096,10.0,21.902,0.4428,-0.0776,0.4495,-9.94,0.0000,0.0000,0.0000,0.00,0,1100.0,266.0,0.4428,-0.0776,0.4495,-9.94,0.00,-9.94,0.00,False,FORWARDS,0.135,0,0,RECOVERING,False,False,True,0,True,STUCK_DETECTED,0.00,0
1764556867.370928,163.424,152,GENERAL,False,0.0,0.0,0.0,0.00,0.000,0.0,3901.3,-1628.2,162.86,163.19,162.86,144.28,87.17,-0.0021,10.0,21.982,0.4423,-0.0775,0.4491,-9.94,0.0000,0.0000,0.0000,0.00,0,1100.0,266.0,0.4423,-0.0775,0.4491,-9.94,0.00,-9.94,0.00,False,FORWARDS,0.135,0,0,RECOVERING,False,False,True,0,True,STUCK_DETECTED,0.00,0
1764556867.4071317,163.460,153,GENERAL,False,0.0,0.0,0.0,0.00,0.000,0.0,3899.9,-1627.8,162.89,163.07,162.89,144.19,87.26,-0.0011,10.0,22.060,0.4419,-0.0775,0.4486,-9.94,0.0000,0.0000,0.0000,0.00,0,1100.0,266.0,0.4419,-0.0775,0.4486,-9.94,0.00,-9.94,0.00,False,FORWARDS,0.135,0,0,RECOVERING,False,False,True,0,True,STUCK_DETECTED,0.00,0
1764556867.4492295,163.502,154,GENERAL,False,0.0,0.0,0.0,0.00,0.000,0.0,3898.2,-1627.3,162.94,163.17,162.94,144.29,87.28,0.0032,10.0,22.134,0.4414,-0.0774,0.4481,-9.95,0.0000,0.0000,0.0000,0.00,0,1100.0,266.0,0.4414,-0.0774,0.4481,-9.95,0.00,-9.95,0.00,False,FORWARDS,0.134,0,0,RECOVERING,False,False,True,0,True,STUCK_DETECTED,0.00,0
1764556867.4867146,163.540,155,GENERAL,False,0.0,0.0,0.0,0.00,0.000,0.0,3896.8,-1626.9,163.02,163.35,163.02,144.47,87.28,0.0000,10.0,22.204,0.4410,-0.0774,0.4477,-9.95,0.0000,0.0000,0.0000,0.00,0,1100.0,266.0,0.4410,-0.0774,0.4477,-9.95,0.00,-9.95,0.00,False,FORWARDS,0.134,0,0,RECOVERING,False,False,True,0,True,STUCK_DETECTED,0.00,0
1764556867.527597,163.581,156,GENERAL,False,0.0,0.0,0.0,0.00,0.000,0.0,3895.2,-1626.4,163.08,163.36,163.08,144.48,87.30,-0.0021,10.0,22.272,0.4405,-0.0773,0.4473,-9.95,0.0000,0.0000,0.0000,0.00,0,1100.0,266.0,0.4405,-0.0773,0.4473,-9.95,0.00,-9.95,0.00,False,FORWARDS,0.134,0,0,RECOVERING,False,False,True,0,True,STUCK_DETECTED,0.00,0
1764556867.5719965,163.625,157,GENERAL,False,0.0,0.0,0.0,0.00,0.000,0.0,3893.7,-1625.9,163.14,163.46,163.14,144.58,87.32,0.0021,10.0,22.337,0.4401,-0.0773,0.4468,-9.96,0.0000,0.0000,0.0000,0.00,0,1100.0,266.0,0.4401,-0.0773,0.4468,-9.96,0.00,-9.96,0.00,False,FORWARDS,0.134,0,0,RECOVERING,False,False,True,0,True,STUCK_DETECTED,0.00,0
1764556867.6109326,163.664,158,GENERAL,False,0.0,0.0,0.0,0.00,0.000,0.0,3892.1,-1625.4,163.20,163.45,163.20,144.57,87.31,-0.0011,10.0,22.399,0.4396,-0.0772,0.4464,-9.96,0.0000,0.0000,0.0000,0.00,0,1100.0,266.0,0.4396,-0.0772,0.4464,-9.96,0.00,-9.96,0.00,False,FORWARDS,0.134,0,0,RECOVERING,False,False,True,0,True,STUCK_DETECTED,0.00,0
1764556867.6502378,163.703,159,GENERAL,False,0.0,0.0,0.0,0.00,0.000,0.0,3890.6,-1625.0,163.27,163.54,163.27,144.65,87.29,-0.0138,10.0,22.460,0.4392,-0.0772,0.4459,-9.96,0.0000,0.0000,0.0000,0.00,0,1100.0,266.0,0.4392,-0.0772,0.4459,-9.96,0.00,-9.96,0.00,False,FORWARDS,0.134,0,0,RECOVERING,False,False,True,0,True,STUCK_DETECTED,0.00,0
1764556867.6892216,163.742,160,GENERAL,False,0.0,0.0,0.0,0.00,0.000,0.0,3888.9,-1624.5,163.33,163.63,163.33,144.75,87.30,-0.0043,10.0,22.521,0.4387,-0.0771,0.4454,-9.97,0.0000,0.0000,0.0000,0.00,0,1100.0,266.0,0.4387,-0.0771,0.4454,-9.97,0.00,-9.97,0.00,False,FORWARDS,0.134,0,0,RECOVERING,False,False,True,0,True,STUCK_DETECTED,0.00,0
1764556867.7305639,163.784,161,GENERAL,False,0.0,0.0,0.0,0.00,0.000,0.0,3887.4,-1624.0,163.38,163.63,163.38,144.74,87.29,0.0021,10.0,22.581,0.4383,-0.0771,0.4450,-9.97,0.0000,0.0000,0.0000,0.00,0,1100.0,266.0,0.4383,-0.0771,0.4450,-9.97,0.00,-9.97,0.00,False,FORWARDS,0.133,0,0,RECOVERING,False,False,True,0,True,STUCK_DETECTED,0.00,0
1764556867.7720191,163.825,162,GENERAL,False,0.0,0.0,0.0,0.00,0.000,0.0,3885.8,-1623.6,163.43,163.63,163.43,144.74,87.29,0.0000,10.0,22.639,0.4378,-0.0770,0.4445,-9.98,0.0000,0.0000,0.0000,0.00,0,1100.0,266.0,0.4378,-0.0770,0.4445,-9.98,0.00,-9.98,0.00,False,FORWARDS,0.133,0,0,RECOVERING,False,False,True,0,True,STUCK_DETECTED,0.00,0
1764556867.8105729,163.864,163,GENERAL,False,0.0,0.0,0.0,0.00,0.000,0.0,3884.3,-1623.1,163.50,163.81,163.50,144.93,87.29,0.0085,10.0,22.695,0.4374,-0.0770,0.4441,-9.98,0.0000,0.0000,0.0000,0.00,0,1100.0,266.0,0.4374,-0.0770,0.4441,-9.98,0.00,-9.98,0.00,False,FORWARDS,0.133,0,0,RECOVERING,False,False,True,0,True,STUCK_DETECTED,0.00,0
1764556867.8533397,163.906,164,GENERAL,False,0.0,0.0,0.0,0.00,0.000,0.0,3882.6,-1622.6,163.57,163.82,163.57,144.93,87.31,-0.0075,10.0,22.752,0.4369,-0.0769,0.4436,-9.98,0.0000,0.0000,0.0000,0.00,0,1100.0,266.0,0.4369,-0.0769,0.4436,-9.98,0.00,-9.98,0.00,False,FORWARDS,0.133,0,0,RECOVERING,False,False,True,0,True,STUCK_DETECTED,0.00,0
1764556867.8922563,163.945,165,GENERAL,False,0.0,0.0,0.0,0.00,0.000,0.0,3881.2,-1622.2,163.62,163.91,163.62,145.02,87.30,0.0043,10.0,22.809,0.4365,-0.0768,0.4432,-9.99,0.0000,0.0000,0.0000,0.00,0,1100.0,266.0,0.4365,-0.0768,0.4432,-9.99,0.00,-9.99,0.00,False,FORWARDS,0.133,0,0,RECOVERING,False,False,True,0,True,STUCK_DETECTED,0.00,0
1764556867.933141,163.986,166,GENERAL,False,0.0,0.0,0.0,0.00,0.000,0.0,3879.6,-1621.7,163.67,163.82,163.67,144.93,87.30,-0.0085,10.0,22.864,0.4360,-0.0768,0.4427,-9.99,0.0000,0.0000,0.0000,0.00,0,1100.0,266.0,0.4360,-0.0768,0.4427,-9.99,0.00,-9.99,0.00,False,FORWARDS,0.133,0,0,RECOVERING,False,False,True,0,True,STUCK_DETECTED,0.00,0
1764556867.978133,164.031,167,GENERAL,False,0.0,0.0,0.0,0.00,0.000,0.0,3878.0,-1621.3,163.71,163.83,163.71,144.93,87.32,0.0053,10.0,22.919,0.4356,-0.0767,0.4423,-9.99,0.0000,0.0000,0.0000,0.00,0,1100.0,266.0,0.4356,-0.0767,0.4423,-9.99,0.00,-9.99,0.00,False,FORWARDS,0.133,0,0,RECOVERING,False,False,True,0,True,STUCK_DETECTED,0.00,0
1764556868.0134833,164.067,168,GENERAL,False,0.0,0.0,0.0,0.00,0.000,0.0,3876.6,-1620.9,163.75,163.92,163.75,145.02,87.31,0.0032,10.0,22.974,0.4352,-0.0767,0.4419,-9.99,0.0000,0.0000,0.0000,0.00,0,1100.0,266.0,0.4352,-0.0767,0.4419,-9.99,0.00,-9.99,0.00,False,FORWARDS,0.133,0,0,RECOVERING,False,False,True,0,True,STUCK_DETECTED,0.00,0
1764556868.0564067,164.109,169,GENERAL,False,0.0,0.0,0.0,0.00,0.000,0.0,3874.9,-1620.4,163.80,164.02,163.80,145.12,87.31,-0.0011,10.0,23.030,0.4347,-0.0766,0.4414,-10.00,0.0000,0.0000,0.0000,0.00,0,1100.0,266.0,0.4347,-0.0766,0.4414,-10.00,0.00,-10.00,0.00,False,FORWARDS,0.132,0,0,RECOVERING,False,False,True,0,True,STUCK_DETECTED,0.00,0
1764556868.0944798,164.148,170,GENERAL,False,0.0,0.0,0.0,0.00,0.000,0.0,3873.5,-1620.0,163.83,163.92,163.83,145.02,87.32,0.0053,10.0,23.085,0.4343,-0.0766,0.4410,-10.00,0.0000,0.0000,0.0000,0.00,0,1100.0,266.0,0.4343,-0.0766,0.4410,-10.00,0.00,-10.00,0.00,False,FORWARDS,0.132,0,0,RECOVERING,False,False,True,0,True,STUCK_DETECTED,0.00,0
1764556868.1363852,164.189,171,GENERAL,False,0.0,0.0,0.0,0.00,0.000,0.0,3871.9,-1619.5,163.87,164.01,163.87,145.11,87.30,0.0043,10.0,23.136,0.4338,-0.0765,0.4405,-10.00,0.0000,0.0000,0.0000,0.00,0,1100.0,266.0,0.4338,-0.0765,0.4405,-10.00,0.00,-10.00,0.00,False,FORWARDS,0.132,0,0,RECOVERING,False,False,True,0,True,STUCK_DETECTED,0.00,0
1764556868.1736386,164.227,172,GENERAL,False,0.0,0.0,0.0,0.00,0.000,0.0,3870.4,-1619.1,163.92,164.10,163.92,145.23,87.43,0.0107,10.0,23.184,0.4334,-0.0765,0.4401,-10.01,0.0000,0.0000,0.0000,0.00,0,1100.0,266.0,0.4334,-0.0765,0.4401,-10.01,0.00,-10.01,0.00,False,FORWARDS,0.132,0,0,RECOVERING,False,False,True,0,True,STUCK_DETECTED,0.00,0
1764556868.2193975,164.272,173,GENERAL,False,0.0,0.0,0.0,0.00,0.000,0.0,3868.8,-1618.6,163.94,164.02,163.94,145.12,87.32,0.0160,10.0,23.229,0.4329,-0.0764,0.4396,-10.01,0.0000,0.0000,0.0000,0.00,0,1100.0,266.0,0.4329,-0.0764,0.4396,-10.01,0.00,-10.01,0.00,False,FORWARDS,0.132,0,0,RECOVERING,False,False,True,0,True,STUCK_DETECTED,0.00,0
1764556868.2547581,164.308,174,GENERAL,False,0.0,0.0,0.0,0.00,0.000,0.0,3867.4,-1618.2,163.96,164.09,163.96,145.22,87.42,-0.0021,10.0,23.274,0.4326,-0.0764,0.4392,-10.01,0.0000,0.0000,0.0000,0.00,0,1100.0,266.0,0.4326,-0.0764,0.4392,-10.01,0.00,-10.01,0.00,False,FORWARDS,0.132,0,0,RECOVERING,False,False,True,0,True,STUCK_DETECTED,0.00,0
1764556868.2973359,164.350,175,GENERAL,False,0.0,0.0,0.0,0.00,0.000,0.0,3865.8,-1617.7,163.99,164.19,163.99,145.32,87.42,0.0021,10.0,23.321,0.4321,-0.0763,0.4388,-10.02,0.0000,0.0000,0.0000,0.00,0,1100.0,266.0,0.4321,-0.0763,0.4388,-10.02,0.00,-10.02,0.00,False,FORWARDS,0.132,0,0,RECOVERING,False,False,True,0,True,STUCK_DETECTED,0.00,0
