timestamp,elapsed_time,log_number,test_mode,person_detected,person_x_mm,person_y_mm,person_distance_mm,person_angle_deg,person_confidence,time_since_person_update_ms,robot_x_mm,robot_y_mm,robot_orientation_deg,imu_yaw_raw,imu_yaw_smoothed,imu_roll,imu_pitch,imu_angular_vel_z,imu_update_rate,imu_drift_estimate,attr_force_x,attr_force_y,attr_force_magnitude,attr_force_direction_deg,repul_force_x,repul_force_y,repul_force_magnitude,repul_force_direction_deg,num_obstacles_in_range,closest_obstacle_dist_mm,closest_obstacle_angle_deg,total_force_x,total_force_y,total_force_magnitude,total_force_direction_deg,expected_direction_to_person_deg,force_direction_deg,direction_error_deg,direction_mismatch_flag,commanded_direction,commanded_speed,motor_1_speed,motor_2_speed,nav_state,nav_state_changed,goal_reached,stuck_detected,time_in_current_state_s,anomaly_detected,anomaly_type,calculation_time_ms,obstacles_filtered_for_person
1764635136.4008143,59.020,1,TEST2_OBSTACLE_BYPASS,False,0.0,0.0,0.0,0.00,0.000,0.0,211.9,13.9,-56.94,-58.07,-56.94,152.65,88.47,0.0011,10.0,0.000,-0.0055,4.4227,4.4227,-0.07,-3.4934,-0.2142,3.5000,-93.51,18,300.0,132.0,-3.4989,4.2086,5.4731,-39.74,0.00,-39.74,0.00,False,NONE,0.000,0,0,SEARCHING,True,False,False,0,False,,0.00,0
1764635136.4379337,59.057,2,TEST2_OBSTACLE_BYPASS,False,0.0,0.0,0.0,0.00,0.000,0.0,211.9,13.9,-56.88,-57.21,-56.88,153.56,88.55,-0.0202,10.0,0.000,-0.0055,4.4227,4.4227,-0.07,-3.4949,-0.1893,3.5000,-93.10,18,300.0,132.0,-3.5004,4.2335,5.4932,-39.59,0.00,-39.59,0.00,False,NONE,0.000,0,0,SEARCHING,False,False,False,0,False,,0.00,0
1764635136.4810827,59.100,3,TEST2_OBSTACLE_BYPASS,False,0.0,0.0,0.0,0.00,0.000,0.0,211.9,13.9,-56.97,-56.12,-56.97,154.70,88.62,-0.0085,10.0,0.000,-0.0055,4.4227,4.4227,-0.07,-3.4929,-0.2228,3.5000,-93.65,17,300.0,132.0,-3.4984,4.1999,5.4661,-39.79,0.00,-39.79,0.00,False,NONE,0.000,0,0,SEARCHING,False,False,False,0,False,,0.00,0
1764635136.5183754,59.138,4,TEST2_OBSTACLE_BYPASS,False,0.0,0.0,0.0,0.00,0.000,0.0,211.9,13.9,-56.95,-55.78,-56.95,155.29,88.84,0.0064,10.0,0.000,-0.0055,4.4227,4.4227,-0.07,-3.4949,-0.1880,3.5000,-93.08,16,300.0,132.0,-3.5005,4.2347,5.4942,-39.58,0.00,-39.58,0.00,False,NONE,0.000,0,0,SEARCHING,False,False,False,0,False,,0.00,0
1764635136.5678167,59.187,5,TEST2_OBSTACLE_BYPASS,False,0.0,0.0,0.0,0.00,0.000,0.0,211.9,13.9,-56.72,-56.33,-56.72,154.57,88.67,0.0128,10.0,0.000,-0.0055,4.4227,4.4227,-0.07,-3.4949,-0.1880,3.5000,-93.08,16,300.0,132.0,-3.5005,4.2347,5.4942,-39.58,0.00,-39.58,0.00,False,FORWARDS_LEFT,1.000,0,0,SEARCHING,False,False,False,0,False,,0.00,0
1764635136.6067445,59.226,6,TEST2_OBSTACLE_BYPASS,False,0.0,0.0,0.0,0.00,0.000,0.0,216.9,6.3,-56.54,-57.13,-56.54,153.96,88.81,0.0075,10.0,0.000,-0.0136,4.4104,4.4105,-0.18,-3.4944,-0.1973,3.5000,-93.23,18,300.0,132.0,-3.5080,4.2131,5.4824,-39.78,0.00,-39.78,0.00,False,FORWARDS_LEFT,1.000,0,0,SEARCHING,False,False,False,0,False,,0.00,0
1764635136.648899,59.268,7,TEST2_OBSTACLE_BYPASS,False,0.0,0.0,0.0,0.00,0.000,0.0,221.8,-1.1,-56.60,-57.14,-56.60,153.71,88.59,-0.0096,10.0,0.000,-0.0214,4.3984,4.3984,-0.28,-3.4911,-0.2495,3.5000,-94.09,17,300.0,132.0,-3.5125,4.1489,5.4360,-40.25,0.00,-40.25,0.00,False,FORWARDS_LEFT,1.000,0,0,SEARCHING,False,False,False,0,False,,0.00,0
1764635136.687478,59.307,8,TEST2_OBSTACLE_BYPASS,True,-24.0,2721.6,2721.7,359.50,0.806,0.0,226.1,-7.7,-56.82,-56.70,-56.82,153.99,88.50,-0.0053,10.0,0.000,-0.3995,4.3601,4.3783,-5.23,-3.4952,-0.1829,3.5000,-93.00,17,300.0,132.0,-3.8947,4.1772,5.7112,-43.00,-0.50,-43.00,-42.49,False,FORWARDS_LEFT,1.000,0,0,NAVIGATING,True,False,False,0,False,,0.00,0
1764635136.7330506,59.352,9,TEST2_OBSTACLE_BYPASS,True,-24.0,2721.6,2721.7,359.50,0.806,0.0,231.0,-15.1,-56.84,-56.17,-56.84,154.66,88.61,-0.0096,10.0,0.000,-0.4049,4.3470,4.3659,-5.32,-3.4952,-0.1829,3.5000,-93.00,17,300.0,132.0,-3.9001,4.1641,5.7053,-43.12,-0.50,-43.12,-42.62,False,FORWARDS_LEFT,1.000,0,0,NAVIGATING,False,False,False,0,False,,0.00,0
1764635136.7686903,59.388,10,TEST2_OBSTACLE_BYPASS,True,-24.0,2721.6,2721.7,359.50,0.806,0.0,235.4,-21.8,-56.69,-56.26,-56.69,154.74,88.77,0.0043,10.0,0.000,-0.4098,4.3353,4.3546,-5.40,-3.4908,-0.2539,3.5000,-94.16,18,300.0,132.0,-3.9006,4.0814,5.6455,-43.70,-0.50,-43.70,-43.20,False,FORWARDS_LEFT,1.000,0,0,STUCK,True,False,True,0,True,STUCK_DETECTED,0.00,0
1764635136.816025,59.435,11,TEST2_OBSTACLE_BYPASS,True,-24.0,2721.6,2721.7,359.50,0.806,0.0,240.2,-29.2,-56.53,-56.48,-56.53,154.35,88.61,0.0117,10.0,0.000,-0.4151,4.3225,4.3424,-5.49,-3.4908,-0.2539,3.5000,-94.16,18,300.0,132.0,-3.9059,4.0686,5.6400,-43.83,-0.50,-43.83,-43.33,False,FORWARDS_LEFT,1.000,0,0,STUCK,False,False,True,0,True,STUCK_DETECTED,0.00,0
1764635136.8473148,59.467,12,TEST2_OBSTACLE_BYPASS,True,-24.0,2721.6,2721.7,359.50,0.806,0.0,244.7,-36.0,-56.50,-56.90,-56.50,153.86,88.55,-0.0043,10.0,0.211,-0.4200,4.3106,4.3310,-5.57,-3.4898,-0.2671,3.5000,-94.38,18,300.0,132.0,-3.9098,4.0435,5.6246,-44.04,-0.50,-44.04,-43.53,False,FORWARDS_LEFT,1.000,0,0,STUCK,False,False,True,0,True,STUCK_DETECTED,0.00,0
1764635136.8945448,59.514,13,TEST2_OBSTACLE_BYPASS,True,-24.0,2721.6,2721.7,359.50,0.806,0.0,249.8,-43.6,-56.58,-56.86,-56.58,153.87,88.52,-0.0107,10.0,0.224,-0.4254,4.2974,4.3184,-5.65,-3.4954,-0.1790,3.5000,-92.93,21,300.0,132.0,-3.9208,4.1184,5.6863,-43.59,-0.50,-43.59,-43.09,False,FORWARDS_LEFT,1.000,0,0,STUCK,False,False,True,0,True,STUCK_DETECTED,0.00,0
1764635136.9339104,59.553,14,TEST2_OBSTACLE_BYPASS,True,-24.0,2721.6,2721.7,359.50,0.806,0.0,254.4,-50.7,-56.61,-56.07,-56.61,154.68,88.51,-0.0149,10.0,0.233,-0.4303,4.2854,4.3069,-5.73,-3.4954,-0.1790,3.5000,-92.93,21,300.0,132.0,-3.9257,4.1063,5.6809,-43.71,-0.50,-43.71,-43.21,False,FORWARDS_LEFT,1.000,0,0,STUCK,False,False,True,0,True,STUCK_DETECTED,0.00,0
1764635136.9721894,59.591,15,TEST2_OBSTACLE_BYPASS,True,-24.0,2721.6,2721.7,359.50,0.806,0.0,258.8,-57.3,-56.46,-54.91,-56.46,156.01,88.59,0.0085,10.0,0.250,-0.4349,4.2740,4.2960,-5.81,-3.4982,-0.1138,3.5000,-91.86,30,300.0,132.0,-3.9330,4.1602,5.7250,-43.39,-0.50,-43.39,-42.89,False,FORWARDS_LEFT,1.000,0,0,STUCK,False,False,True,0,True,STUCK_DETECTED,0.00,0
1764635137.012579,59.632,16,TEST2_OBSTACLE_BYPASS,False,0.0,0.0,0.0,0.00,0.000,0.0,264.0,-65.0,-56.15,-54.01,-56.15,156.66,88.29,0.0224,10.0,0.287,-0.4402,4.2608,4.2835,-5.90,-3.4982,-0.1138,3.5000,-91.86,30,300.0,132.0,-3.9384,4.1471,5.7192,-43.52,0.00,-43.52,0.00,False,NONE,0.000,0,0,STUCK,False,False,True,0,True,STUCK_DETECTED,0.00,0
1764635137.0494742,59.669,17,TEST2_OBSTACLE_BYPASS,False,0.0,0.0,0.0,0.00,0.000,0.0,268.3,-71.4,-55.76,-53.24,-55.76,157.51,88.30,0.0277,10.0,0.342,-0.4447,4.2499,4.2731,-5.97,-3.4984,-0.1056,3.5000,-91.73,47,300.0,132.0,-3.9431,4.1443,5.7204,-43.57,0.00,-43.57,0.00,False,NONE,0.000,0,0,STUCK,False,False,True,0,True,STUCK_DETECTED,0.00,0
1764635137.094869,59.714,18,TEST2_OBSTACLE_BYPASS,False,0.0,0.0,0.0,0.00,0.000,0.0,273.7,-79.1,-55.38,-52.91,-55.38,157.61,87.99,0.0362,10.0,0.414,-0.4502,4.2367,4.2605,-6.07,-3.4839,-0.3357,3.5000,-95.50,59,300.0,132.0,-3.9341,3.9010,5.5403,-45.24,0.00,-45.24,0.00,False,NONE,0.000,0,0,STUCK,False,False,True,0,True,STUCK_DETECTED,0.00,0
1764635137.1307135,59.750,19,TEST2_OBSTACLE_BYPASS,False,0.0,0.0,0.0,0.00,0.000,0.0,278.0,-85.4,-55.06,-52.94,-55.06,157.47,87.88,0.0181,10.0,0.496,-0.4546,4.2261,4.2505,-6.14,-3.4982,-0.1125,3.5000,-91.84,51,300.0,132.0,-3.9528,4.1136,5.7050,-43.86,0.00,-43.86,0.00,False,NONE,0.000,0,0,STUCK,False,False,True,0,True,STUCK_DETECTED,0.00,0
1764635137.1743047,59.794,20,TEST2_OBSTACLE_BYPASS,False,0.0,0.0,0.0,0.00,0.000,0.0,283.2,-92.7,-54.75,-53.16,-54.75,156.90,87.60,0.0266,10.0,0.585,-0.4599,4.2137,4.2387,-6.23,-3.4982,-0.1125,3.5000,-91.84,51,300.0,132.0,-3.9581,4.1012,5.6996,-43.98,0.00,-43.98,0.00,False,NONE,0.000,0,0,STUCK,False,False,True,0,True,STUCK_DETECTED,0.00,0
1764635137.2092211,59.829,21,TEST2_OBSTACLE_BYPASS,False,0.0,0.0,0.0,0.00,0.000,0.0,287.8,-99.1,-54.47,-53.67,-54.47,156.27,87.63,-0.0170,10.0,0.680,-0.4645,4.2029,4.2285,-6.31,-3.4880,-0.2890,3.5000,-94.74,65,300.0,136.0,-3.9525,3.9139,5.5625,-45.28,0.00,-45.28,0.00,False,NONE,0.000,0,0,STUCK,False,False,True,0,True,STUCK_DETECTED,0.00,0
1764635137.2562404,59.876,22,TEST2_OBSTACLE_BYPASS,False,0.0,0.0,0.0,0.00,0.000,0.0,293.1,-106.5,-54.15,-53.71,-54.15,155.91,87.79,-0.0490,10.0,0.780,-0.4698,4.1904,4.2166,-6.40,-3.4880,-0.2890,3.5000,-94.74,65,300.0,136.0,-3.9579,3.9014,5.5575,-45.41,0.00,-45.41,0.00,False,NONE,0.000,0,0,STUCK,False,False,True,0,True,STUCK_DETECTED,0.00,0
1764635137.292514,59.912,23,TEST2_OBSTACLE_BYPASS,False,0.0,0.0,0.0,0.00,0.000,0.0,297.6,-112.7,-53.70,-52.43,-53.70,156.97,87.97,-0.0746,10.0,0.892,-0.4743,4.1800,4.2069,-6.47,-3.4811,-0.3637,3.5000,-95.96,86,300.0,136.0,-3.9553,3.8164,5.4963,-46.02,0.00,-46.02,0.00,False,FORWARDS_LEFT,1.000,0,0,STUCK,False,False,True,0,True,STUCK_DETECTED,0.00,0
1764635137.3338394,59.953,24,TEST2_OBSTACLE_BYPASS,False,0.0,0.0,0.0,0.00,0.000,0.0,302.9,-119.6,-52.86,-47.59,-52.86,161.40,88.20,-0.0937,10.0,1.031,-0.4795,4.1683,4.1958,-6.56,-3.4811,-0.3637,3.5000,-95.96,86,300.0,136.0,-3.9606,3.8047,5.4920,-46.15,0.00,-46.15,0.00,False,FORWARDS_LEFT,1.000,0,0,STUCK,False,False,True,0,True,STUCK_DETECTED,0.00,0
1764635137.370719,59.990,25,TEST2_OBSTACLE_BYPASS,False,0.0,0.0,0.0,0.00,0.000,0.0,307.9,-125.9,-51.73,-43.69,-51.73,165.04,88.29,-0.0298,10.0,1.205,-0.4845,4.1577,4.1858,-6.65,-3.4833,-0.3415,3.5000,-95.60,98,300.0,143.0,-3.9678,3.8162,5.5052,-46.12,0.00,-46.12,0.00,False,FORWARDS_LEFT,1.000,0,0,STUCK,False,False,True,0,True,STUCK_DETECTED,0.00,0
1764635137.4161854,60.035,26,TEST2_OBSTACLE_BYPASS,True,-2037.1,3265.2,3848.6,328.04,0.653,0.0,313.6,-132.9,-50.70,-43.67,-50.70,165.01,88.48,0.0170,10.0,1.406,-1.6522,2.3884,2.9042,-34.67,-3.4833,-0.3415,3.5000,-95.60,98,300.0,143.0,-5.1355,2.0469,5.5284,-68.27,-31.96,-68.27,-36.31,False,LEFT,0.700,0,0,STUCK,False,False,True,0,True,STUCK_DETECTED,0.00,2
1764635137.4541705,60.073,27,TEST2_OBSTACLE_BYPASS,True,-2100.8,3224.6,3848.6,326.92,0.653,0.0,313.6,-132.9,-49.92,-45.40,-49.92,163.01,88.33,0.0373,10.0,1.623,-1.6941,2.3558,2.9017,-35.72,-3.4690,-0.4646,3.5000,-97.63,100,300.0,143.0,-5.1631,1.8912,5.4986,-69.88,-33.08,-69.88,-36.80,False,LEFT,0.700,0,0,STUCK,False,False,True,0,True,STUCK_DETECTED,0.00,5
1764635137.4969385,60.116,28,TEST2_OBSTACLE_BYPASS,True,-2100.8,3224.6,3848.6,326.92,0.653,0.0,313.6,-132.9,-49.35,-47.23,-49.35,160.84,88.35,-0.0021,10.0,1.844,-1.6941,2.3558,2.9017,-35.72,-3.4690,-0.4646,3.5000,-97.63,100,300.0,143.0,-5.1631,1.8912,5.4986,-69.88,-33.08,-69.88,-36.80,False,LEFT,0.700,0,0,STUCK,False,False,True,0,True,STUCK_DETECTED,0.00,5
1764635137.5330932,60.152,29,TEST2_OBSTACLE_BYPASS,True,-2100.8,3224.6,3848.6,326.92,0.653,0.0,313.6,-132.9,-48.69,-46.40,-48.69,161.33,88.31,0.0085,10.0,2.072,-1.6941,2.3558,2.9017,-35.72,-3.4509,-0.5840,3.5000,-99.60,110,300.0,143.0,-5.1450,1.7718,5.4416,-71.00,-33.08,-71.00,-37.91,False,LEFT,0.700,0,0,STUCK,False,False,True,0,True,STUCK_DETECTED,0.00,7
1764635137.581096,60.200,30,TEST2_OBSTACLE_BYPASS,True,-2100.8,3224.6,3848.6,326.92,0.653,0.0,313.6,-132.9,-48.17,-47.89,-48.17,159.34,88.27,0.0362,10.0,2.304,-1.6941,2.3558,2.9017,-35.72,-3.4509,-0.5840,3.5000,-99.60,110,300.0,143.0,-5.1450,1.7718,5.4416,-71.00,-33.08,-71.00,-37.91,False,LEFT,0.700,0,0,STUCK,False,False,True,0,True,STUCK_DETECTED,0.00,7
1764635137.6221216,60.241,31,TEST2_OBSTACLE_BYPASS,True,-2100.8,3224.6,3848.6,326.92,0.653,0.0,313.6,-132.9,-47.58,-47.84,-47.58,159.03,87.67,0.1023,10.0,2.539,-1.6941,2.3558,2.9017,-35.72,-3.4409,-0.6406,3.5000,-100.55,124,300.0,143.0,-5.1350,1.7152,5.4139,-71.53,-33.08,-71.53,-38.44,False,LEFT,0.700,0,0,STUCK,False,False,True,0,True,STUCK_DETECTED,0.00,6
1764635137.6584294,60.278,32,TEST2_OBSTACLE_BYPASS,True,-2163.8,3182.7,3848.6,325.79,0.653,0.0,313.6,-132.9,-46.96,-47.43,-46.96,158.91,87.10,0.0575,10.0,2.779,-1.7354,2.3226,2.8993,-36.77,-3.4409,-0.6406,3.5000,-100.55,124,300.0,143.0,-5.1762,1.6820,5.4427,-72.00,-34.21,-72.00,-37.79,False,LEFT,0.700,0,0,STUCK,False,False,True,0,True,STUCK_DETECTED,0.00,6
1764635137.7032807,60.323,33,TEST2_OBSTACLE_BYPASS,True,-2163.8,3182.7,3848.6,325.79,0.653,0.0,313.6,-132.9,-46.32,-46.03,-46.32,159.22,86.48,0.0213,10.0,3.024,-1.7354,2.3226,2.8993,-36.77,-3.4093,-0.7918,3.5000,-103.08,127,300.0,146.0,-5.1446,1.5307,5.3675,-73.43,-34.21,-73.43,-39.22,False,LEFT,0.700,0,0,STUCK,False,False,True,0,True,STUCK_DETECTED,0.00,6
1764635137.7372944,60.357,34,TEST2_OBSTACLE_BYPASS,False,0.0,0.0,0.0,0.00,0.000,0.0,313.6,-132.9,-46.08,-45.27,-46.08,159.03,86.53,-0.0490,10.0,3.262,-1.7354,2.3226,2.8993,-36.77,-3.4093,-0.7918,3.5000,-103.08,127,300.0,146.0,-5.1446,1.5307,5.3675,-73.43,0.00,-73.43,0.00,False,NONE,0.000,0,0,STUCK,False,False,True,0,True,STUCK_DETECTED,0.00,0
1764635137.7836745,60.403,35,TEST2_OBSTACLE_BYPASS,True,-207.6,3110.4,3117.3,356.18,0.793,0.0,313.6,-132.9,-46.44,-47.24,-46.44,156.13,87.14,-0.0660,10.0,3.475,-0.5797,3.6067,3.6530,-9.13,-3.4079,-0.7978,3.5000,-103.18,132,300.0,146.0,-3.9875,2.8089,4.8775,-54.84,-3.82,-54.84,-51.02,False,FORWARDS_LEFT,1.000,0,0,STUCK,False,False,True,0,True,STUCK_DETECTED,0.00,0
1764635137.8229914,60.442,36,TEST2_OBSTACLE_BYPASS,True,-207.6,3110.4,3117.3,356.18,0.793,0.0,319.0,-138.8,-47.47,-53.99,-47.47,149.06,87.85,-0.0288,10.0,3.646,-0.5833,3.5987,3.6457,-9.21,-3.4079,-0.7978,3.5000,-103.18,132,300.0,146.0,-3.9911,2.8009,4.8759,-54.94,-3.82,-54.94,-51.12,False,FORWARDS_LEFT,1.000,0,0,STUCK,False,False,True,0,True,STUCK_DETECTED,0.00,0
1764635137.8646197,60.484,37,TEST2_OBSTACLE_BYPASS,True,-192.9,2786.5,2793.1,356.04,0.798,0.0,325.0,-145.4,-48.10,-51.72,-48.10,151.36,87.96,-0.0714,10.0,3.790,-0.7010,3.9691,4.0305,-10.02,-3.3773,-0.9186,3.5000,-105.22,127,300.0,252.0,-4.0783,3.0505,5.0930,-53.20,-3.96,-53.20,-49.24,False,FORWARDS_LEFT,1.000,0,0,STUCK,False,False,True,0,True,STUCK_DETECTED,0.00,0
1764635137.9019089,60.521,38,TEST2_OBSTACLE_BYPASS,True,-192.9,2786.5,2793.1,356.04,0.798,0.0,330.4,-151.4,-47.84,-44.55,-47.84,158.32,87.53,-0.0660,10.0,3.934,-0.7051,3.9590,4.0213,-10.10,-3.3773,-0.9186,3.5000,-105.22,127,300.0,252.0,-4.0824,3.0405,5.0903,-53.32,-3.96,-53.32,-49.36,False,FORWARDS_LEFT,1.000,0,0,STUCK,False,False,True,0,True,STUCK_DETECTED,0.00,0
1764635137.9440594,60.563,39,TEST2_OBSTACLE_BYPASS,True,-131.3,2503.6,2507.1,357.00,0.921,0.0,336.3,-157.8,-46.87,-36.73,-46.87,166.00,86.61,-0.0415,10.0,4.095,-0.7685,4.3739,4.4409,-9.97,-3.3572,-0.9897,3.5000,-106.43,122,300.0,252.0,-4.1257,3.3842,5.3361,-50.64,-3.00,-50.64,-47.64,False,FORWARDS_LEFT,1.000,0,0,STUCK,False,False,True,0,True,STUCK_DETECTED,0.00,0
1764635137.9864357,60.606,40,TEST2_OBSTACLE_BYPASS,True,-131.3,2503.6,2507.1,357.00,0.921,0.0,342.0,-163.6,-45.60,-35.22,-45.60,167.44,86.39,0.0160,10.0,4.281,-0.7741,4.3617,4.4298,-10.06,-3.3572,-0.9897,3.5000,-106.43,122,300.0,252.0,-4.1312,3.3720,5.3327,-50.78,-3.00,-50.78,-47.78,False,FORWARDS_LEFT,1.000,0,0,STUCK,False,False,True,0,True,STUCK_DETECTED,0.00,0
1764635138.028613,60.648,41,TEST2_OBSTACLE_BYPASS,True,-131.3,2503.6,2507.1,357.00,0.921,0.0,348.4,-169.8,-44.40,-35.83,-44.40,166.44,86.58,-0.0373,10.0,4.488,-0.7803,4.3486,4.4181,-10.17,-3.3145,-1.1243,3.5000,-108.74,108,300.0,252.0,-4.0948,3.2243,5.2118,-51.78,-3.00,-51.78,-48.78,False,FORWARDS_LEFT,1.000,0,0,STUCK,False,False,True,0,True,STUCK_DETECTED,0.00,0
1764635138.0700347,60.689,42,TEST2_OBSTACLE_BYPASS,True,-131.3,2503.6,2507.1,357.00,0.921,0.0,355.2,-176.3,-43.26,-36.07,-43.26,165.65,86.74,-0.0320,10.0,4.712,-0.7871,4.3349,4.4058,-10.29,-3.2338,-1.3389,3.5000,-112.49,85,300.0,251.0,-4.0208,2.9960,5.0143,-53.31,-3.00,-53.31,-50.31,False,FORWARDS_LEFT,1.000,0,0,STUCK,False,False,True,0,True,STUCK_DETECTED,0.00,0
1764635138.111555,60.731,43,TEST2_OBSTACLE_BYPASS,True,-131.3,2503.6,2507.1,357.00,0.921,0.0,361.8,-182.2,-42.33,-36.66,-42.33,164.33,87.21,-0.0447,10.0,4.948,-0.7935,4.3222,4.3945,-10.40,-3.1252,-1.5758,3.5000,-116.76,101,300.0,251.0,-3.9187,2.7464,4.7853,-54.98,-3.00,-54.98,-51.97,False,FORWARDS_LEFT,1.000,0,0,STUCK,False,False,True,0,True,STUCK_DETECTED,0.00,0
1764635138.1580384,60.777,44,TEST2_OBSTACLE_BYPASS,True,-131.3,2503.6,2507.1,357.00,0.921,0.0,368.5,-188.1,-41.55,-37.48,-41.55,162.56,87.14,0.0522,10.0,5.191,-0.8001,4.3095,4.3831,-10.52,-3.1724,-1.4784,3.5000,-114.99,79,400.0,251.0,-3.9726,2.8310,4.8781,-54.52,-3.00,-54.52,-51.52,False,FORWARDS_LEFT,1.000,0,0,STUCK,False,False,True,0,True,STUCK_DETECTED,0.00,0
1764635138.1936083,60.813,45,TEST2_OBSTACLE_BYPASS,True,-131.3,2503.6,2507.1,357.00,0.921,0.0,374.8,-193.5,-40.48,-36.58,-40.48,162.58,86.50,0.0522,10.0,5.447,-0.8065,4.2978,4.3728,-10.63,-3.1724,-1.4784,3.5000,-114.99,79,400.0,251.0,-3.9789,2.8193,4.8765,-54.68,-3.00,-54.68,-51.68,False,FORWARDS_LEFT,1.000,0,0,STUCK,False,False,True,0,True,STUCK_DETECTED,0.00,0
1764635138.2363825,60.856,46,TEST2_OBSTACLE_BYPASS,True,-131.3,2503.6,2507.1,357.00,0.921,0.0,381.6,-199.0,-38.50,-34.15,-38.50,163.52,85.57,-0.0064,10.0,5.736,-0.8134,4.2858,4.3623,-10.75,-3.0354,-1.7426,3.5000,-119.86,95,300.0,251.0,-3.8488,2.5433,4.6132,-56.54,-3.00,-56.54,-53.54,False,FORWARDS_LEFT,1.000,0,0,STUCK,False,False,True,0,True,STUCK_DETECTED,0.00,0
1764635138.2711248,60.890,47,TEST2_OBSTACLE_BYPASS,False,0.0,0.0,0.0,0.00,0.000,0.0,388.2,-203.9,-36.53,-32.06,-36.53,163.48,85.01,-0.0053,10.0,6.055,-0.8203,4.2748,4.3527,-10.86,-3.0354,-1.7426,3.5000,-119.86,95,300.0,251.0,-3.8556,2.5322,4.6128,-56.71,0.00,-56.71,0.00,False,NONE,0.000,0,0,STUCK,False,False,True,0,True,STUCK_DETECTED,0.00,0
1764635138.3128386,60.932,48,TEST2_OBSTACLE_BYPASS,False,0.0,0.0,0.0,0.00,0.000,0.0,395.4,-208.9,-35.31,-32.36,-35.31,160.47,84.73,0.1001,10.0,6.386,-0.8278,4.2632,4.3428,-10.99,-2.9573,-1.8720,3.5000,-122.33,150,300.0,204.0,-3.7850,2.3911,4.4771,-57.72,0.00,-57.72,0.00,False,NONE,0.000,0,0,STUCK,False,False,True,0,True,STUCK_DETECTED,0.00,0
1764635138.3525648,60.972,49,TEST2_OBSTACLE_BYPASS,False,0.0,0.0,0.0,0.00,0.000,0.0,402.1,-213.7,-35.09,-34.50,-35.09,156.49,84.65,0.0724,10.0,6.708,-0.8348,4.2523,4.3334,-11.11,-2.9573,-1.8720,3.5000,-122.33,150,300.0,204.0,-3.7921,2.3802,4.4772,-57.88,0.00,-57.88,0.00,False,NONE,0.000,0,0,STUCK,False,False,True,0,True,STUCK_DETECTED,0.00,0
1764635138.3948715,61.014,50,TEST2_OBSTACLE_BYPASS,True,89.9,2403.4,2405.1,2.14,0.972,0.0,409.0,-218.6,-35.25,-36.82,-35.25,152.00,84.89,-0.0607,10.0,7.014,-0.5490,4.5099,4.5431,-6.94,-2.8245,-2.0669,3.5000,-126.20,148,350.0,253.0,-3.3735,2.4429,4.1651,-54.09,2.14,-54.09,-56.23,False,FORWARDS_LEFT,1.000,0,0,STUCK,False,False,True,0,True,STUCK_DETECTED,0.00,0
1764635138.4382699,61.058,51,TEST2_OBSTACLE_BYPASS,True,177.8,2334.4,2341.1,4.36,0.997,0.0,416.4,-223.8,-35.31,-36.44,-35.31,150.89,85.31,-0.1193,10.0,7.306,-0.4338,4.6504,4.6706,-5.33,-2.7121,-2.2123,3.5000,-129.20,165,300.0,253.0,-3.1459,2.4381,3.9801,-52.22,4.36,-52.22,-56.58,False,FORWARDS_LEFT,1.000,0,0,STUCK,False,False,True,0,True,STUCK_DETECTED,0.00,0
1764635138.4741213,61.093,52,TEST2_OBSTACLE_BYPASS,True,177.8,2334.4,2341.1,4.36,0.997,0.0,422.9,-228.4,-35.16,-34.57,-35.16,151.77,85.69,-0.1459,10.0,7.590,-0.4438,4.6401,4.6613,-5.46,-2.8132,-2.0823,3.5000,-126.51,135,300.0,253.0,-3.2570,2.5578,4.1412,-51.86,4.36,-51.86,-56.21,False,FORWARDS_LEFT,1.000,0,0,STUCK,False,False,True,0,True,STUCK_DETECTED,0.00,0
1764635138.519724,61.139,53,TEST2_OBSTACLE_BYPASS,True,265.4,2301.2,2316.4,6.58,0.984,0.0,430.3,-233.5,-34.69,-31.92,-34.69,153.81,86.05,-0.1342,10.0,7.872,-0.3068,4.7144,4.7244,-3.72,-2.6466,-2.2903,3.5000,-130.87,142,300.0,253.0,-2.9534,2.4241,3.8208,-50.62,6.58,-50.62,-57.20,False,FORWARDS_LEFT,1.000,0,0,STUCK,False,False,True,0,True,STUCK_DETECTED,0.00,0
1764635138.5548034,61.174,54,TEST2_OBSTACLE_BYPASS,True,310.5,2295.5,2316.4,7.70,0.984,0.0,437.0,-238.0,-33.86,-29.19,-33.86,156.47,86.29,-0.0330,10.0,8.159,-0.2359,4.7248,4.7306,-2.86,-2.6824,-2.2482,3.5000,-129.97,116,300.0,252.0,-2.9184,2.4765,3.8276,-49.68,7.70,-49.68,-57.39,False,FORWARDS_LEFT,1.000,0,0,STUCK,False,False,True,0,True,STUCK_DETECTED,0.00,0
1764635138.5998073,61.219,55,TEST2_OBSTACLE_BYPASS,True,384.9,2297.9,2329.9,9.51,0.954,0.0,444.5,-242.9,-33.30,-31.03,-33.30,154.93,86.32,0.1641,10.0,8.446,-0.1107,4.7204,4.7217,-1.34,-2.5638,-2.3826,3.5000,-132.90,128,300.0,252.0,-2.6745,2.3378,3.5522,-48.84,9.51,-48.84,-58.35,False,FORWARDS_LEFT,1.000,0,0,STUCK,False,False,True,0,True,STUCK_DETECTED,0.00,0
1764635138.6358888,61.255,56,TEST2_OBSTACLE_BYPASS,True,384.9,2297.9,2329.9,9.51,0.954,0.0,451.0,-247.3,-34.06,-41.70,-34.06,144.85,86.20,0.3068,10.0,8.708,-0.1225,4.7116,4.7132,-1.49,-2.6536,-2.2822,3.5000,-130.70,120,300.0,250.0,-2.7761,2.4294,3.6890,-48.81,9.51,-48.81,-58.32,False,FORWARDS_LEFT,1.000,0,0,STUCK,False,False,True,0,True,STUCK_DETECTED,0.00,0
1764635138.6807332,61.300,57,TEST2_OBSTACLE_BYPASS,True,384.9,2297.9,2329.9,9.51,0.954,0.0,458.2,-252.5,-36.00,-51.44,-36.00,135.39,86.04,0.2088,10.0,8.927,-0.1352,4.7013,4.7032,-1.65,-2.3695,-2.5759,3.5000,-137.39,140,250.0,250.0,-2.5047,2.1254,3.2849,-49.68,9.51,-49.68,-59.19,False,FORWARDS_LEFT,0.985,0,0,STUCK,False,False,True,0,True,STUCK_DETECTED,0.00,0
1764635138.7158473,61.335,58,TEST2_OBSTACLE_BYPASS,True,384.9,2297.9,2329.9,9.51,0.954,0.0,464.4,-257.4,-38.24,-54.83,-38.24,131.02,85.84,0.0469,10.0,9.098,-0.1460,4.6917,4.6939,-1.78,-2.4985,-2.4511,3.5000,-134.45,121,250.0,248.0,-2.6444,2.2406,3.4660,-49.73,9.51,-49.73,-59.23,False,FORWARDS_LEFT,1.000,0,0,STUCK,False,False,True,0,True,STUCK_DETECTED,0.00,0
1764635138.759738,61.379,59,TEST2_OBSTACLE_BYPASS,True,384.9,2297.9,2329.9,9.51,0.954,0.0,471.0,-262.9,-39.98,-51.84,-39.98,132.54,85.84,-0.1502,10.0,9.234,-0.1574,4.6808,4.6834,-1.93,-2.3241,-2.6170,3.5000,-138.39,133,250.0,248.0,-2.4815,2.0638,3.2276,-50.25,9.51,-50.25,-59.76,False,FORWARDS_LEFT,0.968,0,0,STUCK,False,False,True,0,True,STUCK_DETECTED,0.00,0
1764635138.8030603,61.422,60,TEST2_OBSTACLE_BYPASS,True,429.9,2289.9,2329.9,10.63,0.954,0.0,477.3,-268.4,-40.92,-46.21,-40.92,136.51,86.02,-0.1832,10.0,9.349,-0.0868,4.6891,4.6899,-1.06,-2.4238,-2.5249,3.5000,-136.17,127,250.0,248.0,-2.5106,2.1642,3.3146,-49.24,10.63,-49.24,-59.87,False,FORWARDS_LEFT,0.994,0,0,STUCK,False,False,True,0,True,STUCK_DETECTED,0.00,0
1764635138.8446746,61.464,61,TEST2_OBSTACLE_BYPASS,True,429.9,2289.9,2329.9,10.63,0.954,0.0,484.0,-274.3,-41.39,-41.14,-41.39,140.27,86.10,-0.0458,10.0,9.453,-0.0986,4.6778,4.6789,-1.21,-2.4238,-2.5249,3.5000,-136.17,127,250.0,248.0,-2.5224,2.1529,3.3162,-49.52,10.63,-49.52,-60.15,False,FORWARDS_LEFT,0.995,0,0,STUCK,False,False,True,0,True,STUCK_DETECTED,0.00,0
1764635138.8811119,61.500,62,TEST2_OBSTACLE_BYPASS,True,429.9,2289.9,2329.9,10.63,0.954,0.0,489.8,-279.5,-41.97,-40.45,-41.97,140.69,86.12,0.0660,10.0,9.543,-0.1088,4.6679,4.6691,-1.33,-2.2941,-2.6433,3.5000,-139.04,149,250.0,248.0,-2.4029,2.0246,3.1421,-49.88,10.63,-49.88,-60.52,False,FORWARDS_LEFT,0.943,0,0,STUCK,False,False,True,0,True,STUCK_DETECTED,0.00,0
1764635138.919434,61.539,63,TEST2_OBSTACLE_BYPASS,False,0.0,0.0,0.0,0.00,0.000,0.0,495.9,-285.3,-43.09,-43.07,-43.09,138.31,85.93,0.1140,10.0,9.612,-0.1194,4.6569,4.6584,-1.47,-2.3230,-2.6179,3.5000,-138.42,149,250.0,248.0,-2.4424,2.0390,3.1816,-50.14,0.00,-50.14,0.00,False,NONE,0.000,0,0,STUCK,False,False,True,0,True,STUCK_DETECTED,0.00,0
1764635138.9607923,61.580,64,TEST2_OBSTACLE_BYPASS,False,0.0,0.0,0.0,0.00,0.000,0.0,501.7,-290.9,-44.70,-45.27,-44.70,136.41,85.76,0.0426,10.0,9.654,-0.1292,4.6462,4.6479,-1.59,-2.0571,-2.8317,3.5000,-144.00,183,250.0,22.0,-2.1862,1.8145,2.8411,-50.31,0.00,-50.31,0.00,False,NONE,0.000,0,0,STUCK,False,False,True,0,True,STUCK_DETECTED,0.00,0
1764635138.9998705,61.619,65,TEST2_OBSTACLE_BYPASS,False,0.0,0.0,0.0,0.00,0.000,0.0,507.0,-296.5,-46.15,-45.52,-46.15,136.00,85.80,-0.0629,10.0,9.672,-0.1382,4.6356,4.6377,-1.71,-1.8978,-2.9408,3.5000,-147.17,196,200.0,22.0,-2.0359,1.6948,2.6490,-50.22,0.00,-50.22,0.00,False,NONE,0.000,0,0,STUCK,False,False,True,0,True,STUCK_DETECTED,0.00,0
1764635139.040989,61.660,66,TEST2_OBSTACLE_BYPASS,False,0.0,0.0,0.0,0.00,0.000,0.0,512.8,-302.6,-46.29,-43.15,-46.29,137.61,85.99,-0.1193,10.0,9.687,-0.1478,4.6242,4.6265,-1.83,-1.9809,-2.8855,3.5000,-145.53,186,200.0,22.0,-2.1287,1.7387,2.7485,-50.76,0.00,-50.76,0.00,False,NONE,0.000,0,0,STUCK,False,False,True,0,True,STUCK_DETECTED,0.00,0
1764635139.0812027,61.701,67,TEST2_OBSTACLE_BYPASS,False,0.0,0.0,0.0,0.00,0.000,0.0,518.3,-308.1,-45.13,-39.81,-45.13,140.15,86.08,-0.0724,10.0,9.719,-0.1570,4.6137,4.6163,-1.95,-1.6279,-3.0984,3.5000,-152.28,182,200.0,31.0,-1.7849,1.5153,2.3413,-49.67,0.00,-49.67,0.00,False,NONE,0.000,0,0,STUCK,False,False,True,0,True,STUCK_DETECTED,0.00,0
1764635139.1231847,61.742,68,TEST2_OBSTACLE_BYPASS,False,0.0,0.0,0.0,0.00,0.000,0.0,524.3,-313.8,-43.59,-39.48,-43.59,139.88,86.14,0.0724,10.0,9.773,-0.1668,4.6029,4.6059,-2.08,-1.4313,-3.1940,3.5000,-155.86,146,200.0,38.0,-1.5981,1.4090,2.1305,-48.60,0.00,-48.60,0.00,False,NONE,0.000,0,0,STUCK,False,False,True,0,True,STUCK_DETECTED,0.00,0
1764635139.159463,61.779,69,TEST2_OBSTACLE_BYPASS,False,0.0,0.0,0.0,0.00,0.000,0.0,529.8,-318.8,-42.58,-41.66,-42.58,137.87,86.09,0.0767,10.0,9.841,-0.1759,4.5932,4.5966,-2.19,-1.4335,-3.1930,3.5000,-155.82,146,200.0,245.0,-1.6093,1.4003,2.1332,-48.97,0.00,-48.97,0.00,False,NONE,0.000,0,0,STUCK,False,False,True,0,True,STUCK_DETECTED,0.00,0
1764635139.2101417,61.829,70,TEST2_OBSTACLE_BYPASS,True,1193.4,3151.1,3369.5,20.74,0.940,0.0,536.1,-324.6,-42.14,-41.87,-42.14,137.85,85.94,0.0426,10.0,9.913,0.6304,3.3334,3.3925,10.71,-1.4833,-3.1702,3.5000,-154.93,142,200.0,245.0,-0.8529,0.1632,0.8684,-79.17,20.74,-79.17,-99.91,True,LEFT,0.182,0,0,STUCK,False,False,True,0,True,FORCE_AWAY_FROM_PERSON|STUCK_DETECTED,0.00,0
1764635139.2443857,61.864,71,TEST2_OBSTACLE_BYPASS,True,1255.0,3127.0,3369.5,21.87,0.940,0.0,536.1,-324.6,-42.15,-41.23,-42.15,138.41,85.84,-0.0213,10.0,9.983,0.6940,3.3321,3.4036,11.77,-0.9609,-3.3655,3.5000,-164.07,122,200.0,49.0,-0.2669,-0.0334,0.2689,-97.14,21.87,-97.14,-119.01,True,LEFT,0.056,0,0,STUCK,False,False,True,0,True,FORCE_AWAY_FROM_PERSON|STUCK_DETECTED,0.00,0
1764635139.287773,61.907,72,TEST2_OBSTACLE_BYPASS,True,1255.0,3127.0,3369.5,21.87,0.940,0.0,536.1,-324.6,-42.14,-40.32,-42.14,139.09,85.89,-0.0618,10.0,10.050,0.6940,3.3321,3.4036,11.77,-0.9609,-3.3655,3.5000,-164.07,122,200.0,49.0,-0.2669,-0.0334,0.2689,-97.14,21.87,-97.14,-119.01,True,LEFT,0.056,0,0,STUCK,False,False,True,0,True,FORCE_AWAY_FROM_PERSON|STUCK_DETECTED,0.00,0
1764635139.3246324,61.944,73,TEST2_OBSTACLE_BYPASS,True,825.9,2658.8,2784.1,17.26,0.992,0.0,536.1,-324.6,-41.81,-39.82,-41.81,139.24,85.95,-0.0043,10.0,10.121,0.3870,3.9847,4.0035,5.55,0.0026,-3.5000,3.5000,179.96,129,200.0,61.0,0.3896,0.4847,0.6219,38.79,17.26,38.79,21.54,False,FORWARDS_RIGHT,0.187,0,0,STUCK,False,False,True,0,True,STUCK_DETECTED,0.00,0
1764635139.366543,61.986,74,TEST2_OBSTACLE_BYPASS,True,825.9,2658.8,2784.1,17.26,0.992,0.0,537.4,-325.7,-41.34,-40.51,-41.34,138.41,86.07,0.0096,10.0,10.196,0.3852,3.9836,4.0022,5.52,0.0026,-3.5000,3.5000,179.96,129,200.0,61.0,0.3877,0.4836,0.6198,38.72,17.26,38.72,21.47,False,FORWARDS_RIGHT,0.186,0,0,STUCK,False,False,True,0,True,STUCK_DETECTED,0.00,0
1764635139.408135,62.027,75,TEST2_OBSTACLE_BYPASS,True,825.9,2658.8,2784.1,17.26,0.992,0.0,538.6,-326.7,-40.91,-41.26,-40.91,137.40,86.05,-0.0245,10.0,10.275,0.3833,3.9825,4.0009,5.50,-0.0458,-3.4997,3.5000,-179.25,136,200.0,65.0,0.3374,0.4828,0.5890,34.95,17.26,34.95,17.69,False,FORWARDS_RIGHT,0.177,0,0,STUCK,False,False,True,0,True,STUCK_DETECTED,0.00,0
1764635139.4515026,62.071,76,TEST2_OBSTACLE_BYPASS,True,825.9,2658.8,2784.1,17.26,0.992,0.0,539.8,-327.8,-40.64,-40.39,-40.64,137.81,86.22,-0.1065,10.0,10.355,0.3814,3.9815,3.9997,5.47,-0.0326,-3.4998,3.5000,-179.47,157,200.0,65.0,0.3488,0.4816,0.5946,35.91,17.26,35.91,18.66,False,FORWARDS_RIGHT,0.178,0,0,STUCK,False,False,True,0,True,STUCK_DETECTED,0.00,1
1764635139.4888833,62.108,77,TEST2_OBSTACLE_BYPASS,True,878.0,2642.1,2784.1,18.38,0.992,0.0,540.9,-328.7,-40.33,-36.72,-40.33,140.59,86.45,-0.1886,10.0,10.438,0.4525,3.9880,4.0136,6.47,0.5430,-3.4576,3.5000,171.07,121,200.0,71.0,0.9955,0.5304,1.1280,61.95,18.38,61.95,43.57,False,FORWARDS_RIGHT,0.338,0,0,STUCK,False,False,True,0,True,STUCK_DETECTED,0.00,0
1764635139.5295708,62.149,78,TEST2_OBSTACLE_BYPASS,True,878.0,2642.1,2784.1,18.38,0.992,0.0,543.1,-330.5,-39.28,-29.05,-39.28,147.12,86.71,-0.2205,10.0,10.532,0.4490,3.9863,4.0115,6.43,0.5195,-3.4612,3.5000,171.46,129,200.0,72.0,0.9684,0.5251,1.1016,61.53,18.38,61.53,43.15,False,FORWARDS_RIGHT,0.330,0,0,STUCK,False,False,True,0,True,STUCK_DETECTED,0.00,0
1764635139.5676963,62.187,79,TEST2_OBSTACLE_BYPASS,True,878.0,2642.1,2784.1,18.38,0.992,0.0,545.2,-332.1,-37.34,-22.22,-37.34,153.30,86.85,-0.1364,10.0,10.648,0.4458,3.9848,4.0097,6.38,0.5614,-3.4547,3.5000,170.77,103,200.0,13.0,1.0072,0.5302,1.1382,62.24,18.38,62.24,43.86,False,FORWARDS_RIGHT,0.341,0,0,STUCK,False,False,True,0,True,STUCK_DETECTED,0.00,0
1764635139.6132424,62.233,80,TEST2_OBSTACLE_BYPASS,True,878.0,2642.1,2784.1,18.38,0.992,0.0,547.7,-333.9,-35.57,-24.16,-35.57,151.59,87.30,0.0682,10.0,10.784,0.4421,3.9833,4.0077,6.33,0.5614,-3.4547,3.5000,170.77,103,200.0,13.0,1.0035,0.5286,1.1342,62.22,18.38,62.22,43.84,False,FORWARDS_RIGHT,0.340,0,0,STUCK,False,False,True,0,True,STUCK_DETECTED,0.00,0
1764635139.6521685,62.271,81,TEST2_OBSTACLE_BYPASS,False,0.0,0.0,0.0,0.00,0.000,0.0,550.4,-335.8,-34.88,-34.36,-34.88,142.09,87.56,0.0948,10.0,10.925,0.4380,3.9816,4.0056,6.28,0.7817,-3.4116,3.5000,167.09,109,200.0,17.0,1.2197,0.5700,1.3463,64.95,0.00,64.95,0.00,False,NONE,0.000,0,0,STUCK,False,False,True,0,True,STUCK_DETECTED,0.00,0
1764635139.6953309,62.315,82,TEST2_OBSTACLE_BYPASS,False,0.0,0.0,0.0,0.00,0.000,0.0,552.9,-337.5,-34.82,-39.73,-34.82,136.69,87.59,-0.0202,10.0,11.063,0.4342,3.9801,4.0037,6.23,0.8286,-3.4005,3.5000,166.30,87,200.0,240.0,1.2629,0.5796,1.3895,65.35,0.00,65.35,0.00,False,NONE,0.000,0,0,STUCK,False,False,True,0,True,STUCK_DETECTED,0.00,0
1764635139.7351856,62.354,83,TEST2_OBSTACLE_BYPASS,False,0.0,0.0,0.0,0.00,0.000,0.0,555.2,-339.1,-34.66,-38.19,-34.66,137.75,87.70,-0.0575,10.0,11.200,0.4307,3.9786,4.0019,6.18,0.9328,-3.3734,3.5000,164.54,89,200.0,240.0,1.3635,0.6052,1.4917,66.07,0.00,66.07,0.00,False,NONE,0.000,0,0,STUCK,False,False,True,0,True,STUCK_DETECTED,0.00,0
1764635139.774379,62.394,84,TEST2_OBSTACLE_BYPASS,False,0.0,0.0,0.0,0.00,0.000,0.0,557.5,-340.7,-33.94,-33.32,-33.94,142.08,87.72,-0.1129,10.0,11.342,0.4272,3.9772,4.0001,6.13,0.9189,-3.3772,3.5000,164.78,93,200.0,240.0,1.3461,0.6000,1.4738,65.98,0.00,65.98,0.00,False,NONE,0.000,0,0,STUCK,False,False,True,0,True,STUCK_DETECTED,0.00,0
1764635139.8196242,62.439,85,TEST2_OBSTACLE_BYPASS,True,479.7,3038.5,3076.1,8.97,0.962,0.0,560.0,-342.3,-33.06,-32.46,-33.06,142.48,87.88,-0.0437,10.0,11.491,-0.0843,3.5475,3.5485,-1.36,0.9756,-3.3613,3.5000,163.81,88,200.0,240.0,0.8914,0.1862,0.9106,78.20,8.97,78.20,69.23,False,RIGHT,0.191,0,0,STUCK,False,False,True,0,True,STUCK_DETECTED,0.00,0
1764635139.8564298,62.476,86,TEST2_OBSTACLE_BYPASS,True,479.7,3038.5,3076.1,8.97,0.962,0.0,560.0,-342.3,-32.51,-34.88,-32.51,139.92,88.11,0.0309,10.0,11.643,-0.0843,3.5475,3.5485,-1.36,1.0570,-3.3366,3.5000,162.42,91,200.0,240.0,0.9728,0.2109,0.9954,77.77,8.97,77.77,68.80,False,RIGHT,0.209,0,0,STUCK,False,False,True,0,True,STUCK_DETECTED,0.00,0
1764635139.9001184,62.519,87,TEST2_OBSTACLE_BYPASS,True,576.0,3193.2,3244.7,10.22,0.965,0.0,560.0,-342.3,-32.78,-39.49,-32.78,135.48,88.11,0.0884,10.0,11.789,0.0153,3.3941,3.3941,0.26,1.0736,-3.3313,3.5000,162.14,94,200.0,240.0,1.0889,0.0628,1.0907,86.70,10.22,86.70,76.47,False,RIGHT,0.229,0,0,STUCK,False,False,True,0,True,STUCK_DETECTED,0.00,0
1764635139.9373245,62.557,88,TEST2_OBSTACLE_BYPASS,True,576.0,3193.2,3244.7,10.22,0.965,0.0,560.0,-342.3,-33.68,-37.97,-33.68,136.97,87.64,0.0905,10.0,11.921,0.0153,3.3941,3.3941,0.26,0.9901,-3.3570,3.5000,163.57,99,200.0,240.0,1.0054,0.0370,1.0061,87.89,10.22,87.89,77.67,False,RIGHT,0.211,0,0,STUCK,False,False,True,0,True,STUCK_DETECTED,0.00,0
1764635139.9809558,62.600,89,TEST2_OBSTACLE_BYPASS,True,576.0,3193.2,3244.7,10.22,0.965,0.0,560.0,-342.3,-34.97,-35.13,-34.97,139.89,87.30,0.0011,10.0,12.035,0.0153,3.3941,3.3941,0.26,1.0722,-3.3317,3.5000,162.16,94,200.0,240.0,1.0875,0.0623,1.0893,86.72,10.22,86.72,76.49,False,RIGHT,0.229,0,0,STUCK,False,False,True,0,True,STUCK_DETECTED,0.00,0
1764635140.0258849,62.645,90,TEST2_OBSTACLE_BYPASS,True,576.0,3193.2,3244.7,10.22,0.965,0.0,560.0,-342.3,-35.81,-32.55,-35.81,142.38,87.22,-0.0884,10.0,12.137,0.0153,3.3941,3.3941,0.26,1.2826,-3.2565,3.5000,158.50,95,250.0,240.0,1.2979,0.1375,1.3051,83.95,10.22,83.95,73.73,False,RIGHT,0.274,0,0,STUCK,False,False,True,0,True,STUCK_DETECTED,0.00,0
1764635140.0702188,62.690,91,TEST2_OBSTACLE_BYPASS,True,576.0,3193.2,3244.7,10.22,0.965,0.0,560.0,-342.3,-35.23,-28.60,-35.23,146.85,87.35,0.0053,10.0,12.244,0.0153,3.3941,3.3941,0.26,1.3303,-3.2373,3.5000,157.66,87,250.0,21.0,1.3456,0.1567,1.3547,83.36,10.22,83.36,73.13,False,RIGHT,0.284,0,0,STUCK,False,False,True,0,True,STUCK_DETECTED,0.00,0
1764635140.108045,62.727,92,TEST2_OBSTACLE_BYPASS,True,576.0,3193.2,3244.7,10.22,0.965,0.0,560.0,-342.3,-34.06,-28.02,-34.06,148.43,87.33,0.0490,10.0,12.361,0.0153,3.3941,3.3941,0.26,1.2181,-3.2812,3.5000,159.63,92,250.0,21.0,1.2334,0.1129,1.2385,84.77,10.22,84.77,74.55,False,RIGHT,0.260,0,0,STUCK,False,False,True,0,True,STUCK_DETECTED,0.00,0
1764635140.156097,62.775,93,TEST2_OBSTACLE_BYPASS,True,576.0,3193.2,3244.7,10.22,0.965,0.0,560.0,-342.3,-33.30,-30.55,-33.30,147.25,87.15,0.0107,10.0,12.483,0.0153,3.3941,3.3941,0.26,1.2838,-3.2560,3.5000,158.48,84,250.0,21.0,1.2991,0.1380,1.3064,83.94,10.22,83.94,73.71,False,RIGHT,0.274,0,0,STUCK,False,False,True,0,True,STUCK_DETECTED,0.00,0
1764635140.1920018,62.811,94,TEST2_OBSTACLE_BYPASS,True,576.0,3193.2,3244.7,10.22,0.965,0.0,560.0,-342.3,-33.39,-34.25,-33.39,144.63,87.51,-0.0458,10.0,12.602,0.0153,3.3941,3.3941,0.26,1.2961,-3.2512,3.5000,158.26,92,250.0,21.0,1.3114,0.1429,1.3192,83.78,10.22,83.78,73.56,False,RIGHT,0.277,0,0,STUCK,False,False,True,0,True,STUCK_DETECTED,0.00,0
1764635140.2276287,62.847,95,TEST2_OBSTACLE_BYPASS,False,0.0,0.0,0.0,0.00,0.000,0.0,560.0,-342.3,-33.68,-35.33,-33.68,144.08,87.82,-0.0788,10.0,12.716,0.0153,3.3941,3.3941,0.26,1.2961,-3.2512,3.5000,158.26,92,250.0,21.0,1.3114,0.1429,1.3192,83.78,0.00,83.78,0.00,False,NONE,0.000,0,0,STUCK,False,False,True,0,True,STUCK_DETECTED,0.00,0
1764635140.2694464,62.889,96,TEST2_OBSTACLE_BYPASS,False,0.0,0.0,0.0,0.00,0.000,0.0,560.0,-342.3,-33.39,-32.01,-33.39,147.48,87.85,-0.0298,10.0,12.830,0.0153,3.3941,3.3941,0.26,1.2693,-3.2617,3.5000,158.74,90,250.0,21.0,1.2846,0.1323,1.2914,84.12,0.00,84.12,0.00,False,NONE,0.000,0,0,STUCK,False,False,True,0,True,STUCK_DETECTED,0.00,0
1764635140.3069713,62.926,97,TEST2_OBSTACLE_BYPASS,False,0.0,0.0,0.0,0.00,0.000,0.0,560.0,-342.3,-32.50,-30.58,-32.50,149.09,87.76,0.0597,10.0,12.951,0.0153,3.3941,3.3941,0.26,1.3484,-3.2298,3.5000,157.34,91,250.0,21.0,1.3637,0.1642,1.3735,83.13,0.00,83.13,0.00,False,NONE,0.000,0,0,STUCK,False,False,True,0,True,STUCK_DETECTED,0.00,0
1764635140.3534384,62.973,98,TEST2_OBSTACLE_BYPASS,False,0.0,0.0,0.0,0.00,0.000,0.0,560.0,-342.3,-31.96,-32.57,-31.96,147.22,87.52,0.0863,10.0,13.075,0.0153,3.3941,3.3941,0.26,1.2468,-3.2704,3.5000,159.13,86,250.0,21.0,1.2621,0.1237,1.2681,84.40,0.00,84.40,0.00,False,NONE,0.000,0,0,STUCK,False,False,True,0,True,STUCK_DETECTED,0.00,0
1764635140.3914926,63.011,99,TEST2_OBSTACLE_BYPASS,False,0.0,0.0,0.0,0.00,0.000,0.0,560.0,-342.3,-31.82,-33.76,-31.82,146.02,87.34,0.0522,10.0,13.198,0.0153,3.3941,3.3941,0.26,1.0117,-3.3506,3.5000,163.20,93,200.0,21.0,1.0270,0.0435,1.0279,87.58,0.00,87.58,0.00,False,NONE,0.000,0,0,STUCK,False,False,True,0,True,STUCK_DETECTED,0.00,0
1764635140.4305077,63.050,100,TEST2_OBSTACLE_BYPASS,False,0.0,0.0,0.0,0.00,0.000,0.0,560.0,-342.3,-31.97,-34.02,-31.97,145.75,87.32,-0.0149,10.0,13.317,0.0153,3.3941,3.3941,0.26,1.1223,-3.3152,3.5000,161.30,89,200.0,21.0,1.1376,0.0789,1.1403,86.03,0.00,86.03,0.00,False,NONE,0.000,0,0,STUCK,False,False,True,0,True,STUCK_DETECTED,0.00,0
1764635140.4719434,63.091,101,TEST2_OBSTACLE_BYPASS,False,0.0,0.0,0.0,0.00,0.000,0.0,560.0,-342.3,-32.43,-33.23,-32.43,146.40,87.37,-0.0597,10.0,13.429,0.0153,3.3941,3.3941,0.26,1.1223,-3.3152,3.5000,161.30,89,200.0,21.0,1.1376,0.0789,1.1403,86.03,0.00,86.03,0.00,False,NONE,0.000,0,0,STUCK,False,False,True,0,True,STUCK_DETECTED,0.00,0
1764635140.5123985,63.132,102,TEST2_OBSTACLE_BYPASS,False,0.0,0.0,0.0,0.00,0.000,0.0,560.0,-342.3,-32.69,-30.56,-32.69,149.37,87.68,-0.0660,10.0,13.671,0.0153,3.3941,3.3941,0.26,1.1075,-3.3202,3.5000,161.55,87,200.0,21.0,1.1228,0.0739,1.1252,86.23,0.00,86.23,0.00,False,RIGHT,0.236,0,0,STUCK,False,False,True,0,True,STUCK_DETECTED,0.00,0
1764635140.5557046,63.175,103,TEST2_OBSTACLE_BYPASS,False,0.0,0.0,0.0,0.00,0.000,0.0,560.0,-342.3,-32.65,-30.23,-32.65,150.08,87.76,0.0192,10.0,13.914,0.0153,3.3941,3.3941,0.26,0.9666,-3.3639,3.5000,163.97,93,200.0,21.0,0.9819,0.0302,0.9824,88.24,0.00,88.24,0.00,False,RIGHT,0.206,0,0,STUCK,False,False,True,0,True,STUCK_DETECTED,0.00,0
1764635140.5913768,63.211,104,TEST2_OBSTACLE_BYPASS,False,0.0,0.0,0.0,0.00,0.000,0.0,560.0,-342.3,-32.47,-32.45,-32.47,148.31,87.71,0.0426,10.0,14.159,0.0153,3.3941,3.3941,0.26,0.9450,-3.3700,3.5000,164.34,87,200.0,21.0,0.9603,0.0241,0.9606,88.57,0.00,88.57,0.00,False,RIGHT,0.202,0,0,STUCK,False,False,True,0,True,STUCK_DETECTED,0.00,0
1764635140.6336284,63.253,105,TEST2_OBSTACLE_BYPASS,False,0.0,0.0,0.0,0.00,0.000,0.0,560.0,-342.3,-32.29,-33.45,-32.29,147.73,87.75,-0.0149,10.0,14.403,0.0153,3.3941,3.3941,0.26,0.9479,-3.3692,3.5000,164.29,92,200.0,92.0,0.9632,0.0249,0.9635,88.52,0.00,88.52,0.00,False,RIGHT,0.202,0,0,STUCK,False,False,True,0,True,STUCK_DETECTED,0.00,0
1764635140.6737316,63.293,106,TEST2_OBSTACLE_BYPASS,True,570.2,3319.2,3367.8,9.75,0.929,0.0,560.0,-342.3,-32.23,-31.42,-32.23,149.74,87.63,-0.0192,10.0,14.646,0.0091,3.2773,3.2773,0.16,1.0205,-3.3479,3.5000,163.05,88,200.0,92.0,1.0296,-0.0706,1.0320,93.92,9.75,93.92,84.18,False,RIGHT,0.217,0,0,STUCK,False,False,True,0,True,STUCK_DETECTED,0.00,0
1764635140.7142825,63.334,107,TEST2_OBSTACLE_BYPASS,True,570.2,3319.2,3367.8,9.75,0.929,0.0,560.0,-342.3,-32.25,-30.80,-32.25,150.47,87.69,0.0138,10.0,14.890,0.0091,3.2773,3.2773,0.16,0.9682,-3.3634,3.5000,163.94,90,200.0,94.0,0.9772,-0.0861,0.9810,95.04,9.75,95.04,85.29,False,RIGHT,0.206,0,0,STUCK,False,False,True,0,True,STUCK_DETECTED,0.00,0
1764635140.7539082,63.373,108,TEST2_OBSTACLE_BYPASS,True,570.2,3319.2,3367.8,9.75,0.929,0.0,560.0,-342.3,-32.41,-34.17,-32.41,147.38,88.21,0.0117,10.0,15.134,0.0091,3.2773,3.2773,0.16,0.9799,-3.3600,3.5000,163.74,83,200.0,94.0,0.9890,-0.0827,0.9924,94.78,9.75,94.78,85.03,False,RIGHT,0.208,0,0,STUCK,False,False,True,0,True,STUCK_DETECTED,0.00,0
1764635140.7949684,63.414,109,TEST2_OBSTACLE_BYPASS,True,570.2,3319.2,3367.8,9.75,0.929,0.0,560.0,-342.3,-32.59,-35.54,-32.59,146.20,88.28,0.0064,10.0,15.376,0.0091,3.2773,3.2773,0.16,0.9106,-3.3795,3.5000,164.92,92,200.0,94.0,0.9196,-0.1022,0.9253,96.34,9.75,96.34,86.59,False,RIGHT,0.194,0,0,STUCK,False,False,True,0,True,STUCK_DETECTED,0.00,0
1764635140.833597,63.453,110,TEST2_OBSTACLE_BYPASS,True,570.2,3319.2,3367.8,9.75,0.929,0.0,560.0,-342.3,-32.88,-36.92,-32.88,144.77,88.20,-0.0043,10.0,15.614,0.0091,3.2773,3.2773,0.16,0.9872,-3.3579,3.5000,163.62,84,200.0,94.0,0.9962,-0.0806,0.9995,94.62,9.75,94.62,84.88,False,RIGHT,0.210,0,0,STUCK,False,False,True,0,True,STUCK_DETECTED,0.00,0
1764635140.8755457,63.495,111,TEST2_OBSTACLE_BYPASS,True,570.2,3319.2,3367.8,9.75,0.929,0.0,560.0,-342.3,-33.21,-36.56,-33.21,145.19,88.23,-0.0149,10.0,15.848,0.0091,3.2773,3.2773,0.16,0.8940,-3.3839,3.5000,165.20,89,200.0,94.0,0.9031,-0.1066,0.9094,96.73,9.75,96.73,86.98,False,RIGHT,0.191,0,0,STUCK,False,False,True,0,True,STUCK_DETECTED,0.00,0
1764635140.9136288,63.533,112,TEST2_OBSTACLE_BYPASS,True,570.2,3319.2,3367.8,9.75,0.929,0.0,560.0,-342.3,-33.55,-33.98,-33.55,147.81,88.21,0.0011,10.0,16.077,0.0091,3.2773,3.2773,0.16,0.9683,-3.3634,3.5000,163.94,86,200.0,94.0,0.9774,-0.0861,0.9811,95.03,9.75,95.03,85.29,False,RIGHT,0.206,0,0,STUCK,False,False,True,0,True,STUCK_DETECTED,0.00,0
1764635140.956526,63.576,113,TEST2_OBSTACLE_BYPASS,True,570.2,3319.2,3367.8,9.75,0.929,0.0,560.0,-342.3,-34.02,-34.91,-34.02,146.91,88.23,0.0170,10.0,16.303,0.0091,3.2773,3.2773,0.16,0.8979,-3.3829,3.5000,165.14,91,200.0,94.0,0.9069,-0.1056,0.9131,96.64,9.75,96.64,86.89,False,RIGHT,0.192,0,0,STUCK,False,False,True,0,True,STUCK_DETECTED,0.00,0
1764635140.990957,63.610,114,TEST2_OBSTACLE_BYPASS,False,0.0,0.0,0.0,0.00,0.000,0.0,560.0,-342.3,-34.46,-36.89,-34.46,144.82,88.12,0.0170,10.0,16.524,0.0091,3.2773,3.2773,0.16,0.9508,-3.3684,3.5000,164.24,89,200.0,94.0,0.9599,-0.0911,0.9642,95.42,0.00,95.42,0.00,False,NONE,0.000,0,0,STUCK,False,False,True,0,True,STUCK_DETECTED,0.00,0
1764635141.0379517,63.657,115,TEST2_OBSTACLE_BYPASS,False,0.0,0.0,0.0,0.00,0.000,0.0,560.0,-342.3,-34.83,-37.08,-34.83,144.61,88.10,0.0011,10.0,16.741,0.0091,3.2773,3.2773,0.16,0.9087,-3.3800,3.5000,164.95,88,200.0,94.0,0.9177,-0.1027,0.9234,96.38,0.00,96.38,0.00,False,NONE,0.000,0,0,STUCK,False,False,True,0,True,STUCK_DETECTED,0.00,0
1764635141.0753353,63.695,116,TEST2_OBSTACLE_BYPASS,False,0.0,0.0,0.0,0.00,0.000,0.0,560.0,-342.3,-35.29,-36.11,-35.29,145.73,88.25,-0.0117,10.0,16.949,0.0091,3.2773,3.2773,0.16,0.9485,-3.3690,3.5000,164.28,86,200.0,94.0,0.9576,-0.0917,0.9620,95.47,0.00,95.47,0.00,False,NONE,0.000,0,0,STUCK,False,False,True,0,True,STUCK_DETECTED,0.00,0
1764635141.1187177,63.738,117,TEST2_OBSTACLE_BYPASS,False,0.0,0.0,0.0,0.00,0.000,0.0,560.0,-342.3,-35.84,-36.22,-35.84,145.62,88.26,-0.0021,10.0,17.148,0.0091,3.2773,3.2773,0.16,0.8463,-3.3961,3.5000,166.01,89,200.0,94.0,0.8553,-0.1188,0.8635,97.91,0.00,97.91,0.00,False,NONE,0.000,0,0,STUCK,False,False,True,0,True,STUCK_DETECTED,0.00,0
1764635141.1588416,63.778,118,TEST2_OBSTACLE_BYPASS,False,0.0,0.0,0.0,0.00,0.000,0.0,560.0,-342.3,-36.07,-36.47,-36.07,145.36,88.25,-0.0032,10.0,17.341,0.0091,3.2773,3.2773,0.16,0.8963,-3.3833,3.5000,165.16,87,200.0,94.0,0.9053,-0.1060,0.9115,96.68,0.00,96.68,0.00,False,NONE,0.000,0,0,STUCK,False,False,True,0,True,STUCK_DETECTED,0.00,0
1764635141.1982925,63.818,119,TEST2_OBSTACLE_BYPASS,False,0.0,0.0,0.0,0.00,0.000,0.0,560.0,-342.3,-36.22,-37.11,-36.22,144.73,88.26,-0.0032,10.0,17.530,0.0091,3.2773,3.2773,0.16,0.9269,-3.3750,3.5000,164.64,90,200.0,94.0,0.9359,-0.0977,0.9410,95.96,0.00,95.96,0.00,False,NONE,0.000,0,0,STUCK,False,False,True,0,True,STUCK_DETECTED,0.00,0
1764635141.2400966,63.859,120,TEST2_OBSTACLE_BYPASS,False,0.0,0.0,0.0,0.00,0.000,0.0,560.0,-342.3,-36.22,-36.90,-36.22,144.92,88.27,-0.0021,10.0,17.715,0.0091,3.2773,3.2773,0.16,0.9066,-3.3806,3.5000,164.99,89,200.0,94.0,0.9156,-0.1032,0.9214,96.43,0.00,96.43,0.00,False,NONE,0.000,0,0,STUCK,False,False,True,0,True,STUCK_DETECTED,0.00,0
1764635141.2792008,63.899,121,TEST2_OBSTACLE_BYPASS,False,0.0,0.0,0.0,0.00,0.000,0.0,560.0,-342.3,-36.21,-36.45,-36.21,145.37,88.27,-0.0064,10.0,17.898,0.0091,3.2773,3.2773,0.16,0.8519,-3.3947,3.5000,165.91,89,200.0,94.0,0.8610,-0.1174,0.8689,97.77,0.00,97.77,0.00,False,RIGHT,0.182,0,0,STUCK,False,False,True,0,True,STUCK_DETECTED,0.00,0
1764635141.318866,63.938,122,TEST2_OBSTACLE_BYPASS,False,0.0,0.0,0.0,0.00,0.000,0.0,560.0,-342.3,-36.44,-36.31,-36.44,145.50,88.27,0.0032,10.0,18.075,0.0091,3.2773,3.2773,0.16,0.9628,-3.3650,3.5000,164.03,88,200.0,94.0,0.9719,-0.0876,0.9758,95.15,0.00,95.15,0.00,False,RIGHT,0.205,0,0,STUCK,False,False,True,0,True,STUCK_DETECTED,0.00,0
1764635141.3633134,63.983,123,TEST2_OBSTACLE_BYPASS,True,1008.2,2500.0,2695.6,21.96,0.719,0.0,560.0,-342.3,-36.66,-37.02,-36.66,144.79,88.28,0.0096,10.0,18.245,0.6495,4.1196,4.1705,8.96,0.8887,-3.3853,3.5000,165.29,88,200.0,94.0,1.5383,0.7343,1.7045,64.48,21.96,64.48,42.52,False,FORWARDS_RIGHT,0.511,0,0,STUCK,False,False,True,0,True,STUCK_DETECTED,0.00,0
1764635141.401615,64.021,124,TEST2_OBSTACLE_BYPASS,True,1057.1,2479.7,2695.6,23.09,0.719,0.0,563.3,-344.7,-36.69,-37.22,-36.69,144.60,88.29,-0.0032,10.0,18.407,0.7208,4.1227,4.1852,9.92,0.8928,-3.3842,3.5000,165.22,88,200.0,94.0,1.6136,0.7385,1.7745,65.41,23.09,65.41,42.32,False,FORWARDS_RIGHT,0.532,0,0,STUCK,False,False,True,0,True,STUCK_DETECTED,0.00,0
1764635141.4440556,64.063,125,TEST2_OBSTACLE_BYPASS,True,1057.1,2479.7,2695.6,23.09,0.719,0.0,567.2,-347.6,-36.69,-37.08,-36.69,144.73,88.29,0.0021,10.0,18.557,0.7140,4.1206,4.1820,9.83,0.8928,-3.3842,3.5000,165.22,88,200.0,94.0,1.6069,0.7364,1.7676,65.38,23.09,65.38,42.29,False,FORWARDS_RIGHT,0.530,0,0,STUCK,False,False,True,0,True,STUCK_DETECTED,0.00,0
1764635141.4830663,64.102,126,TEST2_OBSTACLE_BYPASS,True,1057.1,2479.7,2695.6,23.09,0.719,0.0,570.6,-350.2,-36.77,-36.95,-36.77,144.87,88.29,0.0021,10.0,18.697,0.7081,4.1188,4.1792,9.75,0.9623,-3.3651,3.5000,164.04,92,200.0,94.0,1.6704,0.7537,1.8325,65.72,23.09,65.72,42.63,False,FORWARDS_RIGHT,0.550,0,0,STUCK,False,False,True,0,True,STUCK_DETECTED,0.00,0
1764635141.5209355,64.140,127,TEST2_OBSTACLE_BYPASS,True,1057.1,2479.7,2695.6,23.09,0.719,0.0,574.1,-352.8,-36.85,-37.00,-36.85,144.80,88.30,-0.0011,10.0,18.827,0.7020,4.1169,4.1763,9.68,0.9457,-3.3698,3.5000,164.32,91,200.0,94.0,1.6476,0.7470,1.8091,65.61,23.09,65.61,42.52,False,FORWARDS_RIGHT,0.543,0,0,STUCK,False,False,True,0,True,STUCK_DETECTED,0.00,0
1764635141.5638409,64.183,128,TEST2_OBSTACLE_BYPASS,True,1057.1,2479.7,2695.6,23.09,0.719,0.0,578.0,-355.7,-36.92,-37.21,-36.92,144.61,88.31,0.0075,10.0,18.952,0.6953,4.1147,4.1731,9.59,0.9165,-3.3779,3.5000,164.82,88,200.0,94.0,1.6118,0.7369,1.7723,65.43,23.09,65.43,42.34,False,FORWARDS_RIGHT,0.532,0,0,STUCK,False,False,True,0,True,STUCK_DETECTED,0.00,0
1764635141.603551,64.223,129,TEST2_OBSTACLE_BYPASS,True,1057.1,2479.7,2695.6,23.09,0.719,0.0,581.4,-358.3,-36.94,-37.26,-36.94,144.54,88.31,-0.0011,10.0,19.069,0.6895,4.1129,4.1702,9.52,0.8704,-3.3901,3.5000,165.60,95,200.0,94.0,1.5598,0.7228,1.7191,65.14,23.09,65.14,42.05,False,FORWARDS_RIGHT,0.516,0,0,STUCK,False,False,True,0,True,STUCK_DETECTED,0.00,0
1764635141.6440456,64.263,130,TEST2_OBSTACLE_BYPASS,True,1105.6,2458.4,2695.6,24.21,0.719,0.0,585.0,-361.0,-36.95,-36.98,-36.95,144.80,88.31,-0.0021,10.0,19.181,0.7600,4.1159,4.1854,10.46,0.9661,-3.3640,3.5000,163.98,92,200.0,94.0,1.7261,0.7518,1.8827,66.46,24.21,66.46,42.25,False,FORWARDS_RIGHT,0.565,0,0,STUCK,False,False,True,0,True,STUCK_DETECTED,0.00,0
1764635141.6786437,64.298,131,TEST2_OBSTACLE_BYPASS,False,0.0,0.0,0.0,0.00,0.000,0.0,588.6,-363.7,-37.03,-37.27,-37.03,144.54,88.31,0.0181,10.0,19.287,0.7536,4.1140,4.1825,10.38,0.9450,-3.3700,3.5000,164.34,98,200.0,94.0,1.6987,0.7440,1.8545,66.35,0.00,66.35,0.00,False,NONE,0.000,0,0,STUCK,False,False,True,0,True,STUCK_DETECTED,0.00,0
1764635141.7224522,64.342,132,TEST2_OBSTACLE_BYPASS,False,0.0,0.0,0.0,0.00,0.000,0.0,592.7,-366.8,-37.16,-37.58,-37.16,144.54,88.36,0.0298,10.0,19.385,0.7464,4.1119,4.1791,10.29,0.9680,-3.3635,3.5000,163.94,95,200.0,94.0,1.7145,0.7484,1.8707,66.42,0.00,66.42,0.00,False,NONE,0.000,0,0,STUCK,False,False,True,0,True,STUCK_DETECTED,0.00,0
1764635141.7600577,64.379,133,TEST2_OBSTACLE_BYPASS,False,0.0,0.0,0.0,0.00,0.000,0.0,596.3,-369.5,-37.19,-37.40,-37.19,144.95,88.05,0.0660,10.0,19.476,0.7402,4.1100,4.1761,10.21,1.2760,-3.2591,3.5000,158.62,107,200.0,127.0,2.0162,0.8509,2.1884,67.12,0.00,67.12,0.00,False,NONE,0.000,0,0,STUCK,False,False,True,0,True,STUCK_DETECTED,0.00,0
1764635141.8063827,64.426,134,TEST2_OBSTACLE_BYPASS,False,0.0,0.0,0.0,0.00,0.000,0.0,600.2,-372.5,-37.17,-37.03,-37.17,145.71,87.82,0.0224,10.0,19.565,0.7333,4.1079,4.1729,10.12,1.2760,-3.2591,3.5000,158.62,107,200.0,127.0,2.0092,0.8488,2.1812,67.10,0.00,67.10,0.00,False,NONE,0.000,0,0,RECOVERING,True,False,True,0,True,STUCK_DETECTED,0.00,0
1764635141.8397405,64.459,135,TEST2_OBSTACLE_BYPASS,False,0.0,0.0,0.0,0.00,0.000,0.0,603.9,-375.3,-37.13,-36.65,-37.13,146.49,87.87,-0.0160,10.0,19.658,0.7269,4.1060,4.1698,10.04,1.3593,-3.2253,3.5000,157.15,91,200.0,127.0,2.0861,0.8807,2.2644,67.11,0.00,67.11,0.00,False,NONE,0.000,0,0,RECOVERING,False,False,True,0,True,STUCK_DETECTED,0.00,0
1764635141.8904786,64.510,136,TEST2_OBSTACLE_BYPASS,True,1071.7,1760.3,2060.9,31.33,0.853,0.0,608.0,-378.4,-36.93,-34.97,-36.93,148.38,87.92,-0.1097,10.0,19.764,1.1618,5.3590,5.4835,12.23,1.3593,-3.2253,3.5000,157.15,91,200.0,127.0,2.5211,2.1337,3.3029,49.76,31.33,49.76,18.42,False,FORWARDS_RIGHT,0.991,0,0,RECOVERING,False,False,True,0,True,STUCK_DETECTED,0.00,1
1764635141.9275167,64.547,137,TEST2_OBSTACLE_BYPASS,True,1071.7,1760.3,2060.9,31.33,0.853,0.0,614.8,-383.4,-36.26,-30.27,-36.26,153.44,88.12,-0.0522,10.0,19.882,1.1411,5.3546,5.4749,12.03,1.5352,-3.1454,3.5000,153.98,79,200.0,107.0,2.6763,2.2093,3.4704,50.46,31.33,50.46,19.13,False,FORWARDS_RIGHT,1.000,0,0,RECOVERING,False,False,True,0,True,STUCK_DETECTED,0.00,1
1764635141.969066,64.588,138,TEST2_OBSTACLE_BYPASS,True,1049.8,1447.8,1788.4,35.95,0.863,0.0,621.9,-388.4,-35.34,-28.01,-35.34,156.34,88.33,0.0565,10.0,20.007,1.2701,5.4496,5.5956,13.12,1.7033,-3.0576,3.5000,150.88,77,200.0,108.0,2.9734,2.3920,3.8161,51.18,35.95,51.18,15.24,False,FORWARDS_RIGHT,1.000,0,0,RECOVERING,False,False,True,0,True,STUCK_DETECTED,0.00,3
1764635142.0093071,64.629,139,TEST2_OBSTACLE_BYPASS,True,1049.8,1447.8,1788.4,35.95,0.863,0.0,628.5,-393.0,-34.88,-32.65,-34.88,152.23,88.15,0.1001,10.0,20.127,1.2507,5.4650,5.6063,12.89,1.9625,-2.8980,3.5000,145.90,75,200.0,108.0,3.2132,2.5669,4.1126,51.38,35.95,51.38,15.43,False,FORWARDS_RIGHT,1.000,0,0,RECOVERING,False,False,True,0,True,STUCK_DETECTED,0.00,2
1764635142.05088,64.670,140,TEST2_OBSTACLE_BYPASS,True,1065.8,1419.3,1774.9,36.91,0.904,0.0,635.9,-398.2,-35.06,-38.82,-35.06,146.92,88.02,0.0586,10.0,20.232,1.2738,5.3842,5.5328,13.31,1.9293,-2.9202,3.5000,146.55,73,200.0,133.0,3.2031,2.4639,4.0411,52.43,36.91,52.43,15.52,False,FORWARDS_RIGHT,1.000,0,0,RECOVERING,False,False,True,0,True,STUCK_DETECTED,0.00,2
1764635142.0865493,64.706,141,TEST2_OBSTACLE_BYPASS,True,1065.8,1419.3,1774.9,36.91,0.904,0.0,642.5,-402.9,-35.44,-41.01,-35.44,145.29,88.05,-0.0107,10.0,20.322,1.2545,5.3999,5.5437,13.08,2.0665,-2.8248,3.5000,143.81,66,200.0,133.0,3.3210,2.5751,4.2024,52.21,36.91,52.21,15.30,False,FORWARDS_RIGHT,1.000,0,0,RECOVERING,False,False,True,0,True,STUCK_DETECTED,0.00,2
1764635142.132423,64.752,142,TEST2_OBSTACLE_BYPASS,True,1065.8,1419.3,1774.9,36.91,0.904,0.0,649.8,-408.1,-35.57,-38.90,-35.57,147.61,88.16,-0.0660,10.0,20.399,1.2333,5.4172,5.5559,12.83,2.0181,-2.8596,3.5000,144.79,77,200.0,134.0,3.2514,2.5577,4.1368,51.81,36.91,51.81,14.90,False,FORWARDS_RIGHT,1.000,0,0,RECOVERING,False,False,True,0,True,STUCK_DETECTED,0.00,1
1764635142.170322,64.790,143,TEST2_OBSTACLE_BYPASS,True,1065.8,1419.3,1774.9,36.91,0.904,0.0,656.3,-412.8,-35.44,-36.07,-35.44,150.34,88.12,-0.0543,10.0,20.468,1.2143,5.4327,5.5668,12.60,2.2395,-2.6897,3.5000,140.22,75,200.0,134.0,3.4538,2.7430,4.4106,51.54,36.91,51.54,14.64,False,FORWARDS_RIGHT,1.000,0,0,RECOVERING,False,False,True,0,True,STUCK_DETECTED,0.00,1
1764635142.2140362,64.833,144,TEST2_OBSTACLE_BYPASS,True,1065.8,1419.3,1774.9,36.91,0.904,0.0,663.7,-417.9,-35.14,-34.00,-35.14,152.74,88.19,0.0064,10.0,20.532,1.1930,5.4499,5.5790,12.35,2.1024,-2.7982,3.5000,143.08,82,200.0,134.0,3.2954,2.6517,4.2298,51.18,36.91,51.18,14.27,False,FORWARDS_RIGHT,1.000,0,0,RECOVERING,False,False,True,0,True,STUCK_DETECTED,0.00,1
1764635142.2546325,64.874,145,TEST2_OBSTACLE_BYPASS,True,1093.5,1398.1,1774.9,38.03,0.904,0.0,670.7,-422.9,-34.89,-34.23,-34.89,153.20,88.11,0.0479,10.0,20.588,1.2527,5.3954,5.5389,13.07,2.4339,-2.5151,3.5000,135.94,76,200.0,134.0,3.6867,2.8803,4.6784,52.00,38.03,52.00,13.97,False,FORWARDS_RIGHT,1.000,0,0,RECOVERING,False,False,True,0,True,STUCK_DETECTED,0.00,0
1764635142.2906802,64.910,146,TEST2_OBSTACLE_BYPASS,True,1093.5,1398.1,1774.9,38.03,0.904,0.0,677.1,-427.3,-34.69,-32.95,-34.69,155.13,87.89,0.0298,10.0,20.626,1.2342,5.4101,5.5491,12.85,2.4339,-2.5151,3.5000,135.94,76,200.0,134.0,3.6681,2.8949,4.6729,51.72,38.03,51.72,13.69,False,FORWARDS_RIGHT,1.000,0,0,RECOVERING,False,False,True,0,True,STUCK_DETECTED,0.00,0
1764635142.329779,64.949,147,TEST2_OBSTACLE_BYPASS,True,1093.5,1398.1,1774.9,38.03,0.904,0.0,684.2,-432.2,-34.78,-31.18,-34.78,157.50,87.71,0.0000,10.0,20.643,1.2135,5.4265,5.5605,12.61,2.5501,-2.3973,3.5000,133.23,80,200.0,134.0,3.7636,3.0292,4.8312,51.17,38.03,51.17,13.14,False,FORWARDS_RIGHT,1.000,0,0,RECOVERING,False,False,True,0,True,STUCK_DETECTED,0.00,0
1764635142.3682618,64.988,148,TEST2_OBSTACLE_BYPASS,False,0.0,0.0,0.0,0.00,0.000,0.0,691.0,-436.9,-34.93,-29.49,-34.93,159.55,87.41,-0.0021,10.0,20.647,1.1938,5.4422,5.5716,12.37,1.9750,-2.8895,3.5000,145.65,83,200.0,134.0,3.1688,2.5527,4.0691,51.15,0.00,51.15,0.00,False,NONE,0.000,0,0,RECOVERING,False,False,True,0,True,STUCK_DETECTED,0.00,0
1764635142.4104552,65.030,149,TEST2_OBSTACLE_BYPASS,False,0.0,0.0,0.0,0.00,0.000,0.0,698.3,-441.9,-34.48,-28.14,-34.48,161.21,87.19,0.0021,10.0,20.653,1.1726,5.4589,5.5835,12.12,2.1253,-2.7809,3.5000,142.61,79,200.0,135.0,3.2979,2.6781,4.2483,50.92,0.00,50.92,0.00,False,NONE,0.000,0,0,RECOVERING,False,False,True,0,True,STUCK_DETECTED,0.00,0
1764635142.4473724,65.067,150,TEST2_OBSTACLE_BYPASS,False,0.0,0.0,0.0,0.00,0.000,0.0,704.8,-446.3,-33.56,-29.64,-33.56,160.30,87.28,0.0128,10.0,20.670,1.1535,5.4734,5.5936,11.90,2.0748,-2.8188,3.5000,143.64,91,200.0,134.0,3.2283,2.6547,4.1796,50.57,0.00,50.57,0.00,False,NONE,0.000,0,0,RECOVERING,False,False,True,0,True,STUCK_DETECTED,0.00,0
1764635142.4888368,65.108,151,TEST2_OBSTACLE_BYPASS,False,0.0,0.0,0.0,0.00,0.000,0.0,712.2,-451.1,-32.87,-34.13,-32.87,157.09,87.80,-0.0032,10.0,20.695,1.1319,5.4893,5.6048,11.65,2.2627,-2.6702,3.5000,139.72,74,200.0,134.0,3.3946,2.8191,4.4126,50.29,0.00,50.29,0.00,False,NONE,0.000,0,0,RECOVERING,False,False,True,0,True,STUCK_DETECTED,0.00,0
1764635142.5274916,65.147,152,TEST2_OBSTACLE_BYPASS,False,0.0,0.0,0.0,0.00,0.000,0.0,718.9,-455.4,-32.92,-39.34,-32.92,153.07,88.16,0.0629,10.0,20.717,1.1125,5.5037,5.6150,11.43,2.0787,-2.8159,3.5000,143.57,93,200.0,135.0,3.1912,2.6879,4.1723,49.89,0.00,49.89,0.00,False,NONE,0.000,0,0,RECOVERING,False,False,True,0,True,STUCK_DETECTED,0.00,0
1764635142.5700548,65.189,153,TEST2_OBSTACLE_BYPASS,False,0.0,0.0,0.0,0.00,0.000,0.0,726.6,-460.5,-33.85,-45.43,-33.85,148.09,87.95,0.1364,10.0,20.725,1.0900,5.5210,5.6276,11.17,2.1825,-2.7362,3.5000,141.42,74,200.0,135.0,3.2725,2.7848,4.2971,49.60,0.00,49.60,0.00,False,NONE,0.000,0,0,RECOVERING,False,False,True,0,True,STUCK_DETECTED,0.00,0
1764635142.60595,65.225,154,TEST2_OBSTACLE_BYPASS,False,0.0,0.0,0.0,0.00,0.000,0.0,732.7,-464.9,-35.50,-50.47,-35.50,144.91,87.79,0.1065,10.0,20.709,1.0721,5.5357,5.6386,10.96,2.1917,-2.7289,3.5000,141.23,79,200.0,137.0,3.2637,2.8069,4.3047,49.30,0.00,49.30,0.00,False,NONE,0.000,0,0,RECOVERING,False,False,True,0,True,STUCK_DETECTED,0.00,0
1764635142.65314,65.272,155,TEST2_OBSTACLE_BYPASS,True,998.9,1304.3,1642.8,37.45,0.924,0.0,739.8,-470.3,-37.14,-50.65,-37.14,146.92,87.38,0.0884,10.0,20.671,0.7615,5.2155,5.2708,8.31,2.2461,-2.6843,3.5000,140.08,68,200.0,137.0,3.0075,2.5313,3.9310,49.91,37.45,49.91,12.47,False,FORWARDS_RIGHT,1.000,0,0,RECOVERING,False,False,True,0,True,STUCK_DETECTED,0.00,0
1764635142.6978443,65.317,156,TEST2_OBSTACLE_BYPASS,True,1024.3,1284.4,1642.8,38.57,0.924,0.0,747.3,-476.4,-38.82,-49.78,-38.82,150.82,86.83,0.0799,10.0,20.623,0.8130,5.1686,5.2322,8.94,2.2462,-2.6842,3.5000,140.08,68,200.0,137.0,3.0591,2.4845,3.9409,50.92,38.57,50.92,12.35,False,FORWARDS_RIGHT,1.000,0,0,RECOVERING,False,False,True,0,True,STUCK_DETECTED,0.00,0
1764635142.7371504,65.356,157,TEST2_OBSTACLE_BYPASS,True,935.0,1249.7,1560.7,36.80,0.998,0.0,753.6,-481.7,-40.82,-51.14,-40.82,151.72,86.48,0.1502,10.0,20.575,0.5300,5.0578,5.0855,5.98,2.3599,-2.5848,3.5000,137.60,86,200.0,137.0,2.8898,2.4730,3.8035,49.44,36.80,49.44,12.64,False,FORWARDS_RIGHT,1.000,0,0,RECOVERING,False,False,True,0,True,STUCK_DETECTED,0.00,1
1764635142.7809255,65.400,158,TEST2_OBSTACLE_BYPASS,True,935.0,1249.7,1560.7,36.80,0.998,0.0,760.1,-487.9,-43.17,-52.95,-43.17,153.39,86.22,0.0746,10.0,20.525,0.5112,5.0789,5.1046,5.75,2.2272,-2.6999,3.5000,140.48,91,200.0,137.0,2.7385,2.3790,3.6275,49.02,36.80,49.02,12.21,False,FORWARDS_RIGHT,1.000,0,0,RECOVERING,False,False,True,0,True,STUCK_DETECTED,0.00,0
1764635142.8171682,65.436,159,TEST2_OBSTACLE_BYPASS,True,935.0,1249.7,1560.7,36.80,0.998,0.0,765.7,-493.7,-45.75,-53.96,-45.75,155.16,86.11,0.0575,10.0,20.468,0.4950,5.0991,5.1231,5.54,2.4006,-2.5470,3.5000,136.70,63,250.0,132.0,2.8956,2.5521,3.8597,48.61,36.80,48.61,11.80,False,FORWARDS_RIGHT,1.000,0,0,RECOVERING,False,False,True,0,True,STUCK_DETECTED,0.00,0
1764635142.8646295,65.484,160,TEST2_OBSTACLE_BYPASS,True,935.0,1249.7,1560.7,36.80,0.998,0.0,772.3,-501.0,-48.30,-55.14,-48.30,157.31,85.85,0.0043,10.0,20.394,0.4762,5.1247,5.1468,5.31,2.3843,-2.5623,3.5000,137.06,78,250.0,137.0,2.8604,2.5624,3.8403,48.15,36.80,48.15,11.34,False,FORWARDS_RIGHT,1.000,0,0,RECOVERING,False,False,True,0,True,STUCK_DETECTED,0.00,0
1764635142.9072192,65.527,161,TEST2_OBSTACLE_BYPASS,True,959.3,1231.1,1560.7,37.93,0.998,0.0,777.5,-507.3,-50.43,-55.49,-50.43,159.83,85.79,0.0160,10.0,20.303,0.5316,5.0824,5.1101,5.97,2.3843,-2.5623,3.5000,137.06,78,250.0,137.0,2.9159,2.5201,3.8540,49.16,37.93,49.16,11.24,False,FORWARDS_RIGHT,1.000,0,0,RECOVERING,False,False,True,0,True,STUCK_DETECTED,0.00,0
1764635142.9463558,65.566,162,TEST2_OBSTACLE_BYPASS,True,959.3,1231.1,1560.7,37.93,0.998,0.0,782.9,-514.2,-52.00,-55.01,-52.00,163.94,85.62,0.0032,10.0,20.203,0.5163,5.1063,5.1323,5.77,2.3190,-2.6215,3.5000,138.50,84,250.0,137.0,2.8353,2.4848,3.7701,48.77,37.93,48.77,10.84,False,FORWARDS_RIGHT,1.000,0,0,RECOVERING,False,False,True,0,True,STUCK_DETECTED,0.00,0
1764635142.9858253,65.605,163,TEST2_OBSTACLE_BYPASS,True,959.3,1231.1,1560.7,37.93,0.998,0.0,787.7,-520.6,-52.98,-55.22,-52.98,166.84,85.62,-0.0128,10.0,20.104,0.5024,5.1287,5.1533,5.60,2.3617,-2.5830,3.5000,137.56,62,250.0,125.0,2.8642,2.5457,3.8320,48.37,37.93,48.37,10.44,False,FORWARDS_RIGHT,1.000,0,0,RECOVERING,False,False,True,0,True,STUCK_DETECTED,0.00,0
1764635143.0263987,65.646,164,TEST2_OBSTACLE_BYPASS,True,959.3,1231.1,1560.7,37.93,0.998,0.0,793.2,-528.0,-53.44,-55.09,-53.44,169.70,85.68,0.0043,10.0,20.017,0.4868,5.1543,5.1773,5.40,2.3401,-2.6026,3.5000,138.04,60,250.0,132.0,2.8270,2.5517,3.8083,47.93,37.93,47.93,10.00,False,FORWARDS_RIGHT,1.000,0,0,RECOVERING,False,False,True,0,True,STUCK_DETECTED,0.00,0
1764635143.0645607,65.684,165,TEST2_OBSTACLE_BYPASS,False,0.0,0.0,0.0,0.00,0.000,0.0,798.0,-534.6,-53.88,-55.06,-53.88,171.44,85.60,0.0298,10.0,19.939,0.4730,5.1774,5.1989,5.22,2.3964,-2.5509,3.5000,136.79,71,250.0,125.0,2.8695,2.6265,3.8900,47.53,0.00,47.53,0.00,False,NONE,0.000,0,0,RECOVERING,False,False,True,0,True,STUCK_DETECTED,0.00,0
1764635143.1055486,65.725,166,TEST2_OBSTACLE_BYPASS,False,0.0,0.0,0.0,0.00,0.000,0.0,803.1,-541.7,-54.49,-55.86,-54.49,171.69,85.91,-0.0266,10.0,19.857,0.4584,5.2023,5.2224,5.04,2.3419,-2.6010,3.5000,138.00,61,250.0,125.0,2.8004,2.6012,3.8221,47.11,0.00,47.11,0.00,False,NONE,0.000,0,0,RECOVERING,False,False,True,0,True,STUCK_DETECTED,0.00,0
1764635143.1471364,65.766,167,TEST2_OBSTACLE_BYPASS,False,0.0,0.0,0.0,0.00,0.000,0.0,808.0,-548.7,-54.66,-52.79,-54.66,172.34,86.05,-0.2024,10.0,19.762,0.4443,5.2265,5.2454,4.86,2.3419,-2.6010,3.5000,138.00,61,250.0,125.0,2.7862,2.6255,3.8284,46.70,0.00,46.70,0.00,False,NONE,0.000,0,0,RECOVERING,False,False,True,0,True,STUCK_DETECTED,0.00,0
