timestamp,elapsed_time,log_number,test_mode,person_detected,person_x_mm,person_y_mm,person_distance_mm,person_angle_deg,person_confidence,time_since_person_update_ms,robot_x_mm,robot_y_mm,robot_orientation_deg,imu_yaw_raw,imu_yaw_smoothed,imu_roll,imu_pitch,imu_angular_vel_z,imu_update_rate,imu_drift_estimate,attr_force_x,attr_force_y,attr_force_magnitude,attr_force_direction_deg,repul_force_x,repul_force_y,repul_force_magnitude,repul_force_direction_deg,num_obstacles_in_range,closest_obstacle_dist_mm,closest_obstacle_angle_deg,total_force_x,total_force_y,total_force_magnitude,total_force_direction_deg,expected_direction_to_person_deg,force_direction_deg,direction_error_deg,direction_mismatch_flag,commanded_direction,commanded_speed,motor_1_speed,motor_2_speed,nav_state,nav_state_changed,goal_reached,stuck_detected,time_in_current_state_s,anomaly_detected,anomaly_type,calculation_time_ms,obstacles_filtered_for_person
1764572035.8547087,74.402,1,TEST2_OBSTACLE_BYPASS,True,-177.7,2741.0,2746.7,356.29,0.785,0.0,1334.4,229.5,-172.27,-172.14,-172.27,163.42,87.62,-0.0149,10.0,0.000,-2.1113,3.5068,4.0934,-31.05,4.3995,5.5878,7.1119,38.21,0,850.0,113.0,1.9519,7.7582,8.0000,14.12,-3.71,14.12,17.83,False,FORWARDS,1.000,0,0,NAVIGATING,True,False,False,0,False,,0.00,0
1764572035.891811,74.439,2,TEST2_OBSTACLE_BYPASS,True,-177.7,2741.0,2746.7,356.29,0.785,0.0,1323.1,227.9,-172.26,-172.14,-172.26,163.42,87.62,-0.0032,10.0,0.000,-2.1020,3.5197,4.0996,-30.85,4.3995,5.5878,7.1119,38.21,0,850.0,113.0,1.9568,7.7570,8.0000,14.16,-3.71,14.16,17.87,False,FORWARDS,1.000,0,0,NAVIGATING,False,False,False,0,False,,0.00,0
1764572035.934972,74.482,3,TEST2_OBSTACLE_BYPASS,True,-177.7,2741.0,2746.7,356.29,0.785,0.0,1310.8,226.2,-172.24,-172.14,-172.24,163.42,87.62,0.0011,10.0,0.000,-2.0917,3.5338,4.1064,-30.62,4.5292,5.7424,7.3136,38.26,0,850.0,113.0,2.0332,7.7373,8.0000,14.72,-3.71,14.72,18.43,False,FORWARDS,1.000,0,0,NAVIGATING,False,False,False,0,False,,0.00,0
1764572035.9712029,74.518,4,TEST2_OBSTACLE_BYPASS,True,-177.7,2741.0,2746.7,356.29,0.785,0.0,1299.8,224.7,-172.23,-172.14,-172.23,163.42,87.62,0.0000,10.0,0.000,-2.0824,3.5463,4.1125,-30.42,4.5292,5.7424,7.3136,38.26,0,850.0,113.0,2.0379,7.7361,8.0000,14.76,-3.71,14.76,18.47,False,FORWARDS,1.000,0,0,NAVIGATING,False,False,False,0,False,,0.00,0
1764572036.014281,74.561,5,TEST2_OBSTACLE_BYPASS,True,-177.7,2741.0,2746.7,356.29,0.785,0.0,1287.0,223.0,-172.21,-172.14,-172.21,163.42,87.62,-0.0075,10.0,0.000,-2.0713,3.5608,4.1194,-30.19,4.5431,5.7210,7.3055,38.45,0,850.0,113.0,2.0587,7.7306,8.0000,14.91,-3.71,14.91,18.62,False,FORWARDS,1.000,0,0,NAVIGATING,False,False,False,0,False,,0.00,0
1764572036.0496354,74.597,6,TEST2_OBSTACLE_BYPASS,True,-177.7,2741.0,2746.7,356.29,0.785,0.0,1276.0,221.5,-172.20,-172.15,-172.20,163.47,87.74,-0.0128,10.0,0.000,-2.0617,3.5733,4.1254,-29.98,4.5431,5.7210,7.3055,38.45,0,850.0,113.0,2.0635,7.7293,8.0000,14.95,-3.71,14.95,18.66,False,FORWARDS,1.000,0,0,NAVIGATING,False,False,False,0,False,,0.00,0
1764572036.0929043,74.640,7,TEST2_OBSTACLE_BYPASS,False,0.0,0.0,0.0,0.00,0.000,0.0,1263.1,219.7,-172.18,-172.15,-172.18,163.47,87.74,0.0000,10.0,0.000,-2.0504,3.5878,4.1323,-29.75,4.5550,5.7028,7.2986,38.62,0,850.0,113.0,2.0824,7.7242,8.0000,15.09,0.00,15.09,0.00,False,FORWARDS,1.000,0,0,SEARCHING,True,False,False,0,False,,0.00,0
1764572036.130527,74.678,8,TEST2_OBSTACLE_BYPASS,False,0.0,0.0,0.0,0.00,0.000,0.0,1251.8,218.2,-172.17,-172.15,-172.17,163.47,87.74,0.0053,10.0,0.000,-2.0402,3.6005,4.1384,-29.54,4.5550,5.7028,7.2986,38.62,0,850.0,113.0,2.0876,7.7228,8.0000,15.13,0.00,15.13,0.00,False,FORWARDS,1.000,0,0,SEARCHING,False,False,False,0,False,,0.00,0
1764572036.1742291,74.721,9,TEST2_OBSTACLE_BYPASS,False,0.0,0.0,0.0,0.00,0.000,0.0,1239.3,216.4,-172.15,-172.15,-172.15,163.47,87.74,-0.0117,10.0,0.000,-2.0288,3.6146,4.1450,-29.30,4.6820,5.8638,7.5037,38.61,0,850.0,113.0,2.1565,7.7039,8.0000,15.64,0.00,15.64,0.00,False,FORWARDS,1.000,0,0,SEARCHING,False,False,False,0,False,,0.00,0
1764572036.2119167,74.759,10,TEST2_OBSTACLE_BYPASS,False,0.0,0.0,0.0,0.00,0.000,0.0,1228.2,214.9,-172.14,-172.15,-172.14,163.47,87.74,0.0011,10.0,0.000,-2.0186,3.6270,4.1509,-29.10,4.6820,5.8638,7.5037,38.61,0,850.0,113.0,2.1615,7.7025,8.0000,15.68,0.00,15.68,0.00,False,FORWARDS,1.000,0,0,SEARCHING,False,False,False,0,False,,0.00,0
1764572036.254414,74.802,11,TEST2_OBSTACLE_BYPASS,False,0.0,0.0,0.0,0.00,0.000,0.0,1215.5,213.2,-172.13,-172.05,-172.13,163.52,87.69,-0.0011,10.0,0.000,-2.0068,3.6411,4.1575,-28.86,4.0982,6.8705,8.0000,30.82,0,850.0,113.0,1.5611,7.8462,8.0000,11.25,0.00,11.25,0.00,False,FORWARDS,1.000,0,0,SEARCHING,False,False,False,0,False,,0.00,0
1764572036.2946854,74.842,12,TEST2_OBSTACLE_BYPASS,False,0.0,0.0,0.0,0.00,0.000,0.0,1203.3,211.5,-172.08,-171.64,-172.08,163.79,87.61,0.0032,10.0,0.090,-1.9953,3.6546,4.1638,-28.63,4.0982,6.8705,8.0000,30.82,0,850.0,113.0,1.5674,7.8449,8.0000,11.30,0.00,11.30,0.00,False,FORWARDS,1.000,0,0,SEARCHING,False,False,False,0,False,,0.00,0
1764572036.334904,74.882,13,TEST2_OBSTACLE_BYPASS,False,0.0,0.0,0.0,0.00,0.000,0.0,1191.6,209.8,-172.03,-171.63,-172.03,163.72,87.61,0.0394,10.0,0.102,-1.9841,3.6676,4.1698,-28.41,1.5228,7.8537,8.0000,10.97,0,850.0,113.0,-0.3201,7.9936,8.0000,-2.29,0.00,-2.29,0.00,False,FORWARDS,1.000,0,0,SEARCHING,False,False,False,0,False,,0.00,0
1764572036.3797903,74.927,14,TEST2_OBSTACLE_BYPASS,True,-151.4,2751.4,2755.6,356.85,0.709,0.0,1179.0,208.1,-172.21,-173.89,-172.21,161.43,87.38,0.0937,10.0,0.099,-1.9378,3.7046,4.1808,-27.61,1.5228,7.8537,8.0000,10.97,0,850.0,113.0,-0.2871,7.9948,8.0000,-2.06,-3.15,-2.06,1.09,False,FORWARDS,1.000,0,0,NAVIGATING,True,False,False,0,False,,0.00,0
1764572036.4250243,74.972,15,TEST2_OBSTACLE_BYPASS,True,-151.4,2751.4,2755.6,356.85,0.709,0.0,1165.1,206.3,-172.76,-177.68,-172.76,157.58,86.97,0.1033,10.0,0.057,-1.9240,3.7197,4.1879,-27.35,-1.4693,7.8639,8.0000,-10.58,0,850.0,113.0,-2.2490,7.6774,8.0000,-16.33,-3.15,-16.33,-13.18,False,FORWARDS,1.000,0,0,NAVIGATING,False,False,False,0,False,,0.00,0
1764572036.472921,75.020,16,TEST2_OBSTACLE_BYPASS,True,-151.4,2751.4,2755.6,356.85,0.709,0.0,1155.7,197.7,-137.56,179.91,-137.56,155.09,86.89,0.0405,10.0,2.367,-1.9059,3.7236,4.1830,-27.10,-1.4693,7.8639,8.0000,-10.58,0,850.0,113.0,-2.2372,7.6808,8.0000,-16.24,-3.15,-16.24,-13.09,False,FORWARDS,1.000,0,0,NAVIGATING,False,False,False,0,False,,0.00,0
1764572036.507932,75.055,17,TEST2_OBSTACLE_BYPASS,True,-166.0,2742.6,2747.7,356.54,0.732,0.0,1147.0,190.0,-138.32,-179.74,-138.32,155.37,86.86,-0.0565,10.0,4.342,-1.9122,3.7174,4.1804,-27.22,-5.7500,5.5621,8.0000,-45.95,0,850.0,113.0,-5.0937,6.1688,8.0000,-39.55,-3.46,-39.55,-36.08,False,FORWARDS_LEFT,1.000,0,0,NAVIGATING,False,False,False,0,False,,0.00,0
1764572036.5550025,75.102,18,TEST2_OBSTACLE_BYPASS,True,-166.0,2742.6,2747.7,356.54,0.732,0.0,1139.6,183.6,-138.86,-177.56,-138.86,157.68,87.08,-0.1076,10.0,6.052,-1.8983,3.7207,4.1770,-27.03,-7.1788,3.5305,8.0000,-63.81,0,850.0,86.0,-6.2505,4.9931,8.0000,-51.38,-3.46,-51.38,-47.92,False,FORWARDS_LEFT,1.000,0,0,NAVIGATING,False,False,False,0,False,,0.00,0
1764572036.5923936,75.140,19,TEST2_OBSTACLE_BYPASS,True,-166.0,2742.6,2747.7,356.54,0.732,0.0,1133.7,178.5,-139.15,-175.11,-139.15,160.36,87.34,-0.1033,10.0,7.555,-1.8873,3.7232,4.1742,-26.88,-7.1788,3.5305,8.0000,-63.81,0,850.0,86.0,-6.2467,4.9979,8.0000,-51.34,-3.46,-51.34,-47.87,False,FORWARDS_LEFT,1.000,0,0,NAVIGATING,False,False,False,0,False,,0.00,0
1764572036.6338549,75.181,20,TEST2_OBSTACLE_BYPASS,True,-166.0,2742.6,2747.7,356.54,0.732,0.0,1127.0,172.6,-138.92,-169.79,-138.92,166.20,87.25,-0.0330,10.0,8.913,-1.8746,3.7261,4.1710,-26.71,-7.4709,2.8611,8.0000,-69.05,0,850.0,86.0,-6.5389,4.6089,8.0000,-54.82,-3.46,-54.82,-51.36,False,FORWARDS_LEFT,1.000,0,0,NAVIGATING,False,False,False,0,False,,0.00,0
1764572036.6703722,75.218,21,TEST2_OBSTACLE_BYPASS,True,-166.0,2742.6,2747.7,356.54,0.732,0.0,1120.8,167.2,-138.68,-169.71,-138.68,166.66,87.36,0.0107,10.0,10.147,-1.8630,3.7285,4.1680,-26.55,-7.4709,2.8611,8.0000,-69.05,0,850.0,86.0,-6.5354,4.6139,8.0000,-54.78,-3.46,-54.78,-51.31,False,FORWARDS_LEFT,1.000,0,0,NAVIGATING,False,False,False,0,False,,0.00,0
1764572036.715605,75.263,22,TEST2_OBSTACLE_BYPASS,True,-166.0,2742.6,2747.7,356.54,0.732,0.0,1114.1,161.3,-138.47,-169.50,-138.47,166.96,87.37,-0.0128,10.0,11.273,-1.8503,3.7311,4.1647,-26.38,-7.7277,2.0694,8.0000,-75.01,0,850.0,86.0,-6.8430,4.1441,8.0000,-58.80,-3.46,-58.80,-55.34,False,FORWARDS_LEFT,1.000,0,0,STUCK,True,False,True,0,True,STUCK_DETECTED,0.00,0
1764572036.75574,75.303,23,TEST2_OBSTACLE_BYPASS,True,-166.0,2742.6,2747.7,356.54,0.732,0.0,1107.8,155.6,-138.06,-167.53,-138.06,168.74,86.76,0.0639,10.0,12.316,-1.8383,3.7333,4.1614,-26.22,-7.7277,2.0694,8.0000,-75.01,0,850.0,86.0,-6.8400,4.1491,8.0000,-58.76,-3.46,-58.76,-55.30,False,FORWARDS_LEFT,1.000,0,0,STUCK,False,False,True,0,True,STUCK_DETECTED,0.00,0
1764572036.7950552,75.342,24,TEST2_OBSTACLE_BYPASS,True,-166.0,2742.6,2747.7,356.54,0.732,0.0,1101.2,149.5,-137.39,-167.19,-137.39,168.83,85.86,0.0469,10.0,13.297,-1.8255,3.7355,4.1577,-26.04,-7.7709,1.9009,8.0000,-76.25,0,800.0,86.0,-6.8982,4.0516,8.0000,-59.57,-3.46,-59.57,-56.11,False,FORWARDS_LEFT,1.000,0,0,STUCK,False,False,True,0,True,STUCK_DETECTED,0.00,0
1764572036.8392313,75.386,25,TEST2_OBSTACLE_BYPASS,False,0.0,0.0,0.0,0.00,0.000,0.0,1094.8,143.4,-136.35,-167.28,-136.35,168.39,85.43,0.0320,10.0,14.240,-1.8129,3.7373,4.1538,-25.88,-7.7709,1.9009,8.0000,-76.25,0,800.0,86.0,-6.8953,4.0565,8.0000,-59.53,0.00,-59.53,0.00,False,FORWARDS_LEFT,1.000,0,0,STUCK,False,False,True,0,True,STUCK_DETECTED,0.00,0
1764572036.8762574,75.423,26,TEST2_OBSTACLE_BYPASS,False,0.0,0.0,0.0,0.00,0.000,0.0,1087.0,142.2,-171.03,-166.90,-171.03,168.36,85.34,-0.0490,10.0,13.720,-1.8045,3.7451,4.1571,-25.73,-7.8299,1.6410,8.0000,-78.16,3,750.0,86.0,-6.9829,3.9038,8.0000,-60.79,0.00,-60.79,0.00,False,FORWARDS_LEFT,1.000,0,0,STUCK,False,False,True,0,True,STUCK_DETECTED,0.00,0
1764572036.9188802,75.466,27,TEST2_OBSTACLE_BYPASS,False,0.0,0.0,0.0,0.00,0.000,0.0,1078.3,140.6,-169.60,-165.47,-169.60,169.41,85.64,-0.0639,10.0,13.294,-1.7949,3.7534,4.1605,-25.56,-7.8299,1.6410,8.0000,-78.16,3,750.0,86.0,-6.9786,3.9113,8.0000,-60.73,0.00,-60.73,0.00,False,FORWARDS_LEFT,1.000,0,0,STUCK,False,False,True,0,True,STUCK_DETECTED,0.00,0
1764572036.9557383,75.503,28,TEST2_OBSTACLE_BYPASS,False,0.0,0.0,0.0,0.00,0.000,0.0,1070.8,139.0,-168.37,-165.21,-168.37,169.48,85.95,0.0511,10.0,12.947,-1.7863,3.7604,4.1631,-25.41,-7.8716,1.4277,8.0000,-79.72,26,750.0,86.0,-7.0475,3.7859,8.0000,-61.76,0.00,-61.76,0.00,False,FORWARDS_LEFT,1.000,0,0,STUCK,False,False,True,0,True,STUCK_DETECTED,0.00,0
1764572036.999051,75.546,29,TEST2_OBSTACLE_BYPASS,True,-200.9,2686.3,2693.8,355.72,0.958,0.0,1062.1,137.1,-167.62,-167.65,-167.62,166.69,85.32,0.1214,10.0,12.650,-1.8726,3.7797,4.2181,-26.36,-7.8716,1.4277,8.0000,-79.72,26,750.0,86.0,-7.0557,3.7706,8.0000,-61.88,-4.28,-61.88,-57.60,False,FORWARDS_LEFT,1.000,0,0,STUCK,False,False,True,0,True,STUCK_DETECTED,0.00,0
1764572037.038659,75.586,30,TEST2_OBSTACLE_BYPASS,True,-200.9,2686.3,2693.8,355.72,0.958,0.0,1053.8,135.3,-167.57,-169.27,-167.57,164.46,84.95,0.1055,10.0,12.376,-1.8630,3.7877,4.2211,-26.19,-7.8935,1.3009,8.0000,-80.64,52,700.0,86.0,-7.0932,3.6995,8.0000,-62.46,-4.28,-62.46,-58.18,False,FORWARDS_LEFT,1.000,0,0,STUCK,False,False,True,0,True,STUCK_DETECTED,0.00,0
1764572037.0889566,75.636,31,TEST2_OBSTACLE_BYPASS,True,-200.9,2686.3,2693.8,355.72,0.958,0.0,1044.8,133.3,-167.58,-169.81,-167.58,162.84,84.64,-0.0128,10.0,12.120,-1.8524,3.7965,4.2244,-26.01,-7.8935,1.3009,8.0000,-80.64,52,700.0,86.0,-7.0889,3.7077,8.0000,-62.39,-4.28,-62.39,-58.11,False,FORWARDS_LEFT,1.000,0,0,STUCK,False,False,True,0,True,STUCK_DETECTED,0.00,0
1764572037.1228113,75.670,32,TEST2_OBSTACLE_BYPASS,True,-200.9,2686.3,2693.8,355.72,0.958,0.0,1037.1,131.6,-167.58,-169.51,-167.58,162.51,84.65,-0.0565,10.0,11.880,-1.8434,3.8040,4.2271,-25.85,-7.9103,1.1946,8.0000,-81.41,58,650.0,96.0,-7.1195,3.6486,8.0000,-62.87,-4.28,-62.87,-58.59,False,FORWARDS_LEFT,1.000,0,0,STUCK,False,False,True,0,True,STUCK_DETECTED,0.00,0
1764572037.1788201,75.726,33,TEST2_OBSTACLE_BYPASS,True,-200.9,2686.3,2693.8,355.72,0.958,0.0,1025.6,129.1,-167.61,-167.75,-167.61,162.95,84.92,-0.0948,10.0,11.655,-1.8298,3.8150,4.2311,-25.62,-7.9290,1.0632,8.0000,-82.36,70,650.0,96.0,-7.1558,3.5770,8.0000,-63.44,-4.28,-63.44,-59.16,False,FORWARDS_LEFT,1.000,0,0,STUCK,False,False,True,0,True,STUCK_DETECTED,0.00,0
1764572037.2163007,75.763,34,TEST2_OBSTACLE_BYPASS,True,-200.9,2686.3,2693.8,355.72,0.958,0.0,1017.7,127.3,-167.55,-166.68,-167.55,163.60,85.04,-0.0522,10.0,11.444,-1.8204,3.8226,4.2339,-25.46,-7.9290,1.0632,8.0000,-82.36,70,650.0,96.0,-7.1522,3.5842,8.0000,-63.38,-4.28,-63.38,-59.11,False,FORWARDS_LEFT,1.000,0,0,STUCK,False,False,True,0,True,STUCK_DETECTED,0.00,0
1764572037.2524219,75.800,35,TEST2_OBSTACLE_BYPASS,True,-200.9,2686.3,2693.8,355.72,0.958,0.0,1010.1,125.6,-167.39,-165.64,-167.39,164.37,85.08,-0.0288,10.0,11.251,-1.8112,3.8298,4.2365,-25.31,-7.9422,0.9597,8.0000,-83.11,95,600.0,97.0,-7.1809,3.5263,8.0000,-63.85,-4.28,-63.85,-59.57,False,FORWARDS_LEFT,1.000,0,0,STUCK,False,False,True,0,True,STUCK_DETECTED,0.00,0
1764572037.2963157,75.843,36,TEST2_OBSTACLE_BYPASS,True,-200.9,2686.3,2693.8,355.72,0.958,0.0,1001.5,123.7,-167.24,-165.38,-167.24,164.46,85.06,0.0032,10.0,11.074,-1.8007,3.8379,4.2393,-25.14,-7.9422,0.9597,8.0000,-83.11,95,600.0,97.0,-7.1770,3.5341,8.0000,-63.78,-4.28,-63.78,-59.51,False,FORWARDS_LEFT,1.000,0,0,STUCK,False,False,True,0,True,STUCK_DETECTED,0.00,0
1764572037.331652,75.879,37,TEST2_OBSTACLE_BYPASS,False,0.0,0.0,0.0,0.00,0.000,0.0,993.6,121.9,-167.25,-165.60,-167.25,163.88,85.04,0.0149,10.0,10.906,-1.7911,3.8452,4.2419,-24.98,-7.9601,0.7984,8.0000,-84.27,92,550.0,96.0,-7.2228,3.4396,8.0000,-64.54,0.00,-64.54,0.00,False,FORWARDS_LEFT,1.000,0,0,STUCK,False,False,True,0,True,STUCK_DETECTED,0.00,0
1764572037.373826,75.921,38,TEST2_OBSTACLE_BYPASS,False,0.0,0.0,0.0,0.00,0.000,0.0,985.0,120.0,-167.28,-165.48,-167.28,163.45,84.95,-0.0053,10.0,10.746,-1.7806,3.8532,4.2447,-24.80,-7.9601,0.7984,8.0000,-84.27,92,550.0,96.0,-7.2191,3.4474,8.0000,-64.47,0.00,-64.47,0.00,False,FORWARDS_LEFT,1.000,0,0,STUCK,False,False,True,0,True,STUCK_DETECTED,0.00,0
1764572037.4183478,75.965,39,TEST2_OBSTACLE_BYPASS,False,0.0,0.0,0.0,0.00,0.000,0.0,976.7,118.1,-167.02,-165.08,-167.02,163.31,84.93,-0.0064,10.0,10.601,-1.7703,3.8608,4.2473,-24.63,-7.9702,0.6898,8.0000,-85.05,80,550.0,96.0,-7.2480,3.3862,8.0000,-64.96,0.00,-64.96,0.00,False,FORWARDS_LEFT,1.000,0,0,STUCK,False,False,True,0,True,STUCK_DETECTED,0.00,0
1764572037.4569478,76.004,40,TEST2_OBSTACLE_BYPASS,False,0.0,0.0,0.0,0.00,0.000,0.0,968.0,116.0,-166.53,-164.40,-166.53,163.20,84.83,-0.0352,10.0,10.476,-1.7593,3.8687,4.2499,-24.45,-7.9702,0.6898,8.0000,-85.05,80,550.0,96.0,-7.2443,3.3941,8.0000,-64.90,0.00,-64.90,0.00,False,FORWARDS_LEFT,1.000,0,0,STUCK,False,False,True,0,True,STUCK_DETECTED,0.00,0
1764572037.4966354,76.044,41,TEST2_OBSTACLE_BYPASS,False,0.0,0.0,0.0,0.00,0.000,0.0,959.9,113.9,-165.90,-163.52,-165.90,163.52,84.96,-0.0234,10.0,10.374,-1.7490,3.8758,4.2521,-24.29,-7.9809,0.5521,8.0000,-86.04,105,500.0,96.0,-7.2815,3.3136,8.0000,-65.53,0.00,-65.53,0.00,False,FORWARDS_LEFT,1.000,0,0,STUCK,False,False,True,0,True,STUCK_DETECTED,0.00,0
1764572037.5340853,76.081,42,TEST2_OBSTACLE_BYPASS,False,0.0,0.0,0.0,0.00,0.000,0.0,952.1,111.9,-165.31,-163.54,-165.31,162.88,84.82,0.0511,10.0,10.291,-1.7389,3.8825,4.2541,-24.13,-7.9809,0.5521,8.0000,-86.04,105,500.0,96.0,-7.2783,3.3207,8.0000,-65.48,0.00,-65.48,0.00,False,FORWARDS_LEFT,1.000,0,0,STUCK,False,False,True,0,True,STUCK_DETECTED,0.00,0
1764572037.5800998,76.127,43,TEST2_OBSTACLE_BYPASS,False,0.0,0.0,0.0,0.00,0.000,0.0,943.3,109.5,-164.96,-164.31,-164.96,161.54,84.70,0.0383,10.0,10.219,-1.7273,3.8900,4.2563,-23.94,-7.9917,0.3639,8.0000,-87.39,129,450.0,96.0,-7.3288,3.2077,8.0000,-66.36,0.00,-66.36,0.00,False,FORWARDS_LEFT,1.000,0,0,STUCK,False,False,True,0,True,STUCK_DETECTED,0.00,0
1764572037.6163244,76.163,44,TEST2_OBSTACLE_BYPASS,False,0.0,0.0,0.0,0.00,0.000,0.0,935.5,107.4,-164.77,-164.70,-164.77,160.54,84.68,-0.0181,10.0,10.156,-1.7171,3.8965,4.2581,-23.78,-7.9917,0.3639,8.0000,-87.39,129,450.0,96.0,-7.3257,3.2147,8.0000,-66.31,0.00,-66.31,0.00,False,FORWARDS_LEFT,1.000,0,0,STUCK,False,False,True,0,True,STUCK_DETECTED,0.00,0
1764572037.6563008,76.203,45,TEST2_OBSTACLE_BYPASS,False,0.0,0.0,0.0,0.00,0.000,0.0,927.2,105.1,-164.62,-164.22,-164.62,160.43,84.77,-0.0522,10.0,10.099,-1.7060,3.9035,4.2600,-23.61,-7.9972,0.2132,8.0000,-88.47,111,400.0,96.0,-7.3646,3.1245,8.0000,-67.01,0.00,-67.01,0.00,False,FORWARDS_LEFT,1.000,0,0,STUCK,False,False,True,0,True,STUCK_DETECTED,0.00,0
1764572037.698756,76.246,46,TEST2_OBSTACLE_BYPASS,False,0.0,0.0,0.0,0.00,0.000,0.0,919.1,102.8,-164.36,-162.71,-164.36,161.49,84.86,-0.0447,10.0,10.051,-1.6951,3.9101,4.2617,-23.44,-7.9972,0.2132,8.0000,-88.47,111,400.0,96.0,-7.3615,3.1317,8.0000,-66.95,0.00,-66.95,0.00,False,FORWARDS_LEFT,1.000,0,0,STUCK,False,False,True,0,True,STUCK_DETECTED,0.00,0
1764572037.7408648,76.288,47,TEST2_OBSTACLE_BYPASS,False,0.0,0.0,0.0,0.00,0.000,0.0,910.6,100.4,-164.23,-164.34,-164.23,159.48,85.08,0.0863,10.0,10.007,-1.6836,3.9170,4.2635,-23.26,-7.9971,-0.2159,8.0000,-91.55,99,400.0,96.0,-7.4725,2.8568,8.0000,-69.08,0.00,-69.08,0.00,False,LEFT,0.700,0,0,STUCK,False,False,True,0,True,STUCK_DETECTED,0.00,0
1764572037.7788734,76.326,48,TEST2_OBSTACLE_BYPASS,False,0.0,0.0,0.0,0.00,0.000,0.0,910.6,100.4,-164.61,-169.25,-164.61,154.08,85.50,0.0373,10.0,9.957,-1.6836,3.9170,4.2635,-23.26,-7.9971,-0.2159,8.0000,-91.55,99,400.0,96.0,-7.4725,2.8568,8.0000,-69.08,0.00,-69.08,0.00,False,LEFT,0.700,0,0,STUCK,False,False,True,0,True,STUCK_DETECTED,0.00,0
1764572037.8256426,76.373,49,TEST2_OBSTACLE_BYPASS,False,0.0,0.0,0.0,0.00,0.000,0.0,910.6,100.4,-165.20,-170.99,-165.20,151.46,85.95,-0.1161,10.0,9.897,-1.6836,3.9170,4.2635,-23.26,-7.9928,-0.3382,8.0000,-92.42,145,350.0,97.0,-7.5033,2.7750,8.0000,-69.70,0.00,-69.70,0.00,False,LEFT,0.700,0,0,STUCK,False,False,True,0,True,STUCK_DETECTED,0.00,0
1764572037.865193,76.412,50,TEST2_OBSTACLE_BYPASS,False,0.0,0.0,0.0,0.00,0.000,0.0,910.6,100.4,-165.52,-167.59,-165.52,154.26,86.18,-0.1907,10.0,9.833,-1.6836,3.9170,4.2635,-23.26,-7.9928,-0.3382,8.0000,-92.42,145,350.0,97.0,-7.5033,2.7750,8.0000,-69.70,0.00,-69.70,0.00,False,LEFT,0.700,0,0,STUCK,False,False,True,0,True,STUCK_DETECTED,0.00,0
1764572037.9224262,76.470,51,TEST2_OBSTACLE_BYPASS,False,0.0,0.0,0.0,0.00,0.000,0.0,910.6,100.4,-165.08,-159.16,-165.08,161.91,86.34,-0.1076,10.0,9.780,-1.6836,3.9170,4.2635,-23.26,-7.9839,-0.5073,8.0000,-93.64,151,300.0,96.0,-7.5445,2.6609,8.0000,-70.57,0.00,-70.57,0.00,False,LEFT,0.700,0,0,STUCK,False,False,True,0,True,STUCK_DETECTED,0.00,0
1764572037.9553294,76.502,52,TEST2_OBSTACLE_BYPASS,False,0.0,0.0,0.0,0.00,0.000,0.0,910.6,100.4,-164.51,-157.81,-164.51,163.01,86.32,0.0234,10.0,9.740,-1.6836,3.9170,4.2635,-23.26,-7.8901,-1.3216,8.0000,-99.51,128,300.0,96.0,-7.7213,2.0932,8.0000,-74.83,0.00,-74.83,0.00,False,LEFT,0.700,0,0,STUCK,False,False,True,0,True,STUCK_DETECTED,0.00,0
1764572037.9973164,76.544,53,TEST2_OBSTACLE_BYPASS,False,0.0,0.0,0.0,0.00,0.000,0.0,910.6,100.4,-164.09,-160.13,-164.09,160.43,86.23,0.1023,10.0,9.710,-1.6836,3.9170,4.2635,-23.26,-7.8901,-1.3216,8.0000,-99.51,128,300.0,96.0,-7.7213,2.0932,8.0000,-74.83,0.00,-74.83,0.00,False,LEFT,0.700,0,0,STUCK,False,False,True,0,True,STUCK_DETECTED,0.00,0
1764572038.0392556,76.586,54,TEST2_OBSTACLE_BYPASS,False,0.0,0.0,0.0,0.00,0.000,0.0,910.6,100.4,-163.90,-162.81,-163.90,157.34,86.21,0.0415,10.0,9.685,-1.6836,3.9170,4.2635,-23.26,-7.8244,-1.6669,8.0000,-102.03,160,250.0,96.0,-7.7850,1.8423,8.0000,-76.69,0.00,-76.69,0.00,False,LEFT,0.700,0,0,STUCK,False,False,True,0,True,STUCK_DETECTED,0.00,0
1764572038.0757742,76.623,55,TEST2_OBSTACLE_BYPASS,False,0.0,0.0,0.0,0.00,0.000,0.0,910.6,100.4,-163.76,-162.79,-163.76,156.96,86.26,-0.0224,10.0,9.663,-1.6836,3.9170,4.2635,-23.26,-7.8244,-1.6669,8.0000,-102.03,160,250.0,96.0,-7.7850,1.8423,8.0000,-76.69,0.00,-76.69,0.00,False,LEFT,0.700,0,0,STUCK,False,False,True,0,True,STUCK_DETECTED,0.00,0
1764572038.119077,76.666,56,TEST2_OBSTACLE_BYPASS,False,0.0,0.0,0.0,0.00,0.000,0.0,910.6,100.4,-163.43,-159.41,-163.43,159.41,85.91,-0.0533,10.0,9.649,-1.6836,3.9170,4.2635,-23.26,-7.7785,-1.8695,8.0000,-103.51,161,250.0,96.0,-7.8190,1.6920,8.0000,-77.79,0.00,-77.79,0.00,False,LEFT,0.700,0,0,STUCK,False,False,True,0,True,STUCK_DETECTED,0.00,0
1764572038.1552603,76.702,57,TEST2_OBSTACLE_BYPASS,False,0.0,0.0,0.0,0.00,0.000,0.0,910.6,100.4,-162.88,-158.83,-162.88,159.54,86.02,-0.0170,10.0,9.644,-1.6836,3.9170,4.2635,-23.26,-7.7785,-1.8695,8.0000,-103.51,161,250.0,96.0,-7.8190,1.6920,8.0000,-77.79,0.00,-77.79,0.00,False,LEFT,0.700,0,0,STUCK,False,False,True,0,True,STUCK_DETECTED,0.00,0
1764572038.1989965,76.746,58,TEST2_OBSTACLE_BYPASS,False,0.0,0.0,0.0,0.00,0.000,0.0,910.6,100.4,-161.98,-160.31,-161.98,157.76,86.25,0.0277,10.0,9.655,-1.6836,3.9170,4.2635,-23.26,-7.7790,-1.8675,8.0000,-103.50,164,200.0,96.0,-7.8187,1.6934,8.0000,-77.78,0.00,-77.78,0.00,False,LEFT,0.700,0,0,STUCK,False,False,True,0,True,STUCK_DETECTED,0.00,0
1764572038.2368505,76.784,59,TEST2_OBSTACLE_BYPASS,False,0.0,0.0,0.0,0.00,0.000,0.0,910.6,100.4,-161.06,-161.74,-161.06,155.98,86.36,-0.0053,10.0,9.682,-1.6836,3.9170,4.2635,-23.26,-7.7790,-1.8675,8.0000,-103.50,164,200.0,96.0,-7.8187,1.6934,8.0000,-77.78,0.00,-77.78,0.00,False,LEFT,0.700,0,0,STUCK,False,False,True,0,True,STUCK_DETECTED,0.00,0
1764572038.2807286,76.828,60,TEST2_OBSTACLE_BYPASS,False,0.0,0.0,0.0,0.00,0.000,0.0,910.6,100.4,-160.28,-159.82,-160.28,157.17,86.33,-0.0660,10.0,9.721,-1.6836,3.9170,4.2635,-23.26,-7.6210,-2.4332,8.0000,-107.71,132,200.0,98.0,-7.9002,1.2598,8.0000,-80.94,0.00,-80.94,0.00,False,LEFT,0.700,0,0,STUCK,False,False,True,0,True,STUCK_DETECTED,0.00,0
1764572038.32381,76.871,61,TEST2_OBSTACLE_BYPASS,False,0.0,0.0,0.0,0.00,0.000,0.0,910.6,100.4,-160.36,-159.93,-160.36,156.41,86.61,0.0096,10.0,9.758,-1.6836,3.9170,4.2635,-23.26,-7.6210,-2.4332,8.0000,-107.71,132,200.0,98.0,-7.9002,1.2598,8.0000,-80.94,0.00,-80.94,0.00,False,LEFT,0.700,0,0,STUCK,False,False,True,0,True,STUCK_DETECTED,0.00,0
1764572038.3613222,76.908,62,TEST2_OBSTACLE_BYPASS,False,0.0,0.0,0.0,0.00,0.000,0.0,910.6,100.4,-160.79,-162.13,-160.79,153.61,86.63,0.0788,10.0,9.786,-1.6836,3.9170,4.2635,-23.26,-7.5803,-2.5573,8.0000,-108.64,133,200.0,116.0,-7.9152,1.1618,8.0000,-81.65,0.00,-81.65,0.00,False,LEFT,0.700,0,0,STUCK,False,False,True,0,True,STUCK_DETECTED,0.00,0
1764572038.4047625,76.952,63,TEST2_OBSTACLE_BYPASS,False,0.0,0.0,0.0,0.00,0.000,0.0,910.6,100.4,-161.07,-162.94,-161.07,152.35,86.53,0.0426,10.0,9.809,-1.6836,3.9170,4.2635,-23.26,-7.5803,-2.5573,8.0000,-108.64,133,200.0,116.0,-7.9152,1.1618,8.0000,-81.65,0.00,-81.65,0.00,False,LEFT,0.700,0,0,STUCK,False,False,True,0,True,STUCK_DETECTED,0.00,0
1764572038.4410832,76.988,64,TEST2_OBSTACLE_BYPASS,False,0.0,0.0,0.0,0.00,0.000,0.0,910.6,100.4,-160.99,-162.04,-160.99,152.72,86.34,0.0053,10.0,9.832,-1.6836,3.9170,4.2635,-23.26,-7.5521,-2.6392,8.0000,-109.26,115,200.0,116.0,-7.9245,1.0964,8.0000,-82.12,0.00,-82.12,0.00,False,LEFT,0.700,0,0,STUCK,False,False,True,0,True,STUCK_DETECTED,0.00,0
1764572038.4833827,77.031,65,TEST2_OBSTACLE_BYPASS,False,0.0,0.0,0.0,0.00,0.000,0.0,910.6,100.4,-160.72,-160.06,-160.72,154.13,86.26,-0.0021,10.0,9.859,-1.6836,3.9170,4.2635,-23.26,-7.5521,-2.6392,8.0000,-109.26,115,200.0,116.0,-7.9245,1.0964,8.0000,-82.12,0.00,-82.12,0.00,False,LEFT,0.700,0,0,STUCK,False,False,True,0,True,STUCK_DETECTED,0.00,0
1764572038.5350158,77.082,66,TEST2_OBSTACLE_BYPASS,True,-249.1,5643.0,5648.5,357.47,0.950,0.0,910.6,100.4,-160.59,-158.11,-160.59,155.31,85.99,0.0000,10.0,9.887,0.0000,0.0000,0.0000,0.00,-7.4573,-2.8964,8.0000,-111.23,114,200.0,116.0,-7.4573,-2.8964,8.0000,-111.23,-2.53,-111.23,-108.70,True,LEFT,0.700,0,0,STUCK,False,False,True,0,True,FORCE_AWAY_FROM_PERSON|STUCK_DETECTED,0.00,0
1764572038.5764174,77.124,67,TEST2_OBSTACLE_BYPASS,True,-249.1,5643.0,5648.5,357.47,0.950,0.0,910.6,100.4,-160.44,-157.28,-160.44,155.38,85.77,0.0405,10.0,9.917,0.0000,0.0000,0.0000,0.00,-7.4573,-2.8964,8.0000,-111.23,114,200.0,116.0,-7.4573,-2.8964,8.0000,-111.23,-2.53,-111.23,-108.70,True,LEFT,0.700,0,0,STUCK,False,False,True,0,True,FORCE_AWAY_FROM_PERSON|STUCK_DETECTED,0.00,0
1764572038.609606,77.157,68,TEST2_OBSTACLE_BYPASS,True,-249.1,5643.0,5648.5,357.47,0.950,0.0,910.6,100.4,-160.21,-158.01,-160.21,153.89,85.85,0.0128,10.0,9.949,0.0000,0.0000,0.0000,0.00,-7.2958,-3.2820,8.0000,-114.22,120,200.0,135.0,-7.2958,-3.2820,8.0000,-114.22,-2.53,-114.22,-111.69,True,BACKWARDS_LEFT,0.500,0,0,STUCK,False,False,True,0,True,FORCE_AWAY_FROM_PERSON|STUCK_DETECTED,0.00,0
1764572038.6565666,77.204,69,TEST2_OBSTACLE_BYPASS,True,-249.1,5643.0,5648.5,357.47,0.950,0.0,915.0,102.1,-159.92,-158.86,-159.92,152.22,86.04,0.0011,10.0,9.984,0.0000,0.0000,0.0000,0.00,-6.9681,-3.9301,8.0000,-119.42,124,200.0,135.0,-6.9681,-3.9301,8.0000,-119.42,-2.53,-119.42,-116.90,True,BACKWARDS_LEFT,0.500,0,0,STUCK,False,False,True,0,True,FORCE_AWAY_FROM_PERSON|STUCK_DETECTED,0.00,0
1764572038.694192,77.241,70,TEST2_OBSTACLE_BYPASS,True,-249.1,5643.0,5648.5,357.47,0.950,0.0,919.0,103.5,-159.84,-159.00,-159.84,151.10,86.23,-0.0160,10.0,10.020,0.0000,0.0000,0.0000,0.00,-6.9803,-3.9084,8.0000,-119.25,124,200.0,135.0,-6.9803,-3.9084,8.0000,-119.25,-2.53,-119.25,-116.72,True,BACKWARDS_LEFT,0.500,0,0,STUCK,False,False,True,0,True,FORCE_AWAY_FROM_PERSON|STUCK_DETECTED,0.00,0
1764572038.7309365,77.278,71,TEST2_OBSTACLE_BYPASS,True,-249.1,5643.0,5648.5,357.47,0.950,0.0,922.7,104.9,-159.65,-158.11,-159.65,151.04,86.12,0.0011,10.0,10.057,0.0000,0.0000,0.0000,0.00,-6.6687,-4.4190,8.0000,-123.53,110,200.0,230.0,-6.6687,-4.4190,8.0000,-123.53,-2.53,-123.53,-121.00,True,BACKWARDS_LEFT,0.500,0,0,STUCK,False,False,True,0,True,FORCE_AWAY_FROM_PERSON|STUCK_DETECTED,0.00,0
1764572038.7771568,77.324,72,TEST2_OBSTACLE_BYPASS,True,-249.1,5643.0,5648.5,357.47,0.950,0.0,926.8,106.5,-159.11,-156.72,-159.11,150.99,85.94,0.0309,10.0,10.100,0.0000,0.0000,0.0000,0.00,-6.6376,-4.4657,8.0000,-123.93,110,200.0,230.0,-6.6376,-4.4657,8.0000,-123.93,-2.53,-123.93,-121.41,True,BACKWARDS_LEFT,0.500,0,0,STUCK,False,False,True,0,True,FORCE_AWAY_FROM_PERSON|STUCK_DETECTED,0.00,0
1764572038.8124294,77.360,73,TEST2_OBSTACLE_BYPASS,True,-249.1,5643.0,5648.5,357.47,0.950,0.0,930.5,107.9,-158.47,-156.54,-158.47,149.97,85.83,0.0234,10.0,10.152,0.0000,0.0000,0.0000,0.00,-6.3450,-4.8725,8.0000,-127.52,115,200.0,230.0,-6.3450,-4.8725,8.0000,-127.52,-2.53,-127.52,-124.99,True,BACKWARDS_LEFT,0.500,0,0,STUCK,False,False,True,0,True,FORCE_AWAY_FROM_PERSON|STUCK_DETECTED,0.00,0
1764572038.8511226,77.398,74,TEST2_OBSTACLE_BYPASS,False,0.0,0.0,0.0,0.00,0.000,0.0,934.6,109.6,-157.72,-154.53,-157.72,150.29,86.22,-0.0245,10.0,10.212,0.0000,0.0000,0.0000,0.00,-6.3450,-4.8725,8.0000,-127.52,115,200.0,230.0,-6.3450,-4.8725,8.0000,-127.52,0.00,-127.52,0.00,False,BACKWARDS_LEFT,0.500,0,0,STUCK,False,False,True,0,True,STUCK_DETECTED,0.00,0
1764572038.8954742,77.443,75,TEST2_OBSTACLE_BYPASS,False,0.0,0.0,0.0,0.00,0.000,0.0,938.4,111.2,-157.02,-153.09,-157.02,150.03,86.30,-0.0352,10.0,10.280,0.0000,0.0000,0.0000,0.00,-6.0846,-5.1940,8.0000,-130.48,107,200.0,230.0,-6.0846,-5.1940,8.0000,-130.48,0.00,-130.48,0.00,False,BACKWARDS_LEFT,0.500,0,0,STUCK,False,False,True,0,True,STUCK_DETECTED,0.00,0
1764572038.936978,77.484,76,TEST2_OBSTACLE_BYPASS,False,0.0,0.0,0.0,0.00,0.000,0.0,942.6,113.0,-156.44,-152.26,-156.44,149.17,86.35,0.0117,10.0,10.354,0.0000,0.0000,0.0000,0.00,-6.0862,-5.1922,8.0000,-130.47,107,200.0,230.0,-6.0862,-5.1922,8.0000,-130.47,0.00,-130.47,0.00,False,BACKWARDS_LEFT,0.500,0,0,STUCK,False,False,True,0,True,STUCK_DETECTED,0.00,0
1764572038.9725828,77.520,77,TEST2_OBSTACLE_BYPASS,False,0.0,0.0,0.0,0.00,0.000,0.0,946.3,114.7,-156.10,-153.88,-156.10,146.24,86.35,0.0415,10.0,10.431,0.0000,0.0000,0.0000,0.00,-5.8141,-5.4951,8.0000,-133.38,97,200.0,155.0,-5.8141,-5.4951,8.0000,-133.38,0.00,-133.38,0.00,False,BACKWARDS_LEFT,0.500,0,0,STUCK,False,False,True,0,True,STUCK_DETECTED,0.00,0
1764572039.0122948,77.559,78,TEST2_OBSTACLE_BYPASS,False,0.0,0.0,0.0,0.00,0.000,0.0,949.9,116.3,-155.90,-156.02,-155.90,143.09,86.45,0.0149,10.0,10.508,0.0000,0.0000,0.0000,0.00,-5.8055,-5.5042,8.0000,-133.47,97,200.0,155.0,-5.8055,-5.5042,8.0000,-133.47,0.00,-133.47,0.00,False,BACKWARDS_LEFT,0.500,0,0,STUCK,False,False,True,0,True,STUCK_DETECTED,0.00,0
1764572039.0554564,77.603,79,TEST2_OBSTACLE_BYPASS,False,0.0,0.0,0.0,0.00,0.000,0.0,954.1,118.2,-155.65,-156.34,-155.65,142.02,86.52,-0.0320,10.0,10.586,0.0000,0.0000,0.0000,0.00,-5.3660,-5.9335,8.0000,-137.88,85,200.0,155.0,-5.3660,-5.9335,8.0000,-137.88,0.00,-137.88,0.00,False,BACKWARDS_LEFT,0.500,0,0,STUCK,False,False,True,0,True,STUCK_DETECTED,0.00,0
1764572039.0910072,77.638,80,TEST2_OBSTACLE_BYPASS,False,0.0,0.0,0.0,0.00,0.000,0.0,957.6,119.8,-155.21,-154.62,-155.21,143.20,86.46,-0.0234,10.0,10.668,0.0000,0.0000,0.0000,0.00,-5.3641,-5.9352,8.0000,-137.89,85,200.0,155.0,-5.3641,-5.9352,8.0000,-137.89,0.00,-137.89,0.00,False,BACKWARDS_LEFT,0.500,0,0,STUCK,False,False,True,0,True,STUCK_DETECTED,0.00,0
1764572039.13517,77.682,81,TEST2_OBSTACLE_BYPASS,False,0.0,0.0,0.0,0.00,0.000,0.0,961.7,121.7,-154.72,-153.24,-154.72,144.17,86.49,-0.0160,10.0,10.754,0.0000,0.0000,0.0000,0.00,-5.0750,-6.1842,8.0000,-140.63,74,200.0,155.0,-5.0750,-6.1842,8.0000,-140.63,0.00,-140.63,0.00,False,BACKWARDS_LEFT,0.500,0,0,STUCK,False,False,True,0,True,STUCK_DETECTED,0.00,0
1764572039.1730025,77.720,82,TEST2_OBSTACLE_BYPASS,False,0.0,0.0,0.0,0.00,0.000,0.0,965.3,123.5,-154.27,-152.20,-154.27,145.10,86.82,-0.0021,10.0,10.843,0.0000,0.0000,0.0000,0.00,-5.0717,-6.1869,8.0000,-140.66,74,200.0,155.0,-5.0717,-6.1869,8.0000,-140.66,0.00,-140.66,0.00,False,BACKWARDS_LEFT,0.500,0,0,STUCK,False,False,True,0,True,STUCK_DETECTED,0.00,0
1764572039.2161763,77.763,83,TEST2_OBSTACLE_BYPASS,False,0.0,0.0,0.0,0.00,0.000,0.0,969.3,125.4,-153.82,-152.03,-153.82,145.21,86.86,-0.0011,10.0,10.936,0.0000,0.0000,0.0000,0.00,-4.7638,-6.4270,8.0000,-143.45,81,200.0,155.0,-4.7638,-6.4270,8.0000,-143.45,0.00,-143.45,0.00,False,BACKWARDS_LEFT,0.500,0,0,STUCK,False,False,True,0,True,STUCK_DETECTED,0.00,0
1764572039.2557225,77.803,84,TEST2_OBSTACLE_BYPASS,True,2339.9,7589.4,7941.9,17.13,0.985,0.0,972.9,127.2,-153.52,-151.54,-153.52,145.60,86.82,-0.0096,10.0,11.030,0.0000,0.0000,0.0000,0.00,-4.7714,-6.4214,8.0000,-143.39,81,200.0,155.0,-4.7714,-6.4214,8.0000,-143.39,17.13,-143.39,-160.52,True,BACKWARDS_LEFT,0.500,0,0,STUCK,False,False,True,0,True,FORCE_AWAY_FROM_PERSON|STUCK_DETECTED,0.00,0
1764572039.2982578,77.845,85,TEST2_OBSTACLE_BYPASS,True,2339.9,7589.4,7941.9,17.13,0.985,0.0,976.9,129.3,-153.30,-150.91,-153.30,146.28,86.84,0.0170,10.0,11.125,0.0000,0.0000,0.0000,0.00,-4.5698,-6.5663,8.0000,-145.16,86,250.0,155.0,-4.5698,-6.5663,8.0000,-145.16,17.13,-145.16,-162.30,True,BACKWARDS_LEFT,0.500,0,0,STUCK,False,False,True,0,True,FORCE_AWAY_FROM_PERSON|STUCK_DETECTED,0.00,0
1764572039.3349335,77.882,86,TEST2_OBSTACLE_BYPASS,True,2488.4,7542.0,7941.9,18.26,0.985,0.0,980.5,131.1,-153.26,-151.83,-153.26,145.48,86.90,-0.0277,10.0,11.218,0.0000,0.0000,0.0000,0.00,-4.4960,-6.6171,8.0000,-145.81,86,250.0,155.0,-4.4960,-6.6171,8.0000,-145.81,18.26,-145.81,-164.07,True,BACKWARDS_LEFT,0.500,0,0,STUCK,False,False,True,0,True,FORCE_AWAY_FROM_PERSON|STUCK_DETECTED,0.00,0
1764572039.3808796,77.928,87,TEST2_OBSTACLE_BYPASS,True,2488.4,7542.0,7941.9,18.26,0.985,0.0,984.5,133.1,-153.22,-153.47,-153.22,144.09,86.97,-0.0256,10.0,11.309,0.0000,0.0000,0.0000,0.00,-4.6625,-6.5009,8.0000,-144.35,101,250.0,155.0,-4.6625,-6.5009,8.0000,-144.35,18.26,-144.35,-162.61,True,BACKWARDS_LEFT,0.500,0,0,STUCK,False,False,True,0,True,FORCE_AWAY_FROM_PERSON|STUCK_DETECTED,0.00,0
1764572039.416736,77.964,88,TEST2_OBSTACLE_BYPASS,True,2488.4,7542.0,7941.9,18.26,0.985,0.0,988.1,134.9,-152.97,-153.50,-152.97,144.29,86.95,-0.0202,10.0,11.401,0.0000,0.0000,0.0000,0.00,-4.6382,-6.5182,8.0000,-144.57,101,250.0,155.0,-4.6382,-6.5182,8.0000,-144.57,18.26,-144.57,-162.83,True,BACKWARDS_LEFT,0.500,0,0,STUCK,False,False,True,0,True,FORCE_AWAY_FROM_PERSON|STUCK_DETECTED,0.00,0
1764572039.460055,78.007,89,TEST2_OBSTACLE_BYPASS,True,2488.4,7542.0,7941.9,18.26,0.985,0.0,992.0,137.0,-152.46,-151.29,-152.46,147.11,86.98,-0.0256,10.0,11.496,0.0000,0.0000,0.0000,0.00,-5.0579,-6.1982,8.0000,-140.78,115,250.0,155.0,-5.0579,-6.1982,8.0000,-140.78,18.26,-140.78,-159.04,True,BACKWARDS_LEFT,0.500,0,0,STUCK,False,False,True,0,True,FORCE_AWAY_FROM_PERSON|STUCK_DETECTED,0.00,0
1764572039.5005984,78.048,90,TEST2_OBSTACLE_BYPASS,True,2488.4,7542.0,7941.9,18.26,0.985,0.0,995.6,138.9,-151.94,-149.43,-151.94,149.43,86.97,-0.0149,10.0,11.595,0.0000,0.0000,0.0000,0.00,-5.0226,-6.2268,8.0000,-141.11,115,250.0,155.0,-5.0226,-6.2268,8.0000,-141.11,18.26,-141.11,-159.37,True,BACKWARDS_LEFT,0.500,0,0,STUCK,False,False,True,0,True,FORCE_AWAY_FROM_PERSON|STUCK_DETECTED,0.00,0
1764572039.5428736,78.090,91,TEST2_OBSTACLE_BYPASS,True,2636.0,7491.7,7941.9,19.38,0.985,0.0,999.6,141.0,-151.47,-148.51,-151.47,150.97,87.04,-0.0021,10.0,11.698,0.0000,0.0000,0.0000,0.00,-5.4576,-5.8493,8.0000,-136.98,126,250.0,155.0,-5.4576,-5.8493,8.0000,-136.98,19.38,-136.98,-156.37,True,BACKWARDS_LEFT,0.500,0,0,STUCK,False,False,True,0,True,FORCE_AWAY_FROM_PERSON|STUCK_DETECTED,0.00,0
1764572039.5814261,78.129,92,TEST2_OBSTACLE_BYPASS,False,0.0,0.0,0.0,0.00,0.000,0.0,1003.2,143.0,-151.27,-150.19,-151.27,149.78,87.31,0.0373,10.0,11.800,0.0000,0.0000,0.0000,0.00,-5.4378,-5.8677,8.0000,-137.18,126,250.0,155.0,-5.4378,-5.8677,8.0000,-137.18,0.00,-137.18,0.00,False,BACKWARDS_LEFT,0.500,0,0,STUCK,False,False,True,0,True,STUCK_DETECTED,0.00,0
1764572039.6202538,78.167,93,TEST2_OBSTACLE_BYPASS,False,0.0,0.0,0.0,0.00,0.000,0.0,1006.7,144.9,-151.26,-151.91,-151.26,148.40,87.22,0.0149,10.0,11.900,0.0000,0.0000,0.0000,0.00,-5.6114,-5.7020,8.0000,-135.46,121,250.0,155.0,-5.6114,-5.7020,8.0000,-135.46,0.00,-135.46,0.00,False,BACKWARDS_LEFT,0.500,0,0,STUCK,False,False,True,0,True,STUCK_DETECTED,0.00,0
1764572039.6636627,78.211,94,TEST2_OBSTACLE_BYPASS,False,0.0,0.0,0.0,0.00,0.000,0.0,1010.6,147.1,-151.33,-152.30,-151.33,148.42,87.29,0.0085,10.0,11.997,0.0000,0.0000,0.0000,0.00,-5.5996,-5.7135,8.0000,-135.58,121,250.0,155.0,-5.5996,-5.7135,8.0000,-135.58,0.00,-135.58,0.00,False,BACKWARDS_LEFT,0.500,0,0,STUCK,False,False,True,0,True,STUCK_DETECTED,0.00,0
1764572039.6990628,78.246,95,TEST2_OBSTACLE_BYPASS,False,0.0,0.0,0.0,0.00,0.000,0.0,1014.1,149.0,-151.48,-152.37,-151.48,148.85,87.32,-0.0213,10.0,12.091,0.0000,0.0000,0.0000,0.00,-5.9757,-5.3189,8.0000,-131.67,108,250.0,155.0,-5.9757,-5.3189,8.0000,-131.67,0.00,-131.67,0.00,False,BACKWARDS_LEFT,0.500,0,0,STUCK,False,False,True,0,True,STUCK_DETECTED,0.00,0
1764572039.749411,78.297,96,TEST2_OBSTACLE_BYPASS,False,0.0,0.0,0.0,0.00,0.000,0.0,1018.7,151.5,-151.47,-151.72,-151.47,150.23,87.34,-0.0224,10.0,12.183,0.0000,0.0000,0.0000,0.00,-6.0968,-5.1796,8.0000,-130.35,97,300.0,155.0,-6.0968,-5.1796,8.0000,-130.35,0.00,-130.35,0.00,False,BACKWARDS_LEFT,0.500,0,0,STUCK,False,False,True,0,True,STUCK_DETECTED,0.00,0
1764572039.7846644,78.332,97,TEST2_OBSTACLE_BYPASS,False,0.0,0.0,0.0,0.00,0.000,0.0,1022.0,153.3,-151.22,-151.02,-151.22,151.24,87.32,-0.0128,10.0,12.275,0.0000,0.0000,0.0000,0.00,-5.9723,-5.3227,8.0000,-131.71,97,300.0,155.0,-5.9723,-5.3227,8.0000,-131.71,0.00,-131.71,0.00,False,BACKWARDS_LEFT,0.500,0,0,STUCK,False,False,True,0,True,STUCK_DETECTED,0.00,0
1764572039.8245478,78.372,98,TEST2_OBSTACLE_BYPASS,False,0.0,0.0,0.0,0.00,0.000,0.0,1025.8,155.4,-150.97,-150.98,-150.97,151.63,87.32,0.0149,10.0,12.368,0.0000,0.0000,0.0000,0.00,-6.5158,-4.6415,8.0000,-125.46,107,300.0,155.0,-6.5158,-4.6415,8.0000,-125.46,0.00,-125.46,0.00,False,BACKWARDS_LEFT,0.500,0,0,STUCK,False,False,True,0,True,STUCK_DETECTED,0.00,0
1764572039.8673558,78.414,99,TEST2_OBSTACLE_BYPASS,False,0.0,0.0,0.0,0.00,0.000,0.0,1029.6,157.5,-150.95,-151.12,-150.95,151.76,87.29,0.0149,10.0,12.459,0.0000,0.0000,0.0000,0.00,-6.5829,-4.5459,8.0000,-124.63,107,300.0,155.0,-6.5829,-4.5459,8.0000,-124.63,0.00,-124.63,0.00,False,BACKWARDS_LEFT,0.500,0,0,STUCK,False,False,True,0,True,STUCK_DETECTED,0.00,0
1764572039.9031355,78.450,100,TEST2_OBSTACLE_BYPASS,False,0.0,0.0,0.0,0.00,0.000,0.0,1033.0,159.4,-151.13,-151.20,-151.13,152.25,87.27,0.0021,10.0,12.547,0.0000,0.0000,0.0000,0.00,-6.6809,-4.4007,8.0000,-123.37,115,300.0,155.0,-6.6809,-4.4007,8.0000,-123.37,0.00,-123.37,0.00,False,BACKWARDS_LEFT,0.500,0,0,STUCK,False,False,True,0,True,STUCK_DETECTED,0.00,0
1764572039.9479327,78.495,101,TEST2_OBSTACLE_BYPASS,False,0.0,0.0,0.0,0.00,0.000,0.0,1037.0,161.6,-151.34,-150.58,-151.34,154.10,87.30,-0.0224,10.0,12.631,0.0000,0.0000,0.0000,0.00,-6.6244,-4.4853,8.0000,-124.10,115,300.0,155.0,-6.6244,-4.4853,8.0000,-124.10,0.00,-124.10,0.00,False,BACKWARDS_LEFT,0.500,0,0,STUCK,False,False,True,0,True,STUCK_DETECTED,0.00,0
1764572039.986182,78.533,102,TEST2_OBSTACLE_BYPASS,False,0.0,0.0,0.0,0.00,0.000,0.0,1040.5,163.5,-151.31,-149.88,-151.31,155.93,87.34,-0.0224,10.0,12.840,0.0000,0.0000,0.0000,0.00,-6.7679,-4.2656,8.0000,-122.22,113,300.0,155.0,-6.7679,-4.2656,8.0000,-122.22,0.00,-122.22,0.00,False,BACKWARDS_LEFT,0.500,0,0,STUCK,False,False,True,0,True,STUCK_DETECTED,0.00,0
1764572040.0308707,78.578,103,TEST2_OBSTACLE_BYPASS,True,1364.4,5685.5,5846.9,13.50,0.784,0.0,1044.4,165.6,-151.08,-149.60,-151.08,157.49,87.36,0.0096,10.0,13.052,0.0000,0.0000,0.0000,0.00,-6.7488,-4.2957,8.0000,-122.48,113,300.0,155.0,-6.7488,-4.2957,8.0000,-122.48,13.50,-122.48,-135.97,True,BACKWARDS_LEFT,0.500,0,0,STUCK,False,False,True,0,True,FORCE_AWAY_FROM_PERSON|STUCK_DETECTED,0.00,0
1764572040.0652912,78.612,104,TEST2_OBSTACLE_BYPASS,True,1364.4,5685.5,5846.9,13.50,0.784,0.0,1047.8,167.6,-150.90,-150.51,-150.90,157.38,87.32,0.0192,10.0,13.265,0.0000,0.0000,0.0000,0.00,-6.8132,-4.1929,8.0000,-121.61,116,300.0,155.0,-6.8132,-4.1929,8.0000,-121.61,13.50,-121.61,-135.10,True,BACKWARDS_LEFT,0.500,0,0,STUCK,False,False,True,0,True,FORCE_AWAY_FROM_PERSON|STUCK_DETECTED,0.00,0
1764572040.1133957,78.661,105,TEST2_OBSTACLE_BYPASS,True,1364.4,5685.5,5846.9,13.50,0.784,0.0,1051.8,169.8,-150.98,-153.18,-150.98,155.30,87.55,0.0277,10.0,13.478,0.0000,0.0000,0.0000,0.00,-6.8286,-4.1677,8.0000,-121.40,116,300.0,155.0,-6.8286,-4.1677,8.0000,-121.40,13.50,-121.40,-134.89,True,BACKWARDS_LEFT,0.500,0,0,STUCK,False,False,True,0,True,FORCE_AWAY_FROM_PERSON|STUCK_DETECTED,0.00,0
1764572040.146771,78.694,106,TEST2_OBSTACLE_BYPASS,True,1364.4,5685.5,5846.9,13.50,0.784,0.0,1055.3,171.6,-151.38,-155.76,-151.38,153.02,87.47,0.0554,10.0,13.686,0.0000,0.0000,0.0000,0.00,-6.9558,-3.9519,8.0000,-119.60,117,350.0,152.0,-6.9558,-3.9519,8.0000,-119.60,13.50,-119.60,-133.10,True,BACKWARDS_LEFT,0.500,0,0,STUCK,False,False,True,0,True,FORCE_AWAY_FROM_PERSON|STUCK_DETECTED,0.00,0
1764572040.190374,78.738,107,TEST2_OBSTACLE_BYPASS,True,1364.4,5685.5,5846.9,13.50,0.784,0.0,1059.2,173.7,-152.08,-158.03,-152.08,151.08,87.50,0.0618,10.0,13.887,0.0000,0.0000,0.0000,0.00,-6.9558,-3.9519,8.0000,-119.60,117,350.0,152.0,-6.9558,-3.9519,8.0000,-119.60,13.50,-119.60,-133.10,True,BACKWARDS_LEFT,0.500,0,0,STUCK,False,False,True,0,True,FORCE_AWAY_FROM_PERSON|STUCK_DETECTED,0.00,0
1764572040.2354527,78.783,108,TEST2_OBSTACLE_BYPASS,True,1475.8,5657.6,5846.9,14.62,0.784,0.0,1063.3,175.8,-153.02,-160.38,-153.02,149.18,87.41,0.0554,10.0,14.078,0.0000,0.0000,0.0000,0.00,-7.0279,-3.8220,8.0000,-118.54,115,350.0,152.0,-7.0279,-3.8220,8.0000,-118.54,14.62,-118.54,-133.16,True,BACKWARDS_LEFT,0.500,0,0,STUCK,False,False,True,0,True,FORCE_AWAY_FROM_PERSON|STUCK_DETECTED,0.00,0
1764572040.2749212,78.822,109,TEST2_OBSTACLE_BYPASS,True,1475.8,5657.6,5846.9,14.62,0.784,0.0,1067.3,177.8,-154.06,-161.46,-154.06,148.50,87.25,0.0639,10.0,14.259,0.0000,0.0000,0.0000,0.00,-7.0279,-3.8220,8.0000,-118.54,115,350.0,152.0,-7.0279,-3.8220,8.0000,-118.54,14.62,-118.54,-133.16,True,BACKWARDS_LEFT,0.500,0,0,STUCK,False,False,True,0,True,FORCE_AWAY_FROM_PERSON|STUCK_DETECTED,0.00,0
1764572040.3113353,78.858,110,TEST2_OBSTACLE_BYPASS,True,1475.8,5657.6,5846.9,14.62,0.784,0.0,1070.8,179.4,-155.17,-162.31,-155.17,147.86,87.07,0.0682,10.0,14.429,0.0000,0.0000,0.0000,0.00,-7.2095,-3.4674,8.0000,-115.68,115,350.0,152.0,-7.2095,-3.4674,8.0000,-115.68,14.62,-115.68,-130.30,True,BACKWARDS_LEFT,0.500,0,0,STUCK,False,False,True,0,True,FORCE_AWAY_FROM_PERSON|STUCK_DETECTED,0.00,0
1764572040.3552494,78.902,111,TEST2_OBSTACLE_BYPASS,False,0.0,0.0,0.0,0.00,0.000,0.0,1075.0,181.2,-156.57,-164.57,-156.57,146.17,86.91,0.1310,10.0,14.585,0.0000,0.0000,0.0000,0.00,-7.2095,-3.4674,8.0000,-115.68,115,350.0,152.0,-7.2095,-3.4674,8.0000,-115.68,0.00,-115.68,0.00,False,BACKWARDS_LEFT,0.500,0,0,STUCK,False,False,True,0,True,STUCK_DETECTED,0.00,0
1764572040.3924131,78.940,112,TEST2_OBSTACLE_BYPASS,False,0.0,0.0,0.0,0.00,0.000,0.0,1078.7,182.7,-158.29,-167.12,-158.29,144.51,86.52,0.1236,10.0,14.722,0.0000,0.0000,0.0000,0.00,-7.2202,-3.4451,8.0000,-115.51,104,400.0,269.0,-7.2202,-3.4451,8.0000,-115.51,0.00,-115.51,0.00,False,BACKWARDS_LEFT,0.500,0,0,STUCK,False,False,True,0,True,STUCK_DETECTED,0.00,0
1764572040.4323804,78.980,113,TEST2_OBSTACLE_BYPASS,False,0.0,0.0,0.0,0.00,0.000,0.0,1082.6,184.1,-160.27,-169.42,-160.27,142.95,86.30,0.0852,10.0,14.840,0.0000,0.0000,0.0000,0.00,-7.2202,-3.4451,8.0000,-115.51,104,400.0,269.0,-7.2202,-3.4451,8.0000,-115.51,0.00,-115.51,0.00,False,BACKWARDS_LEFT,0.500,0,0,STUCK,False,False,True,0,True,STUCK_DETECTED,0.00,0
1764572040.4743638,79.021,114,TEST2_OBSTACLE_BYPASS,False,0.0,0.0,0.0,0.00,0.000,0.0,1086.9,185.4,-162.38,-171.60,-162.38,140.84,86.21,0.0053,10.0,14.938,0.0000,0.0000,0.0000,0.00,-7.2782,-3.3208,8.0000,-114.53,104,400.0,269.0,-7.2782,-3.3208,8.0000,-114.53,0.00,-114.53,0.00,False,BACKWARDS_LEFT,0.500,0,0,STUCK,False,False,True,0,True,STUCK_DETECTED,0.00,0
1764572040.5134373,79.061,115,TEST2_OBSTACLE_BYPASS,False,0.0,0.0,0.0,0.00,0.000,0.0,1090.7,186.5,-164.27,-172.02,-164.27,140.40,86.42,-0.0831,10.0,15.023,0.0000,0.0000,0.0000,0.00,-7.2782,-3.3208,8.0000,-114.53,104,400.0,269.0,-7.2782,-3.3208,8.0000,-114.53,0.00,-114.53,0.00,False,BACKWARDS_LEFT,0.500,0,0,STUCK,False,False,True,0,True,STUCK_DETECTED,0.00,0
1764572040.5529315,79.100,116,TEST2_OBSTACLE_BYPASS,False,0.0,0.0,0.0,0.00,0.000,0.0,1094.9,187.6,-165.79,-171.01,-165.79,141.43,86.65,-0.0991,10.0,14.741,0.0000,0.0000,0.0000,0.00,-7.4069,-3.0230,8.0000,-112.20,92,450.0,269.0,-7.4069,-3.0230,8.0000,-112.20,0.00,-112.20,0.00,False,LEFT,0.700,0,0,STUCK,False,False,True,0,True,STUCK_DETECTED,0.00,0
1764572040.5992997,79.146,117,TEST2_OBSTACLE_BYPASS,False,0.0,0.0,0.0,0.00,0.000,0.0,1094.9,187.6,-166.99,-170.03,-166.99,143.09,86.74,-0.0138,10.0,14.454,0.0000,0.0000,0.0000,0.00,-7.4069,-3.0230,8.0000,-112.20,92,450.0,269.0,-7.4069,-3.0230,8.0000,-112.20,0.00,-112.20,0.00,False,LEFT,0.700,0,0,STUCK,False,False,True,0,True,STUCK_DETECTED,0.00,0
1764572040.6377609,79.185,118,TEST2_OBSTACLE_BYPASS,False,0.0,0.0,0.0,0.00,0.000,0.0,1094.9,187.6,-167.99,-170.39,-167.99,143.81,86.78,0.0618,10.0,14.163,0.0000,0.0000,0.0000,0.00,-7.4384,-2.9446,8.0000,-111.60,89,450.0,269.0,-7.4384,-2.9446,8.0000,-111.60,0.00,-111.60,0.00,False,LEFT,0.700,0,0,STUCK,False,False,True,0,True,STUCK_DETECTED,0.00,0
1764572040.681464,79.229,119,TEST2_OBSTACLE_BYPASS,False,0.0,0.0,0.0,0.00,0.000,0.0,1094.9,187.6,-169.03,-171.80,-169.03,143.91,86.70,0.0213,10.0,13.864,0.0000,0.0000,0.0000,0.00,-7.5533,-2.6358,8.0000,-109.24,89,450.0,345.0,-7.5533,-2.6358,8.0000,-109.24,0.00,-109.24,0.00,False,LEFT,0.700,0,0,STUCK,False,False,True,0,True,STUCK_DETECTED,0.00,0
1764572040.720281,79.267,120,TEST2_OBSTACLE_BYPASS,False,0.0,0.0,0.0,0.00,0.000,0.0,1094.9,187.6,-169.97,-171.78,-169.97,144.82,86.68,-0.0543,10.0,13.554,0.0000,0.0000,0.0000,0.00,-7.5533,-2.6358,8.0000,-109.24,89,450.0,345.0,-7.5533,-2.6358,8.0000,-109.24,0.00,-109.24,0.00,False,LEFT,0.700,0,0,STUCK,False,False,True,0,True,STUCK_DETECTED,0.00,0
1764572040.7622786,79.309,121,TEST2_OBSTACLE_BYPASS,True,1179.9,3263.9,3470.6,19.88,0.801,0.0,1094.9,187.6,-170.62,-171.02,-170.62,145.97,86.79,-0.0820,10.0,13.234,0.1078,3.8978,3.8993,1.58,-7.5482,-2.6504,8.0000,-109.35,86,500.0,345.0,-7.4404,1.2473,7.5442,-80.48,19.88,-80.48,-100.36,True,LEFT,0.700,0,0,STUCK,False,False,True,0,True,FORCE_AWAY_FROM_PERSON|STUCK_DETECTED,0.00,0
1764572040.8054447,79.353,122,TEST2_OBSTACLE_BYPASS,True,1179.9,3263.9,3470.6,19.88,0.801,0.0,1094.9,187.6,-170.99,-170.83,-170.99,146.79,86.98,0.0117,10.0,12.909,0.1078,3.8978,3.8993,1.58,-7.5482,-2.6504,8.0000,-109.35,86,500.0,345.0,-7.4404,1.2473,7.5442,-80.48,19.88,-80.48,-100.36,True,LEFT,0.700,0,0,STUCK,False,False,True,0,True,FORCE_AWAY_FROM_PERSON|STUCK_DETECTED,0.00,0
1764572040.8477428,79.395,123,TEST2_OBSTACLE_BYPASS,True,1243.8,3240.1,3470.6,21.00,0.801,0.0,1094.9,187.6,-171.28,-172.31,-171.28,145.91,86.88,0.0714,10.0,12.577,0.1913,3.9218,3.9265,2.79,-7.6465,-2.3518,8.0000,-107.10,82,500.0,268.0,-7.4552,1.5701,7.6187,-78.11,21.00,-78.11,-99.11,True,LEFT,0.700,0,0,STUCK,False,False,True,0,True,FORCE_AWAY_FROM_PERSON|STUCK_DETECTED,0.00,0
1764572040.889486,79.437,124,TEST2_OBSTACLE_BYPASS,True,1243.8,3240.1,3470.6,21.00,0.801,0.0,1094.9,187.6,-171.39,-172.70,-171.39,146.07,86.75,-0.0043,10.0,12.237,0.1913,3.9218,3.9265,2.79,-7.6465,-2.3518,8.0000,-107.10,82,500.0,268.0,-7.4552,1.5701,7.6187,-78.11,21.00,-78.11,-99.11,True,LEFT,0.700,0,0,STUCK,False,False,True,0,True,FORCE_AWAY_FROM_PERSON|STUCK_DETECTED,0.00,0
1764572040.9321878,79.479,125,TEST2_OBSTACLE_BYPASS,True,1243.8,3240.1,3470.6,21.00,0.801,0.0,1094.9,187.6,-171.35,-171.70,-171.35,147.43,86.90,-0.0202,10.0,11.887,0.1913,3.9218,3.9265,2.79,-7.6671,-2.2838,8.0000,-106.59,86,500.0,268.0,-7.4757,1.6380,7.6531,-77.64,21.00,-77.64,-98.64,True,LEFT,0.700,0,0,STUCK,False,False,True,0,True,FORCE_AWAY_FROM_PERSON|STUCK_DETECTED,0.00,0
1764572040.969832,79.517,126,TEST2_OBSTACLE_BYPASS,True,1243.8,3240.1,3470.6,21.00,0.801,0.0,1094.9,187.6,-171.40,-171.45,-171.40,147.79,86.93,-0.0021,10.0,11.883,0.1913,3.9218,3.9265,2.79,-7.6671,-2.2838,8.0000,-106.59,86,500.0,268.0,-7.4757,1.6380,7.6531,-77.64,21.00,-77.64,-98.64,True,LEFT,0.700,0,0,STUCK,False,False,True,0,True,FORCE_AWAY_FROM_PERSON|STUCK_DETECTED,0.00,0
1764572041.010724,79.558,127,TEST2_OBSTACLE_BYPASS,True,1243.8,3240.1,3470.6,21.00,0.801,0.0,1094.9,187.6,-171.60,-172.05,-171.60,147.54,86.82,-0.0075,10.0,11.863,0.1913,3.9218,3.9265,2.79,-7.6714,-2.2692,8.0000,-106.48,74,500.0,268.0,-7.4801,1.6527,7.6605,-77.54,21.00,-77.54,-98.54,True,LEFT,0.700,0,0,STUCK,False,False,True,0,True,FORCE_AWAY_FROM_PERSON|STUCK_DETECTED,0.00,0
1764572041.0502136,79.597,128,TEST2_OBSTACLE_BYPASS,True,1307.2,3215.1,3470.6,22.13,0.801,0.0,1094.9,187.6,-171.57,-170.10,-171.57,150.36,86.84,-0.0543,10.0,11.831,0.2766,3.9443,3.9540,4.01,-7.6714,-2.2692,8.0000,-106.48,74,500.0,268.0,-7.3948,1.6751,7.5822,-77.24,22.13,-77.24,-99.36,True,LEFT,0.700,0,0,STUCK,False,False,True,0,True,FORCE_AWAY_FROM_PERSON|STUCK_DETECTED,0.00,0
1764572041.0889022,79.636,129,TEST2_OBSTACLE_BYPASS,False,0.0,0.0,0.0,0.00,0.000,0.0,1094.9,187.6,-170.95,-165.59,-170.95,155.79,86.68,-0.0969,10.0,11.798,0.2766,3.9443,3.9540,4.01,-7.6892,-2.2081,8.0000,-106.02,67,550.0,268.0,-7.4127,1.7362,7.6133,-76.82,0.00,-76.82,0.00,False,LEFT,0.700,0,0,STUCK,False,False,True,0,True,STUCK_DETECTED,0.00,0
1764572041.1281705,79.675,130,TEST2_OBSTACLE_BYPASS,False,0.0,0.0,0.0,0.00,0.000,0.0,1094.9,187.6,-170.07,-163.01,-170.07,158.88,86.68,-0.0671,10.0,11.773,0.2766,3.9443,3.9540,4.01,-7.6892,-2.2081,8.0000,-106.02,67,550.0,268.0,-7.4127,1.7362,7.6133,-76.82,0.00,-76.82,0.00,False,LEFT,0.700,0,0,STUCK,False,False,True,0,True,STUCK_DETECTED,0.00,0
1764572041.1693332,79.716,131,TEST2_OBSTACLE_BYPASS,False,0.0,0.0,0.0,0.00,0.000,0.0,1094.9,187.6,-169.10,-161.23,-169.10,161.41,86.83,-0.0053,10.0,11.758,0.2766,3.9443,3.9540,4.01,-7.6460,-2.3533,8.0000,-107.11,52,550.0,268.0,-7.3694,1.5909,7.5392,-77.82,0.00,-77.82,0.00,False,LEFT,0.700,0,0,STUCK,False,False,True,0,True,STUCK_DETECTED,0.00,0
1764572041.212602,79.760,132,TEST2_OBSTACLE_BYPASS,False,0.0,0.0,0.0,0.00,0.000,0.0,1094.9,187.6,-168.14,-161.31,-168.14,161.67,86.87,-0.0032,10.0,11.752,0.2766,3.9443,3.9540,4.01,-7.6460,-2.3533,8.0000,-107.11,52,550.0,268.0,-7.3694,1.5909,7.5392,-77.82,0.00,-77.82,0.00,False,LEFT,0.700,0,0,STUCK,False,False,True,0,True,STUCK_DETECTED,0.00,0
1764572041.2490585,79.796,133,TEST2_OBSTACLE_BYPASS,False,0.0,0.0,0.0,0.00,0.000,0.0,1094.9,187.6,-166.97,-160.61,-166.97,162.39,86.84,-0.0181,10.0,11.758,0.2766,3.9443,3.9540,4.01,-7.4775,-2.8438,8.0000,-110.82,52,550.0,268.0,-7.2009,1.1005,7.2845,-81.31,0.00,-81.31,0.00,False,LEFT,0.700,0,0,STUCK,False,False,True,0,True,STUCK_DETECTED,0.00,0
1764572041.2908628,79.838,134,TEST2_OBSTACLE_BYPASS,False,0.0,0.0,0.0,0.00,0.000,0.0,1094.9,187.6,-165.73,-160.31,-165.73,162.28,86.84,0.0202,10.0,11.777,0.2766,3.9443,3.9540,4.01,-7.4775,-2.8438,8.0000,-110.82,52,550.0,268.0,-7.2009,1.1005,7.2845,-81.31,0.00,-81.31,0.00,False,LEFT,0.700,0,0,STUCK,False,False,True,0,True,STUCK_DETECTED,0.00,0
1764572041.331957,79.879,135,TEST2_OBSTACLE_BYPASS,False,0.0,0.0,0.0,0.00,0.000,0.0,1094.9,187.6,-164.66,-160.91,-164.66,160.91,86.78,0.0234,10.0,11.804,0.2766,3.9443,3.9540,4.01,-7.3735,-3.1035,8.0000,-112.83,52,550.0,271.0,-7.0969,0.8408,7.1465,-83.24,0.00,-83.24,0.00,False,LEFT,0.700,0,0,STUCK,False,False,True,0,True,STUCK_DETECTED,0.00,0
1764572041.3775477,79.925,136,TEST2_OBSTACLE_BYPASS,False,0.0,0.0,0.0,0.00,0.000,0.0,1094.9,187.6,-163.69,-161.81,-163.69,159.17,86.79,0.0234,10.0,11.839,0.2766,3.9443,3.9540,4.01,-7.3735,-3.1035,8.0000,-112.83,52,550.0,271.0,-7.0969,0.8408,7.1465,-83.24,0.00,-83.24,0.00,False,LEFT,0.700,0,0,STUCK,False,False,True,0,True,STUCK_DETECTED,0.00,0
1764572041.410658,79.958,137,TEST2_OBSTACLE_BYPASS,False,0.0,0.0,0.0,0.00,0.000,0.0,1094.9,187.6,-162.71,-162.26,-162.71,157.70,86.75,0.0032,10.0,11.885,0.2766,3.9443,3.9540,4.01,-7.2138,-3.4584,8.0000,-115.61,55,550.0,100.0,-6.9372,0.4858,6.9542,-85.99,0.00,-85.99,0.00,False,LEFT,0.700,0,0,STUCK,False,False,True,0,True,STUCK_DETECTED,0.00,0
1764572041.4590497,80.006,138,TEST2_OBSTACLE_BYPASS,False,0.0,0.0,0.0,0.00,0.000,0.0,1094.9,187.6,-162.00,-162.97,-162.00,156.03,86.78,0.0138,10.0,11.938,0.2766,3.9443,3.9540,4.01,-7.2138,-3.4584,8.0000,-115.61,55,550.0,100.0,-6.9372,0.4858,6.9542,-85.99,0.00,-85.99,0.00,False,LEFT,0.700,0,0,STUCK,False,False,True,0,True,STUCK_DETECTED,0.00,0
1764572041.496039,80.043,139,TEST2_OBSTACLE_BYPASS,True,1533.4,2301.1,2765.2,33.68,0.997,0.0,1094.9,187.6,-161.83,-163.90,-161.83,153.96,86.89,0.0128,10.0,11.990,1.1295,5.4433,5.5592,11.72,-7.0188,-3.8388,8.0000,-118.68,59,600.0,100.0,-5.8893,1.6045,6.1040,-74.76,33.68,-74.76,-108.44,True,LEFT,0.700,0,0,STUCK,False,False,True,0,True,FORCE_AWAY_FROM_PERSON|TURNING_WRONG_WAY|STUCK_DETECTED,0.00,0
1764572041.54377,80.091,140,TEST2_OBSTACLE_BYPASS,True,1533.4,2301.1,2765.2,33.68,0.997,0.0,1094.9,187.6,-161.90,-163.68,-161.90,153.32,86.80,0.0011,10.0,12.036,1.1295,5.4433,5.5592,11.72,-6.8512,-4.1305,8.0000,-121.09,56,600.0,100.0,-5.7217,1.3128,5.8704,-77.08,33.68,-77.08,-110.76,True,LEFT,0.700,0,0,STUCK,False,False,True,0,True,FORCE_AWAY_FROM_PERSON|TURNING_WRONG_WAY|STUCK_DETECTED,0.00,0
1764572041.5817745,80.129,141,TEST2_OBSTACLE_BYPASS,True,1533.4,2301.1,2765.2,33.68,0.997,0.0,1094.9,187.6,-162.10,-163.29,-162.10,152.37,86.72,0.0064,10.0,12.074,1.1295,5.4433,5.5592,11.72,-6.8512,-4.1305,8.0000,-121.09,56,600.0,100.0,-5.7217,1.3128,5.8704,-77.08,33.68,-77.08,-110.76,True,LEFT,0.700,0,0,STUCK,False,False,True,0,True,FORCE_AWAY_FROM_PERSON|TURNING_WRONG_WAY|STUCK_DETECTED,0.00,0
1764572041.6257412,80.173,142,TEST2_OBSTACLE_BYPASS,True,1533.4,2301.1,2765.2,33.68,0.997,0.0,1094.9,187.6,-162.31,-163.33,-162.31,151.03,86.71,0.0011,10.0,12.104,1.1295,5.4433,5.5592,11.72,-6.6617,-4.4297,8.0000,-123.62,56,600.0,100.0,-5.5322,1.0136,5.6242,-79.62,33.68,-79.62,-113.30,True,LEFT,0.700,0,0,STUCK,False,False,True,0,True,FORCE_AWAY_FROM_PERSON|TURNING_WRONG_WAY|STUCK_DETECTED,0.00,0
1764572041.6606703,80.208,143,TEST2_OBSTACLE_BYPASS,True,1533.4,2301.1,2765.2,33.68,0.997,0.0,1094.9,187.6,-162.54,-162.94,-162.54,150.26,86.68,-0.0234,10.0,12.128,1.1295,5.4433,5.5592,11.72,-6.6617,-4.4297,8.0000,-123.62,56,600.0,100.0,-5.5322,1.0136,5.6242,-79.62,33.68,-79.62,-113.30,True,LEFT,0.700,0,0,STUCK,False,False,True,0,True,FORCE_AWAY_FROM_PERSON|TURNING_WRONG_WAY|STUCK_DETECTED,0.00,0
1764572041.70447,80.252,144,TEST2_OBSTACLE_BYPASS,True,1533.4,2301.1,2765.2,33.68,0.997,0.0,1094.9,187.6,-162.62,-161.09,-162.62,151.09,86.65,-0.0479,10.0,12.150,1.1295,5.4433,5.5592,11.72,-6.4004,-4.7994,8.0000,-126.86,62,600.0,287.0,-5.2709,0.6438,5.3101,-83.04,33.68,-83.04,-116.72,True,LEFT,0.700,0,0,STUCK,False,False,True,0,True,FORCE_AWAY_FROM_PERSON|TURNING_WRONG_WAY|STUCK_DETECTED,0.00,0
1764572041.7443051,80.291,145,TEST2_OBSTACLE_BYPASS,True,1578.3,2270.6,2765.2,34.80,0.997,0.0,1094.9,187.6,-162.46,-159.34,-162.46,152.01,86.64,-0.0224,10.0,12.171,1.2687,5.4665,5.6118,13.07,-6.4004,-4.7994,8.0000,-126.86,62,600.0,287.0,-5.1317,0.6670,5.1749,-82.59,34.80,-82.59,-117.40,True,LEFT,0.700,0,0,RECOVERING,True,False,True,0,True,FORCE_AWAY_FROM_PERSON|TURNING_WRONG_WAY|STUCK_DETECTED,0.00,0
1764572041.7867868,80.334,146,TEST2_OBSTACLE_BYPASS,True,1578.3,2270.6,2765.2,34.80,0.997,0.0,1094.9,187.6,-162.09,-158.07,-162.09,152.16,86.57,-0.0011,10.0,12.194,1.2687,5.4665,5.6118,13.07,-6.0837,-5.1951,8.0000,-130.50,64,600.0,292.0,-4.8149,0.2714,4.8226,-86.77,34.80,-86.77,-121.58,True,LEFT,0.700,0,0,RECOVERING,False,False,True,0,True,FORCE_AWAY_FROM_PERSON|TURNING_WRONG_WAY|STUCK_DETECTED,0.00,0
1764572041.8234954,80.371,147,TEST2_OBSTACLE_BYPASS,False,0.0,0.0,0.0,0.00,0.000,0.0,1094.9,187.6,-161.66,-157.96,-161.66,150.90,86.54,-0.0011,10.0,12.220,1.2687,5.4665,5.6118,13.07,-6.0837,-5.1951,8.0000,-130.50,64,600.0,292.0,-4.8149,0.2714,4.8226,-86.77,0.00,-86.77,0.00,False,LEFT,0.700,0,0,RECOVERING,False,False,True,0,True,STUCK_DETECTED,0.00,0
1764572041.863599,80.411,148,TEST2_OBSTACLE_BYPASS,False,0.0,0.0,0.0,0.00,0.000,0.0,1094.9,187.6,-161.19,-158.30,-161.19,149.06,86.67,-0.0160,10.0,12.254,1.2687,5.4665,5.6118,13.07,-5.9073,-5.3948,8.0000,-132.40,57,600.0,135.0,-4.6386,0.0717,4.6391,-89.11,0.00,-89.11,0.00,False,LEFT,0.700,0,0,RECOVERING,False,False,True,0,True,STUCK_DETECTED,0.00,0
1764572041.9064114,80.454,149,TEST2_OBSTACLE_BYPASS,False,0.0,0.0,0.0,0.00,0.000,0.0,1094.9,187.6,-160.55,-157.47,-160.55,148.97,86.58,-0.0011,10.0,12.301,1.2687,5.4665,5.6118,13.07,-5.9073,-5.3948,8.0000,-132.40,57,600.0,135.0,-4.6386,0.0717,4.6391,-89.11,0.00,-89.11,0.00,False,LEFT,0.700,0,0,RECOVERING,False,False,True,0,True,STUCK_DETECTED,0.00,0
1764572041.9470303,80.494,150,TEST2_OBSTACLE_BYPASS,False,0.0,0.0,0.0,0.00,0.000,0.0,1094.9,187.6,-159.74,-155.63,-159.74,149.90,86.51,-0.0224,10.0,12.358,1.2687,5.4665,5.6118,13.07,-5.5550,-5.7569,8.0000,-136.02,49,600.0,136.0,-4.2863,-0.2904,4.2961,-93.88,0.00,-93.88,0.00,False,LEFT,0.700,0,0,RECOVERING,False,False,True,0,True,STUCK_DETECTED,0.00,0
1764572041.990734,80.538,151,TEST2_OBSTACLE_BYPASS,False,0.0,0.0,0.0,0.00,0.000,0.0,1094.9,187.6,-158.78,-153.65,-158.78,150.57,86.51,-0.0245,10.0,12.421,1.2687,5.4665,5.6118,13.07,-5.5550,-5.7569,8.0000,-136.02,49,600.0,136.0,-4.2863,-0.2904,4.2961,-93.88,0.00,-93.88,0.00,False,LEFT,0.700,0,0,RECOVERING,False,False,True,0,True,STUCK_DETECTED,0.00,0
1764572042.0283875,80.576,152,TEST2_OBSTACLE_BYPASS,False,0.0,0.0,0.0,0.00,0.000,0.0,1094.9,187.6,-157.79,-153.42,-157.79,149.51,86.49,0.0043,10.0,12.489,1.2687,5.4665,5.6118,13.07,-5.3177,-5.9768,8.0000,-138.34,45,600.0,152.0,-4.0490,-0.5104,4.0810,-97.18,0.00,-97.18,0.00,False,LEFT,0.700,0,0,RECOVERING,False,False,True,0,True,STUCK_DETECTED,0.00,0
1764572042.079363,80.626,153,TEST2_OBSTACLE_BYPASS,False,0.0,0.0,0.0,0.00,0.000,0.0,1094.9,187.6,-156.85,-153.54,-156.85,148.24,86.46,0.0021,10.0,12.561,1.2687,5.4665,5.6118,13.07,-5.3177,-5.9768,8.0000,-138.34,45,600.0,152.0,-4.0490,-0.5104,4.0810,-97.18,0.00,-97.18,0.00,False,LEFT,0.700,0,0,RECOVERING,False,False,True,0,True,STUCK_DETECTED,0.00,0
1764572042.1086526,80.656,154,TEST2_OBSTACLE_BYPASS,True,3138.9,4777.1,5716.1,33.31,0.752,0.0,1094.9,187.6,-156.00,-152.59,-156.00,148.67,86.39,-0.0149,10.0,12.640,0.0000,0.0000,0.0000,0.00,-5.3186,-5.9760,8.0000,-138.33,44,650.0,152.0,-5.3186,-5.9760,8.0000,-138.33,33.31,-138.33,-171.64,True,BACKWARDS_LEFT,0.500,0,0,RECOVERING,False,False,True,0,True,FORCE_AWAY_FROM_PERSON|STUCK_DETECTED,0.00,0
1764572042.1584327,80.706,155,TEST2_OBSTACLE_BYPASS,True,3232.1,4714.6,5716.1,34.43,0.752,0.0,1098.9,189.4,-155.14,-150.75,-155.14,149.82,86.27,-0.0383,10.0,12.726,0.0000,0.0000,0.0000,0.00,-5.3186,-5.9760,8.0000,-138.33,44,650.0,152.0,-5.3186,-5.9760,8.0000,-138.33,34.43,-138.33,-172.76,True,BACKWARDS_LEFT,0.500,0,0,RECOVERING,False,False,True,0,True,FORCE_AWAY_FROM_PERSON|STUCK_DETECTED,0.00,0
1764572042.1993196,80.746,156,TEST2_OBSTACLE_BYPASS,True,1620.5,3819.3,4148.9,22.99,0.990,0.0,1102.8,191.3,-154.26,-149.28,-154.26,150.69,86.38,-0.0170,10.0,12.818,0.4625,3.2416,3.2744,8.12,-5.2669,-6.0216,8.0000,-138.82,36,650.0,152.0,-4.8044,-2.7800,5.5507,-120.06,22.99,-120.06,-143.05,True,BACKWARDS_LEFT,0.500,0,0,RECOVERING,False,False,True,0,True,FORCE_AWAY_FROM_PERSON|STUCK_DETECTED,0.00,0
1764572042.2314348,80.779,157,TEST2_OBSTACLE_BYPASS,True,1620.5,3819.3,4148.9,22.99,0.990,0.0,1106.3,193.1,-153.34,-148.77,-153.34,150.66,86.39,-0.0138,10.0,12.913,0.4600,3.2440,3.2764,8.07,-5.2669,-6.0216,8.0000,-138.82,36,650.0,152.0,-4.8069,-2.7776,5.5517,-120.02,22.99,-120.02,-143.01,True,BACKWARDS_LEFT,0.500,0,0,RECOVERING,False,False,True,0,True,FORCE_AWAY_FROM_PERSON|STUCK_DETECTED,0.00,0
1764572042.2728531,80.820,158,TEST2_OBSTACLE_BYPASS,True,1620.5,3819.3,4148.9,22.99,0.990,0.0,1110.0,195.0,-152.36,-148.48,-152.36,150.36,86.39,0.0128,10.0,13.009,0.4573,3.2466,3.2786,8.02,-5.4821,-5.8264,8.0000,-136.74,32,650.0,152.0,-5.0248,-2.5798,5.6484,-117.18,22.99,-117.18,-140.17,True,BACKWARDS_LEFT,0.500,0,0,RECOVERING,False,False,True,0,True,FORCE_AWAY_FROM_PERSON|STUCK_DETECTED,0.00,0
1764572042.3218086,80.869,159,TEST2_OBSTACLE_BYPASS,True,1620.5,3819.3,4148.9,22.99,0.990,0.0,1113.9,197.1,-151.43,-148.16,-151.43,150.15,86.34,-0.0021,10.0,13.106,0.4545,3.2493,3.2810,7.96,-5.4821,-5.8264,8.0000,-136.74,32,650.0,152.0,-5.0276,-2.5770,5.6496,-117.14,22.99,-117.14,-140.13,True,BACKWARDS_LEFT,0.500,0,0,RECOVERING,False,False,True,0,True,FORCE_AWAY_FROM_PERSON|STUCK_DETECTED,0.00,0
1764572042.3540466,80.901,160,TEST2_OBSTACLE_BYPASS,True,1695.2,3786.8,4148.9,24.12,0.990,0.0,1117.5,199.2,-150.60,-147.39,-150.60,150.54,86.26,-0.0149,10.0,13.203,0.5250,3.2603,3.3023,9.15,-6.1064,-5.1684,8.0000,-130.24,26,650.0,152.0,-5.5814,-1.9081,5.8985,-108.87,24.12,-108.87,-132.99,True,LEFT,0.700,0,0,RECOVERING,False,False,True,0,True,FORCE_AWAY_FROM_PERSON|STUCK_DETECTED,0.00,0
1764572042.4008875,80.948,161,TEST2_OBSTACLE_BYPASS,True,1695.2,3786.8,4148.9,24.12,0.990,0.0,1117.5,199.2,-149.74,-145.03,-149.74,151.86,86.14,-0.0501,10.0,13.309,0.5250,3.2603,3.3023,9.15,-6.5593,-4.5799,8.0000,-124.92,22,700.0,152.0,-6.0343,-1.3196,6.1769,-102.34,24.12,-102.34,-126.45,True,LEFT,0.700,0,0,RECOVERING,False,False,True,0,True,FORCE_AWAY_FROM_PERSON|STUCK_DETECTED,0.00,0
