timestamp,elapsed_time,log_number,test_mode,person_detected,person_x_mm,person_y_mm,person_distance_mm,person_angle_deg,person_confidence,time_since_person_update_ms,robot_x_mm,robot_y_mm,robot_orientation_deg,imu_yaw_raw,imu_yaw_smoothed,imu_roll,imu_pitch,imu_angular_vel_z,imu_update_rate,imu_drift_estimate,attr_force_x,attr_force_y,attr_force_magnitude,attr_force_direction_deg,repul_force_x,repul_force_y,repul_force_magnitude,repul_force_direction_deg,num_obstacles_in_range,closest_obstacle_dist_mm,closest_obstacle_angle_deg,total_force_x,total_force_y,total_force_magnitude,total_force_direction_deg,expected_direction_to_person_deg,force_direction_deg,direction_error_deg,direction_mismatch_flag,commanded_direction,commanded_speed,motor_1_speed,motor_2_speed,nav_state,nav_state_changed,goal_reached,stuck_detected,time_in_current_state_s,anomaly_detected,anomaly_type,calculation_time_ms,obstacles_filtered_for_person
1764557161.8892095,126.033,1,GENERAL,False,0.0,0.0,0.0,0.00,0.000,0.0,3197.2,-4128.8,97.69,97.69,97.69,159.72,88.14,0.0021,10.0,0.000,1.1337,-0.0520,1.1349,-2.63,0.0000,0.0000,0.0000,0.00,0,1000.0,243.0,1.1337,-0.0520,1.1349,-2.63,0.00,-2.63,0.00,False,FORWARDS,0.340,0,0,SEARCHING,True,False,True,0,True,STUCK_DETECTED,0.00,0
1764557161.9349575,126.078,2,GENERAL,True,-95.5,1991.9,1994.2,357.26,0.976,0.0,3196.6,-4124.4,97.69,97.69,97.69,159.72,88.14,0.0000,10.0,0.000,1.1303,-0.0542,1.1316,-2.74,0.0000,0.0000,0.0000,0.00,0,1000.0,243.0,1.1303,-0.0542,1.1316,-2.74,357.26,-2.74,0.00,False,FORWARDS,0.339,0,0,NAVIGATING,True,False,True,0,True,STUCK_DETECTED,0.00,1
1764557161.9710495,126.115,3,GENERAL,True,-95.5,1991.9,1994.2,357.26,0.976,0.0,3196.1,-4120.7,97.69,97.69,97.69,159.72,88.14,0.0192,10.0,0.000,1.1303,-0.0542,1.1316,-2.74,0.0000,0.0000,0.0000,0.00,0,1000.0,243.0,1.1303,-0.0542,1.1316,-2.74,357.26,-2.74,0.00,False,FORWARDS,0.339,0,0,STUCK,True,False,True,0,True,STUCK_DETECTED,0.00,1
1764557162.0129762,126.157,4,GENERAL,True,-95.5,1991.9,1994.2,357.26,0.976,0.0,3195.5,-4116.3,97.69,97.69,97.69,159.72,88.14,0.0064,10.0,0.000,1.1303,-0.0542,1.1316,-2.74,0.0000,0.0000,0.0000,0.00,0,1000.0,243.0,1.1303,-0.0542,1.1316,-2.74,357.26,-2.74,0.00,False,FORWARDS,0.339,0,0,STUCK,False,False,True,0,True,STUCK_DETECTED,0.00,1
1764557162.0551822,126.199,5,GENERAL,True,-97.3,1993.2,1995.6,357.20,0.976,0.0,3195.0,-4112.4,97.69,97.69,97.69,159.72,88.14,0.0096,10.0,0.000,1.1286,-0.0551,1.1299,-2.80,1.0951,0.4648,1.1896,23.00,1,350.0,243.0,2.2237,0.4097,2.2611,10.44,357.20,10.44,13.24,False,FORWARDS,0.678,0,0,STUCK,False,False,True,0,True,STUCK_DETECTED,0.00,1
1764557162.0935075,126.237,6,GENERAL,True,-97.3,1993.2,1995.6,357.20,0.976,0.0,3193.8,-4103.9,97.69,97.69,97.69,159.72,88.14,-0.0064,10.0,0.000,1.1286,-0.0551,1.1299,-2.80,1.0951,0.4648,1.1896,23.00,1,350.0,243.0,2.2237,0.4097,2.2611,10.44,357.20,10.44,13.24,False,FORWARDS,0.678,0,0,STUCK,False,False,True,0,True,STUCK_DETECTED,0.00,1
1764557162.1334257,126.277,7,GENERAL,True,-97.3,1993.2,1995.6,357.20,0.976,0.0,3192.8,-4096.2,97.69,97.69,97.69,159.72,88.14,-0.0085,10.0,0.000,1.1286,-0.0551,1.1299,-2.80,1.0951,0.4648,1.1896,23.00,1,350.0,243.0,2.2237,0.4097,2.2611,10.44,357.20,10.44,13.24,False,FORWARDS,0.678,0,0,STUCK,False,False,True,0,True,STUCK_DETECTED,0.00,1
1764557162.1779418,126.321,8,GENERAL,True,-97.3,1993.2,1995.6,357.20,0.976,0.0,3191.6,-4087.5,97.69,97.69,97.69,159.72,88.14,0.0064,10.0,0.000,1.1286,-0.0551,1.1299,-2.80,1.0951,0.4648,1.1896,23.00,1,350.0,243.0,2.2237,0.4097,2.2611,10.44,357.20,10.44,13.24,False,FORWARDS,0.678,0,0,STUCK,False,False,True,0,True,STUCK_DETECTED,0.00,1
1764557162.213943,126.357,9,GENERAL,True,-97.3,1993.2,1995.6,357.20,0.976,0.0,3190.6,-4079.8,97.69,97.69,97.69,159.72,88.14,0.0107,10.0,0.000,1.1286,-0.0551,1.1299,-2.80,1.0951,0.4648,1.1896,23.00,1,350.0,243.0,2.2237,0.4097,2.2611,10.44,357.20,10.44,13.24,False,FORWARDS,0.678,0,0,STUCK,False,False,True,0,True,STUCK_DETECTED,0.00,1
1764557162.2557445,126.399,10,GENERAL,True,-97.3,1993.2,1995.6,357.20,0.976,0.0,3189.4,-4071.4,97.70,97.74,97.70,159.77,88.14,0.0170,10.0,0.000,1.1286,-0.0551,1.1299,-2.80,0.0000,0.0000,0.0000,0.00,0,1000.0,243.0,1.1286,-0.0551,1.1299,-2.80,357.20,-2.80,0.00,False,FORWARDS,0.339,0,0,STUCK,False,False,True,0,True,STUCK_DETECTED,0.00,1
1764557162.2938075,126.437,11,GENERAL,True,-97.3,1993.2,1995.6,357.20,0.976,0.0,3188.9,-4067.6,97.72,97.90,97.72,159.91,88.11,0.0107,10.0,0.000,1.1286,-0.0551,1.1299,-2.80,0.0000,0.0000,0.0000,0.00,0,1000.0,243.0,1.1286,-0.0551,1.1299,-2.80,357.20,-2.80,0.00,False,FORWARDS,0.339,0,0,STUCK,False,False,True,0,True,STUCK_DETECTED,0.00,1
1764557162.337169,126.481,12,GENERAL,True,-97.3,1993.2,1995.6,357.20,0.976,0.0,3188.3,-4063.3,97.66,97.15,97.66,159.21,88.01,0.0138,10.0,0.000,1.1286,-0.0551,1.1299,-2.80,0.0000,0.0000,0.0000,0.00,0,1000.0,243.0,1.1286,-0.0551,1.1299,-2.80,357.20,-2.80,0.00,False,FORWARDS,0.339,0,0,STUCK,False,False,True,0,True,STUCK_DETECTED,0.00,1
1764557162.3766558,126.520,13,GENERAL,False,0.0,0.0,0.0,0.00,0.000,0.0,3187.8,-4059.5,97.54,96.46,97.54,158.48,88.13,-0.0011,10.0,-0.012,1.1277,-0.0572,1.1291,-2.91,0.0000,0.0000,0.0000,0.00,0,1000.0,243.0,1.1277,-0.0572,1.1291,-2.91,0.00,-2.91,0.00,False,FORWARDS,0.339,0,0,STUCK,False,False,True,0,True,STUCK_DETECTED,0.00,0
1764557162.4137073,126.557,14,GENERAL,False,0.0,0.0,0.0,0.00,0.000,0.0,3187.3,-4055.5,97.67,99.03,97.67,161.11,87.90,-0.0298,10.0,-0.013,1.1268,-0.0594,1.1283,-3.02,0.0000,0.0000,0.0000,0.00,0,1000.0,243.0,1.1268,-0.0594,1.1283,-3.02,0.00,-3.02,0.00,False,FORWARDS,0.338,0,0,STUCK,False,False,True,0,True,STUCK_DETECTED,0.00,0
1764557162.4607239,126.604,15,GENERAL,False,0.0,0.0,0.0,0.00,0.000,0.0,3186.6,-4050.8,98.02,101.20,98.02,163.18,87.79,0.0096,10.0,0.012,1.1256,-0.0620,1.1273,-3.15,0.0000,0.0000,0.0000,0.00,0,950.0,243.0,1.1256,-0.0620,1.1273,-3.15,0.00,-3.15,0.00,False,FORWARDS,0.338,0,0,STUCK,False,False,True,0,True,STUCK_DETECTED,0.00,0
1764557162.4992757,126.643,16,GENERAL,False,0.0,0.0,0.0,0.00,0.000,0.0,3186.1,-4046.9,98.36,101.01,98.36,163.00,87.59,0.0149,10.0,0.056,1.1246,-0.0641,1.1264,-3.26,0.0000,0.0000,0.0000,0.00,0,950.0,243.0,1.1246,-0.0641,1.1264,-3.26,0.00,-3.26,0.00,False,FORWARDS,0.338,0,0,STUCK,False,False,True,0,True,STUCK_DETECTED,0.00,0
1764557162.5493336,126.693,17,GENERAL,True,-99.2,1994.6,1997.1,357.15,0.973,0.0,3185.4,-4042.6,98.46,98.71,98.46,160.59,87.54,-0.0128,10.0,0.100,1.1269,-0.0560,1.1283,-2.85,0.0000,0.0000,0.0000,0.00,0,950.0,243.0,1.1269,-0.0560,1.1283,-2.85,357.15,-2.85,0.00,False,FORWARDS,0.338,0,0,STUCK,False,False,True,0,True,STUCK_DETECTED,0.00,1
1764557162.580743,126.724,18,GENERAL,True,-99.2,1994.6,1997.1,357.15,0.973,0.0,3184.9,-4038.7,98.34,96.56,98.34,158.20,87.97,-0.0277,10.0,0.133,1.1269,-0.0560,1.1283,-2.85,0.0000,0.0000,0.0000,0.00,0,950.0,243.0,1.1269,-0.0560,1.1283,-2.85,357.15,-2.85,0.00,False,FORWARDS,0.338,0,0,STUCK,False,False,True,0,True,STUCK_DETECTED,0.00,1
1764557162.6263363,126.770,19,GENERAL,True,-97.6,1994.9,1997.2,357.20,0.970,0.0,3184.2,-4034.3,98.04,94.65,98.04,156.33,88.16,-0.0213,10.0,0.145,1.1268,-0.0551,1.1281,-2.80,0.0000,0.0000,0.0000,0.00,0,950.0,243.0,1.1268,-0.0551,1.1281,-2.80,357.20,-2.80,0.00,False,FORWARDS,0.338,0,0,STUCK,False,False,True,0,True,STUCK_DETECTED,0.00,1
1764557162.6632333,126.807,20,GENERAL,True,-97.6,1994.9,1997.2,357.20,0.970,0.0,3183.7,-4030.5,97.83,95.61,97.83,157.27,88.18,-0.0096,10.0,0.144,1.1268,-0.0551,1.1281,-2.80,0.0000,0.0000,0.0000,0.00,0,950.0,243.0,1.1268,-0.0551,1.1281,-2.80,357.20,-2.80,0.00,False,FORWARDS,0.338,0,0,STUCK,False,False,True,0,True,STUCK_DETECTED,0.00,1
1764557162.7075305,126.851,21,GENERAL,True,-96.0,1995.1,1997.4,357.25,0.967,0.0,3183.1,-4026.2,97.80,97.63,97.80,159.20,88.06,0.0107,10.0,0.143,1.1266,-0.0542,1.1279,-2.75,0.0000,0.0000,0.0000,0.00,0,950.0,243.0,1.1266,-0.0542,1.1279,-2.75,357.25,-2.75,0.00,False,FORWARDS,0.338,0,0,STUCK,False,False,True,0,True,STUCK_DETECTED,0.00,1
1764557162.7459462,126.889,22,GENERAL,True,-96.0,1995.1,1997.4,357.25,0.967,0.0,3182.6,-4022.4,97.86,97.71,97.86,159.22,87.94,0.0085,10.0,0.144,1.1266,-0.0542,1.1279,-2.75,0.0000,0.0000,0.0000,0.00,0,950.0,243.0,1.1266,-0.0542,1.1279,-2.75,357.25,-2.75,0.00,False,FORWARDS,0.338,0,0,STUCK,False,False,True,0,True,STUCK_DETECTED,0.00,1
1764557162.7863448,126.930,23,GENERAL,True,-97.6,1994.9,1997.2,357.20,0.967,0.0,3182.0,-4018.2,97.82,96.11,97.82,157.62,87.94,0.0213,10.0,0.143,1.1268,-0.0551,1.1281,-2.80,0.0000,0.0000,0.0000,0.00,0,950.0,243.0,1.1268,-0.0551,1.1281,-2.80,357.20,-2.80,0.00,False,FORWARDS,0.338,0,0,STUCK,False,False,True,0,True,STUCK_DETECTED,0.00,1
1764557162.8239717,126.968,24,GENERAL,True,-97.6,1994.9,1997.2,357.20,0.967,0.0,3181.5,-4014.3,97.33,94.12,97.33,155.77,87.94,0.0107,10.0,0.121,1.1268,-0.0551,1.1281,-2.80,0.0000,0.0000,0.0000,0.00,0,950.0,243.0,1.1268,-0.0551,1.1281,-2.80,357.20,-2.80,0.00,False,FORWARDS,0.338,0,0,STUCK,False,False,True,0,True,STUCK_DETECTED,0.00,1
1764557162.8657906,127.009,25,GENERAL,True,-97.6,1994.9,1997.2,357.20,0.967,0.0,3181.0,-4010.2,96.82,96.05,96.82,157.69,87.87,-0.0213,10.0,0.080,1.1268,-0.0551,1.1281,-2.80,0.0000,0.0000,0.0000,0.00,0,950.0,243.0,1.1268,-0.0551,1.1281,-2.80,357.20,-2.80,0.00,False,FORWARDS,0.338,0,0,STUCK,False,False,True,0,True,STUCK_DETECTED,0.00,1
1764557162.9085922,127.052,26,GENERAL,True,-97.6,1994.9,1997.2,357.20,0.967,0.0,3180.5,-4005.8,96.57,98.58,96.57,160.29,87.67,-0.0341,10.0,0.032,1.1268,-0.0551,1.1281,-2.80,0.0000,0.0000,0.0000,0.00,0,950.0,243.0,1.1268,-0.0551,1.1281,-2.80,357.20,-2.80,0.00,False,FORWARDS,0.338,0,0,STUCK,False,False,True,0,True,STUCK_DETECTED,0.00,1
1764557162.9474175,127.091,27,GENERAL,True,-97.6,1994.9,1997.2,357.20,0.967,0.0,3180.1,-4002.0,96.60,99.01,96.60,160.79,87.73,0.0288,10.0,-0.011,1.1268,-0.0551,1.1281,-2.80,0.0000,0.0000,0.0000,0.00,0,950.0,243.0,1.1268,-0.0551,1.1281,-2.80,357.20,-2.80,0.00,False,FORWARDS,0.338,0,0,STUCK,False,False,True,0,True,STUCK_DETECTED,0.00,1
1764557162.987693,127.131,28,GENERAL,True,-97.6,1994.9,1997.2,357.20,0.967,0.0,3179.6,-3997.7,96.53,95.82,96.53,157.75,87.81,0.0362,10.0,-0.053,1.1268,-0.0551,1.1281,-2.80,0.0000,0.0000,0.0000,0.00,0,950.0,243.0,1.1268,-0.0551,1.1281,-2.80,357.20,-2.80,0.00,False,FORWARDS,0.338,0,0,STUCK,False,False,True,0,True,STUCK_DETECTED,0.00,1
1764557163.029787,127.173,29,GENERAL,True,-97.6,1994.9,1997.2,357.20,0.967,0.0,3179.1,-3993.8,96.58,95.14,96.58,157.05,87.78,-0.0011,10.0,-0.091,1.1268,-0.0551,1.1281,-2.80,0.0000,0.0000,0.0000,0.00,0,950.0,243.0,1.1268,-0.0551,1.1281,-2.80,357.20,-2.80,0.00,False,FORWARDS,0.338,0,0,STUCK,False,False,True,0,True,STUCK_DETECTED,0.00,1
1764557163.0703537,127.214,30,GENERAL,True,-90.9,1963.2,1965.3,357.35,0.892,0.0,3178.6,-3989.5,96.71,96.88,96.71,158.80,87.77,-0.0277,10.0,-0.122,1.1638,-0.0539,1.1651,-2.65,0.0000,0.0000,0.0000,0.00,0,950.0,243.0,1.1638,-0.0539,1.1651,-2.65,357.35,-2.65,-0.00,False,FORWARDS,0.350,0,0,STUCK,False,False,True,0,True,STUCK_DETECTED,0.00,1
1764557163.1089911,127.253,31,GENERAL,True,-90.9,1963.2,1965.3,357.35,0.892,0.0,3178.2,-3985.6,96.76,98.20,96.76,160.08,87.81,-0.0096,10.0,-0.149,1.1638,-0.0539,1.1651,-2.65,0.0000,0.0000,0.0000,0.00,0,950.0,243.0,1.1638,-0.0539,1.1651,-2.65,357.35,-2.65,-0.00,False,FORWARDS,0.350,0,0,STUCK,False,False,True,0,True,STUCK_DETECTED,0.00,1
1764557163.1509626,127.294,32,GENERAL,True,-90.9,1963.2,1965.3,357.35,0.892,0.0,3177.6,-3981.1,96.69,97.02,96.69,159.01,87.81,0.0192,10.0,-0.176,1.1638,-0.0539,1.1651,-2.65,0.0000,0.0000,0.0000,0.00,0,950.0,243.0,1.1638,-0.0539,1.1651,-2.65,357.35,-2.65,-0.00,False,FORWARDS,0.350,0,0,STUCK,False,False,True,0,True,STUCK_DETECTED,0.00,1
1764557163.1859682,127.330,33,GENERAL,True,-90.9,1963.2,1965.3,357.35,0.892,0.0,3177.2,-3977.3,96.70,96.18,96.70,158.21,87.76,-0.0043,10.0,-0.202,1.1638,-0.0539,1.1651,-2.65,0.0000,0.0000,0.0000,0.00,0,900.0,243.0,1.1638,-0.0539,1.1651,-2.65,357.35,-2.65,-0.00,False,FORWARDS,0.350,0,0,STUCK,False,False,True,0,True,STUCK_DETECTED,0.00,1
1764557163.2325745,127.376,34,GENERAL,True,-93.9,1934.5,1936.8,357.22,0.931,0.0,3176.6,-3972.8,96.97,96.82,96.97,158.91,87.64,-0.0043,10.0,-0.217,1.1982,-0.0581,1.1997,-2.78,0.0000,0.0000,0.0000,0.00,0,900.0,243.0,1.1982,-0.0581,1.1997,-2.78,357.22,-2.78,0.00,False,FORWARDS,0.360,0,0,STUCK,False,False,True,0,True,STUCK_DETECTED,0.00,5
1764557163.269641,127.413,35,GENERAL,True,-93.9,1934.5,1936.8,357.22,0.931,0.0,3176.1,-3968.7,97.08,97.19,97.08,159.31,87.67,-0.0128,10.0,-0.229,1.1982,-0.0581,1.1997,-2.78,0.0000,0.0000,0.0000,0.00,0,900.0,243.0,1.1982,-0.0581,1.1997,-2.78,357.22,-2.78,0.00,False,FORWARDS,0.360,0,0,STUCK,False,False,True,0,True,STUCK_DETECTED,0.00,5
1764557163.3147883,127.458,36,GENERAL,True,-96.2,1919.1,1921.5,357.13,0.959,0.0,3175.6,-3964.2,96.92,96.90,96.92,159.08,87.65,0.0011,10.0,-0.244,1.2173,-0.0610,1.2188,-2.87,0.0000,0.0000,0.0000,0.00,0,900.0,243.0,1.2173,-0.0610,1.2188,-2.87,357.13,-2.87,0.00,False,FORWARDS,0.366,0,0,STUCK,False,False,True,0,True,STUCK_DETECTED,0.00,5
1764557163.3477654,127.491,37,GENERAL,True,-96.2,1919.1,1921.5,357.13,0.959,0.0,3175.1,-3960.1,96.67,96.50,96.67,158.73,87.66,0.0085,10.0,-0.266,1.2173,-0.0610,1.2188,-2.87,0.0000,0.0000,0.0000,0.00,0,900.0,243.0,1.2173,-0.0610,1.2188,-2.87,357.13,-2.87,0.00,False,FORWARDS,0.366,0,0,STUCK,False,False,True,0,True,STUCK_DETECTED,0.00,5
1764557163.393658,127.537,38,GENERAL,True,-102.4,1912.0,1914.7,356.93,0.957,0.0,3174.6,-3955.6,96.74,96.60,96.74,158.84,87.70,-0.0064,10.0,-0.284,1.2257,-0.0657,1.2274,-3.07,0.0000,0.0000,0.0000,0.00,0,900.0,243.0,1.2257,-0.0657,1.2274,-3.07,356.93,-3.07,0.00,False,FORWARDS,0.368,0,0,STUCK,False,False,True,0,True,STUCK_DETECTED,0.00,5
1764557163.4297721,127.573,39,GENERAL,True,-102.4,1912.0,1914.7,356.93,0.957,0.0,3174.1,-3951.3,96.92,96.93,96.92,159.23,87.65,0.0011,10.0,-0.297,1.2257,-0.0657,1.2274,-3.07,0.0000,0.0000,0.0000,0.00,0,950.0,243.0,1.2257,-0.0657,1.2274,-3.07,356.93,-3.07,0.00,False,FORWARDS,0.368,0,0,STUCK,False,False,True,0,True,STUCK_DETECTED,0.00,5
1764557163.4765332,127.620,40,GENERAL,True,-102.4,1912.0,1914.7,356.93,0.957,0.0,3173.4,-3946.3,96.96,97.22,96.96,159.61,87.62,0.0138,10.0,-0.308,1.2257,-0.0657,1.2274,-3.07,0.0000,0.0000,0.0000,0.00,0,950.0,243.0,1.2257,-0.0657,1.2274,-3.07,356.93,-3.07,0.00,False,FORWARDS,0.368,0,0,STUCK,False,False,True,0,True,STUCK_DETECTED,0.00,3
1764557163.5155363,127.659,41,GENERAL,True,-102.4,1912.0,1914.7,356.93,0.957,0.0,3172.9,-3942.1,96.82,96.83,96.82,159.28,87.58,0.0160,10.0,-0.322,1.2257,-0.0657,1.2274,-3.07,0.0000,0.0000,0.0000,0.00,0,950.0,243.0,1.2257,-0.0657,1.2274,-3.07,356.93,-3.07,0.00,False,FORWARDS,0.368,0,0,STUCK,False,False,True,0,True,STUCK_DETECTED,0.00,3
1764557163.556031,127.700,42,GENERAL,True,-102.4,1912.0,1914.7,356.93,0.957,0.0,3172.4,-3937.6,96.70,95.85,96.70,158.44,87.56,0.0053,10.0,-0.339,1.2257,-0.0657,1.2274,-3.07,0.0000,0.0000,0.0000,0.00,0,900.0,243.0,1.2257,-0.0657,1.2274,-3.07,356.93,-3.07,0.00,False,FORWARDS,0.368,0,0,STUCK,False,False,True,0,True,STUCK_DETECTED,0.00,2
1764557163.5955496,127.739,43,GENERAL,True,-102.4,1912.0,1914.7,356.93,0.957,0.0,3171.9,-3933.2,96.70,96.13,96.70,158.77,87.58,-0.0117,10.0,-0.354,1.2257,-0.0657,1.2274,-3.07,0.0000,0.0000,0.0000,0.00,0,900.0,243.0,1.2257,-0.0657,1.2274,-3.07,356.93,-3.07,0.00,False,FORWARDS,0.368,0,0,STUCK,False,False,True,0,True,STUCK_DETECTED,0.00,2
1764557163.6351864,127.779,44,GENERAL,True,-102.4,1912.0,1914.7,356.93,0.957,0.0,3171.4,-3928.8,96.73,97.17,96.73,159.84,87.65,-0.0032,10.0,-0.368,1.2257,-0.0657,1.2274,-3.07,0.0000,0.0000,0.0000,0.00,0,900.0,243.0,1.2257,-0.0657,1.2274,-3.07,356.93,-3.07,0.00,False,FORWARDS,0.368,0,0,STUCK,False,False,True,0,True,STUCK_DETECTED,0.00,1
1764557163.6744664,127.818,45,GENERAL,True,-102.4,1912.0,1914.7,356.93,0.957,0.0,3170.8,-3924.2,96.69,96.80,96.69,159.57,87.67,0.0128,10.0,-0.382,1.2257,-0.0657,1.2274,-3.07,0.0000,0.0000,0.0000,0.00,0,900.0,243.0,1.2257,-0.0657,1.2274,-3.07,356.93,-3.07,0.00,False,FORWARDS,0.368,0,0,STUCK,False,False,True,0,True,STUCK_DETECTED,0.00,1
1764557163.7121198,127.856,46,GENERAL,False,0.0,0.0,0.0,0.00,0.000,0.0,3170.4,-3920.1,96.58,95.82,96.58,158.76,87.61,0.0064,10.0,-0.398,1.2246,-0.0682,1.2265,-3.19,0.0000,0.0000,0.0000,0.00,0,900.0,243.0,1.2246,-0.0682,1.2265,-3.19,0.00,-3.19,0.00,False,FORWARDS,0.368,0,0,STUCK,False,False,True,0,True,STUCK_DETECTED,0.00,0
1764557163.757417,127.901,47,GENERAL,False,0.0,0.0,0.0,0.00,0.000,0.0,3169.8,-3915.2,96.52,95.90,96.52,158.94,87.66,-0.0170,10.0,-0.415,1.2234,-0.0713,1.2255,-3.33,0.0000,0.0000,0.0000,0.00,0,900.0,243.0,1.2234,-0.0713,1.2255,-3.33,0.00,-3.33,0.00,False,FORWARDS,0.368,0,0,STUCK,False,False,True,0,True,STUCK_DETECTED,0.00,0
1764557163.7928188,127.936,48,GENERAL,False,0.0,0.0,0.0,0.00,0.000,0.0,3169.4,-3911.3,96.49,96.25,96.49,159.44,87.58,0.0107,10.0,-0.432,1.2224,-0.0737,1.2246,-3.45,0.0000,0.0000,0.0000,0.00,0,900.0,243.0,1.2224,-0.0737,1.2246,-3.45,0.00,-3.45,0.00,False,FORWARDS,0.367,0,0,STUCK,False,False,True,0,True,STUCK_DETECTED,0.00,0
1764557163.8353949,127.979,49,GENERAL,False,0.0,0.0,0.0,0.00,0.000,0.0,3168.8,-3906.6,96.44,96.43,96.44,159.74,87.61,-0.0149,10.0,-0.449,1.2212,-0.0766,1.2236,-3.59,0.0000,0.0000,0.0000,0.00,0,900.0,243.0,1.2212,-0.0766,1.2236,-3.59,0.00,-3.59,0.00,False,FORWARDS,0.367,0,0,STUCK,False,False,True,0,True,STUCK_DETECTED,0.00,0
1764557163.873099,128.017,50,GENERAL,False,0.0,0.0,0.0,0.00,0.000,0.0,3168.4,-3902.5,96.34,96.27,96.34,159.66,87.62,0.0075,10.0,-0.467,1.2201,-0.0791,1.2226,-3.71,0.0000,0.0000,0.0000,0.00,0,900.0,243.0,1.2201,-0.0791,1.2226,-3.71,0.00,-3.71,0.00,False,FORWARDS,0.367,0,0,STUCK,False,False,True,0,True,STUCK_DETECTED,0.00,0
1764557163.915483,128.059,51,GENERAL,False,0.0,0.0,0.0,0.00,0.000,0.0,3167.9,-3897.9,96.20,95.42,96.20,159.03,87.62,0.0021,10.0,-0.488,1.2189,-0.0820,1.2216,-3.85,0.0000,0.0000,0.0000,0.00,0,900.0,243.0,1.2189,-0.0820,1.2216,-3.85,0.00,-3.85,0.00,False,FORWARDS,0.366,0,0,STUCK,False,False,True,0,True,STUCK_DETECTED,0.00,0
1764557163.9575324,128.101,52,GENERAL,True,-100.1,1891.4,1894.0,356.97,0.948,0.0,3167.4,-3893.6,96.16,95.41,96.16,159.11,87.57,0.0064,10.0,-0.508,1.2527,-0.0663,1.2544,-3.03,0.0000,0.0000,0.0000,0.00,0,900.0,243.0,1.2527,-0.0663,1.2544,-3.03,356.97,-3.03,-0.00,False,FORWARDS,0.376,0,0,STUCK,False,False,True,0,True,STUCK_DETECTED,0.00,3
1764557163.9954581,128.139,53,GENERAL,True,-100.1,1891.4,1894.0,356.97,0.948,0.0,3166.9,-3889.2,96.11,95.66,96.11,159.45,87.58,-0.0096,10.0,-0.529,1.2527,-0.0663,1.2544,-3.03,0.0000,0.0000,0.0000,0.00,0,900.0,243.0,1.2527,-0.0663,1.2544,-3.03,356.97,-3.03,-0.00,False,FORWARDS,0.376,0,0,STUCK,False,False,True,0,True,STUCK_DETECTED,0.00,3
1764557164.036008,128.180,54,GENERAL,True,-100.1,1891.4,1894.0,356.97,0.948,0.0,3166.5,-3884.7,95.94,95.40,95.94,159.29,87.64,-0.0011,10.0,-0.552,1.2527,-0.0663,1.2544,-3.03,0.0000,0.0000,0.0000,0.00,0,900.0,243.0,1.2527,-0.0663,1.2544,-3.03,356.97,-3.03,-0.00,False,FORWARDS,0.376,0,0,STUCK,False,False,True,0,True,STUCK_DETECTED,0.00,2
1764557164.0765765,128.220,55,GENERAL,True,-100.1,1891.4,1894.0,356.97,0.948,0.0,3166.0,-3880.2,95.79,95.38,95.79,159.38,87.65,0.0000,10.0,-0.577,1.2527,-0.0663,1.2544,-3.03,0.0000,0.0000,0.0000,0.00,0,900.0,243.0,1.2527,-0.0663,1.2544,-3.03,356.97,-3.03,-0.00,False,FORWARDS,0.376,0,0,STUCK,False,False,True,0,True,STUCK_DETECTED,0.00,2
1764557164.1179807,128.262,56,GENERAL,True,-106.0,1867.9,1870.9,356.75,0.981,0.0,3165.5,-3875.5,95.73,95.22,95.73,159.33,87.65,-0.0011,10.0,-0.602,1.2836,-0.0729,1.2856,-3.25,0.0000,0.0000,0.0000,0.00,0,900.0,243.0,1.2836,-0.0729,1.2856,-3.25,356.75,-3.25,0.00,False,FORWARDS,0.386,0,0,STUCK,False,False,True,0,True,STUCK_DETECTED,0.00,2
1764557164.1559975,128.300,57,GENERAL,True,-106.0,1867.9,1870.9,356.75,0.981,0.0,3165.1,-3871.0,95.65,95.05,95.65,159.35,87.53,0.0075,10.0,-0.627,1.2836,-0.0729,1.2856,-3.25,0.0000,0.0000,0.0000,0.00,0,900.0,243.0,1.2836,-0.0729,1.2856,-3.25,356.75,-3.25,0.00,False,FORWARDS,0.386,0,0,STUCK,False,False,True,0,True,STUCK_DETECTED,0.00,2
1764557164.1972651,128.341,58,GENERAL,True,-106.0,1867.9,1870.9,356.75,0.981,0.0,3164.6,-3866.1,95.55,95.24,95.55,159.62,87.58,-0.0149,10.0,-0.654,1.2836,-0.0729,1.2856,-3.25,0.0000,0.0000,0.0000,0.00,0,900.0,243.0,1.2836,-0.0729,1.2856,-3.25,356.75,-3.25,0.00,False,FORWARDS,0.386,0,0,STUCK,False,False,True,0,True,STUCK_DETECTED,0.00,2
1764557164.2414756,128.385,59,GENERAL,True,-106.0,1867.9,1870.9,356.75,0.981,0.0,3164.2,-3861.7,95.46,95.50,95.46,159.92,87.67,0.0085,10.0,-0.681,1.2836,-0.0729,1.2856,-3.25,0.0000,0.0000,0.0000,0.00,0,900.0,243.0,1.2836,-0.0729,1.2856,-3.25,356.75,-3.25,0.00,False,FORWARDS,0.386,0,0,STUCK,False,False,True,0,True,STUCK_DETECTED,0.00,2
1764557164.2784336,128.422,60,GENERAL,True,-106.0,1867.9,1870.9,356.75,0.981,0.0,3163.8,-3856.8,95.31,94.86,95.31,159.50,87.51,0.0277,10.0,-0.710,1.2836,-0.0729,1.2856,-3.25,0.0000,0.0000,0.0000,0.00,0,900.0,243.0,1.2836,-0.0729,1.2856,-3.25,356.75,-3.25,0.00,False,FORWARDS,0.386,0,0,STUCK,False,False,True,0,True,STUCK_DETECTED,0.00,2
1764557164.3189585,128.462,61,GENERAL,True,-106.0,1867.9,1870.9,356.75,0.981,0.0,3163.4,-3852.5,95.23,94.58,95.23,159.31,87.63,-0.0096,10.0,-0.739,1.2836,-0.0729,1.2856,-3.25,0.0000,0.0000,0.0000,0.00,0,900.0,243.0,1.2836,-0.0729,1.2856,-3.25,356.75,-3.25,0.00,False,FORWARDS,0.386,0,0,STUCK,False,False,True,0,True,STUCK_DETECTED,0.00,2
1764557164.3611832,128.505,62,GENERAL,True,-106.0,1867.9,1870.9,356.75,0.981,0.0,3162.9,-3847.5,95.19,95.00,95.19,159.88,87.54,0.0032,10.0,-0.768,1.2836,-0.0729,1.2856,-3.25,0.0000,0.0000,0.0000,0.00,0,900.0,243.0,1.2836,-0.0729,1.2856,-3.25,356.75,-3.25,0.00,False,FORWARDS,0.386,0,0,STUCK,False,False,True,0,True,STUCK_DETECTED,0.00,2
1764557164.400501,128.544,63,GENERAL,True,-106.0,1867.9,1870.9,356.75,0.981,0.0,3162.5,-3843.1,95.10,94.78,95.10,159.76,87.62,-0.0160,10.0,-0.797,1.2836,-0.0729,1.2856,-3.25,0.0000,0.0000,0.0000,0.00,0,850.0,243.0,1.2836,-0.0729,1.2856,-3.25,356.75,-3.25,0.00,False,FORWARDS,0.386,0,0,STUCK,False,False,True,0,True,STUCK_DETECTED,0.00,1
1764557164.4388707,128.582,64,GENERAL,False,0.0,0.0,0.0,0.00,0.000,0.0,3162.1,-3838.1,95.03,94.70,95.03,159.87,87.59,-0.0149,10.0,-0.827,1.2824,-0.0762,1.2846,-3.40,0.0000,0.0000,0.0000,0.00,0,850.0,243.0,1.2824,-0.0762,1.2846,-3.40,0.00,-3.40,0.00,False,FORWARDS,0.385,0,0,STUCK,False,False,True,0,True,STUCK_DETECTED,0.00,0
1764557164.483994,128.628,65,GENERAL,False,0.0,0.0,0.0,0.00,0.000,0.0,3161.6,-3833.3,94.96,94.62,94.96,159.94,87.52,0.0170,10.0,-0.857,1.2812,-0.0795,1.2837,-3.55,0.0000,0.0000,0.0000,0.00,0,850.0,243.0,1.2812,-0.0795,1.2837,-3.55,0.00,-3.55,0.00,False,FORWARDS,0.385,0,0,STUCK,False,False,True,0,True,STUCK_DETECTED,0.00,0
1764557164.5166256,128.660,66,GENERAL,False,0.0,0.0,0.0,0.00,0.000,0.0,3161.3,-3829.3,94.82,93.85,94.82,159.26,87.59,-0.0021,10.0,-0.888,1.2802,-0.0821,1.2829,-3.67,0.0000,0.0000,0.0000,0.00,0,850.0,243.0,1.2802,-0.0821,1.2829,-3.67,0.00,-3.67,0.00,False,FORWARDS,0.385,0,0,STUCK,False,False,True,0,True,STUCK_DETECTED,0.00,0
1764557164.5587845,128.702,67,GENERAL,True,-195.9,1824.7,1835.2,353.87,0.995,0.0,3160.9,-3824.6,94.69,93.75,94.69,159.28,87.62,-0.0085,10.0,-0.920,1.3285,-0.1427,1.3361,-6.13,0.0000,0.0000,0.0000,0.00,0,850.0,243.0,1.3285,-0.1427,1.3361,-6.13,353.87,-6.13,0.00,False,FORWARDS,0.401,0,0,STUCK,False,False,True,0,True,STUCK_DETECTED,0.00,4
1764557164.60014,128.744,68,GENERAL,True,-195.9,1824.7,1835.2,353.87,0.995,0.0,3160.5,-3819.8,94.53,93.63,94.53,159.37,87.50,0.0043,10.0,-0.953,1.3285,-0.1427,1.3361,-6.13,0.0000,0.0000,0.0000,0.00,0,850.0,243.0,1.3285,-0.1427,1.3361,-6.13,353.87,-6.13,0.00,False,FORWARDS,0.401,0,0,STUCK,False,False,True,0,True,STUCK_DETECTED,0.00,4
1764557164.6425948,128.786,69,GENERAL,True,-189.2,1807.7,1817.5,354.02,0.997,0.0,3160.2,-3814.9,94.32,93.39,94.32,159.18,87.74,0.0043,10.0,-0.989,1.3548,-0.1418,1.3622,-5.98,0.0000,0.0000,0.0000,0.00,0,850.0,243.0,1.3548,-0.1418,1.3622,-5.98,354.02,-5.98,0.00,False,FORWARDS,0.409,0,0,STUCK,False,False,True,0,True,STUCK_DETECTED,0.00,4
1764557164.6796095,128.823,70,GENERAL,True,-189.2,1807.7,1817.5,354.02,0.997,0.0,3159.8,-3810.2,94.16,93.33,94.16,159.27,87.61,0.0043,10.0,-1.025,1.3548,-0.1418,1.3622,-5.98,0.0000,0.0000,0.0000,0.00,0,850.0,243.0,1.3548,-0.1418,1.3622,-5.98,354.02,-5.98,0.00,False,FORWARDS,0.409,0,0,STUCK,False,False,True,0,True,STUCK_DETECTED,0.00,4
1764557164.7250276,128.869,71,GENERAL,True,-186.3,1795.7,1805.3,354.08,0.998,0.0,3159.5,-3804.8,94.03,93.20,94.03,159.30,87.59,-0.0107,10.0,-1.063,1.3733,-0.1425,1.3807,-5.92,0.0000,0.0000,0.0000,0.00,0,850.0,243.0,1.3733,-0.1425,1.3807,-5.92,354.08,-5.92,0.00,False,FORWARDS,0.414,0,0,STUCK,False,False,True,0,True,STUCK_DETECTED,0.00,5
1764557164.762603,128.906,72,GENERAL,True,-186.3,1795.7,1805.3,354.08,0.998,0.0,3159.1,-3800.1,93.84,93.13,93.84,159.32,87.60,-0.0021,10.0,-1.102,1.3733,-0.1425,1.3807,-5.92,0.0000,0.0000,0.0000,0.00,0,850.0,243.0,1.3733,-0.1425,1.3807,-5.92,354.08,-5.92,0.00,False,FORWARDS,0.414,0,0,STUCK,False,False,True,0,True,STUCK_DETECTED,0.00,5
1764557164.8017244,128.945,73,GENERAL,True,-189.6,1783.0,1793.0,353.93,0.996,0.0,3158.8,-3794.9,93.65,92.85,93.65,159.15,87.65,0.0021,10.0,-1.143,1.3918,-0.1480,1.3997,-6.07,0.0000,0.0000,0.0000,0.00,0,850.0,243.0,1.3918,-0.1480,1.3997,-6.07,353.93,-6.07,0.00,False,FORWARDS,0.420,0,0,STUCK,False,False,True,0,True,STUCK_DETECTED,0.00,7
1764557164.8425307,128.986,74,GENERAL,True,-189.6,1783.0,1793.0,353.93,0.996,0.0,3158.5,-3789.9,93.48,93.02,93.48,159.40,87.68,-0.0064,10.0,-1.185,1.3918,-0.1480,1.3997,-6.07,0.0000,0.0000,0.0000,0.00,0,850.0,243.0,1.3918,-0.1480,1.3997,-6.07,353.93,-6.07,0.00,False,FORWARDS,0.420,0,0,STUCK,False,False,True,0,True,STUCK_DETECTED,0.00,7
1764557164.8834603,129.027,75,GENERAL,True,-189.6,1783.0,1793.0,353.93,0.996,0.0,3158.2,-3784.6,93.32,93.08,93.32,159.54,87.73,-0.0032,10.0,-1.228,1.3918,-0.1480,1.3997,-6.07,0.0000,0.0000,0.0000,0.00,0,850.0,243.0,1.3918,-0.1480,1.3997,-6.07,353.93,-6.07,0.00,False,FORWARDS,0.420,0,0,STUCK,False,False,True,0,True,STUCK_DETECTED,0.00,7
1764557164.9223492,129.066,76,GENERAL,True,-189.6,1783.0,1793.0,353.93,0.996,0.0,3157.9,-3779.9,93.23,92.94,93.23,159.59,87.57,0.0096,10.0,-1.271,1.3918,-0.1480,1.3997,-6.07,0.0000,0.0000,0.0000,0.00,0,850.0,243.0,1.3918,-0.1480,1.3997,-6.07,353.93,-6.07,0.00,False,FORWARDS,0.420,0,0,STUCK,False,False,True,0,True,STUCK_DETECTED,0.00,7
1764557164.9698837,129.113,77,GENERAL,True,-189.6,1783.0,1793.0,353.93,0.996,0.0,3157.6,-3774.5,93.12,92.64,93.12,159.46,87.59,0.0000,10.0,-1.315,1.3918,-0.1480,1.3997,-6.07,0.0000,0.0000,0.0000,0.00,0,850.0,243.0,1.3918,-0.1480,1.3997,-6.07,353.93,-6.07,0.00,False,FORWARDS,0.420,0,0,STUCK,False,False,True,0,True,STUCK_DETECTED,0.00,7
1764557165.0035632,129.147,78,GENERAL,True,-189.6,1783.0,1793.0,353.93,0.996,0.0,3157.4,-3769.7,93.02,92.66,93.02,159.55,87.61,-0.0096,10.0,-1.358,1.3918,-0.1480,1.3997,-6.07,0.0000,0.0000,0.0000,0.00,0,850.0,243.0,1.3918,-0.1480,1.3997,-6.07,353.93,-6.07,0.00,False,FORWARDS,0.420,0,0,STUCK,False,False,True,0,True,STUCK_DETECTED,0.00,7
1764557165.0433486,129.187,79,GENERAL,True,-189.6,1783.0,1793.0,353.93,0.996,0.0,3157.1,-3764.4,92.97,92.89,92.97,160.00,87.61,0.0064,10.0,-1.401,1.3918,-0.1480,1.3997,-6.07,0.0000,0.0000,0.0000,0.00,0,850.0,243.0,1.3918,-0.1480,1.3997,-6.07,353.93,-6.07,0.00,False,FORWARDS,0.420,0,0,STUCK,False,False,True,0,True,STUCK_DETECTED,0.00,6
1764557165.09062,129.234,80,GENERAL,True,-189.6,1783.0,1793.0,353.93,0.996,0.0,3156.8,-3759.2,92.94,92.97,92.94,160.18,87.68,0.0096,10.0,-1.444,1.3918,-0.1480,1.3997,-6.07,0.0000,0.0000,0.0000,0.00,0,850.0,243.0,1.3918,-0.1480,1.3997,-6.07,353.93,-6.07,0.00,False,FORWARDS,0.420,0,0,STUCK,False,False,True,0,True,STUCK_DETECTED,0.00,6
1764557165.122692,129.266,81,GENERAL,False,0.0,0.0,0.0,0.00,0.000,0.0,3156.6,-3754.5,92.89,92.73,92.89,160.08,87.66,0.0075,10.0,-1.485,1.3903,-0.1516,1.3985,-6.22,0.0000,0.0000,0.0000,0.00,0,850.0,243.0,1.3903,-0.1516,1.3985,-6.22,0.00,-6.22,0.00,False,FORWARDS,0.420,0,0,STUCK,False,False,True,0,True,STUCK_DETECTED,0.00,0
1764557165.165989,129.310,82,GENERAL,False,0.0,0.0,0.0,0.00,0.000,0.0,3156.3,-3749.3,92.86,92.88,92.86,160.27,87.76,-0.0107,10.0,-1.527,1.3886,-0.1553,1.3973,-6.38,0.0000,0.0000,0.0000,0.00,0,850.0,243.0,1.3886,-0.1553,1.3973,-6.38,0.00,-6.38,0.00,False,FORWARDS,0.419,0,0,STUCK,False,False,True,0,True,STUCK_DETECTED,0.00,0
1764557165.2079399,129.351,83,GENERAL,True,-284.3,1749.4,1772.3,350.77,1.000,0.0,3156.1,-3744.0,92.81,92.27,92.81,159.87,87.71,-0.0160,10.0,-1.568,1.4140,-0.2298,1.4326,-9.23,0.0000,0.0000,0.0000,0.00,0,850.0,243.0,1.4140,-0.2298,1.4326,-9.23,350.77,-9.23,0.00,False,FORWARDS,0.430,0,0,STUCK,False,False,True,0,True,STUCK_DETECTED,0.00,5
1764557165.2524633,129.396,84,GENERAL,True,-282.1,1735.3,1758.1,350.77,1.000,0.0,3155.8,-3738.3,92.77,92.63,92.77,160.31,87.79,-0.0085,10.0,-1.608,1.4371,-0.2336,1.4559,-9.23,0.0000,0.0000,0.0000,0.00,0,850.0,243.0,1.4371,-0.2336,1.4559,-9.23,350.77,-9.23,0.00,False,FORWARDS,0.437,0,0,STUCK,False,False,True,0,True,STUCK_DETECTED,0.00,5
1764557165.2874932,129.431,85,GENERAL,True,-282.1,1735.3,1758.1,350.77,1.000,0.0,3155.6,-3733.5,92.74,92.79,92.74,160.64,87.69,-0.0021,10.0,-1.648,1.4371,-0.2336,1.4559,-9.23,0.0000,0.0000,0.0000,0.00,0,850.0,243.0,1.4371,-0.2336,1.4559,-9.23,350.77,-9.23,0.00,False,FORWARDS,0.437,0,0,STUCK,False,False,True,0,True,STUCK_DETECTED,0.00,5
1764557165.3349686,129.479,86,GENERAL,True,-286.8,1720.4,1744.1,350.54,1.000,0.0,3155.3,-3727.8,92.73,92.82,92.73,160.76,87.74,0.0117,10.0,-1.687,1.4591,-0.2432,1.4793,-9.46,0.0000,0.0000,0.0000,0.00,0,850.0,243.0,1.4591,-0.2432,1.4793,-9.46,350.54,-9.46,0.00,False,FORWARDS,0.444,0,0,STUCK,False,False,True,0,True,STUCK_DETECTED,0.00,8
1764557165.371347,129.515,87,GENERAL,True,-320.5,1714.4,1744.1,349.41,1.000,0.0,3155.1,-3722.8,92.73,92.64,92.73,160.65,87.79,0.0053,10.0,-1.725,1.4541,-0.2718,1.4793,-10.59,0.0000,0.0000,0.0000,0.00,0,850.0,243.0,1.4541,-0.2718,1.4793,-10.59,349.41,-10.59,0.00,False,FORWARDS,0.444,0,0,STUCK,False,False,True,0,True,STUCK_DETECTED,0.00,8
1764557165.417258,129.561,88,GENERAL,True,-323.5,1700.0,1730.5,349.23,1.000,0.0,3154.8,-3716.6,92.74,92.73,92.74,160.85,87.80,0.0064,10.0,-1.762,1.4762,-0.2809,1.5027,-10.77,0.0000,0.0000,0.0000,0.00,0,850.0,243.0,1.4762,-0.2809,1.5027,-10.77,349.23,-10.77,0.00,False,FORWARDS,0.451,0,0,STUCK,False,False,True,0,True,STUCK_DETECTED,0.00,10
1764557165.4593422,129.603,89,GENERAL,True,-323.5,1700.0,1730.5,349.23,1.000,0.0,3154.5,-3710.9,92.72,92.70,92.72,160.90,87.78,0.0011,10.0,-1.799,1.4762,-0.2809,1.5027,-10.77,0.0000,0.0000,0.0000,0.00,0,850.0,243.0,1.4762,-0.2809,1.5027,-10.77,349.23,-10.77,0.00,False,FORWARDS,0.451,0,0,STUCK,False,False,True,0,True,STUCK_DETECTED,0.00,10
1764557165.503148,129.647,90,GENERAL,True,-323.5,1700.0,1730.5,349.23,1.000,0.0,3154.2,-3705.1,92.65,92.25,92.65,160.75,87.62,-0.0075,10.0,-1.835,1.4762,-0.2809,1.5027,-10.77,0.0000,0.0000,0.0000,0.00,0,850.0,244.0,1.4762,-0.2809,1.5027,-10.77,349.23,-10.77,0.00,False,FORWARDS,0.451,0,0,STUCK,False,False,True,0,True,STUCK_DETECTED,0.00,9
1764557165.5391014,129.683,91,GENERAL,True,-323.5,1700.0,1730.5,349.23,1.000,0.0,3154.0,-3700.1,92.63,92.54,92.63,161.00,87.78,-0.0021,10.0,-1.871,1.4762,-0.2809,1.5027,-10.77,0.0000,0.0000,0.0000,0.00,0,850.0,244.0,1.4762,-0.2809,1.5027,-10.77,349.23,-10.77,0.00,False,FORWARDS,0.451,0,0,STUCK,False,False,True,0,True,STUCK_DETECTED,0.00,9
1764557165.587106,129.731,92,GENERAL,True,-356.8,1693.3,1730.5,348.10,1.000,0.0,3153.7,-3693.8,92.62,92.83,92.62,161.45,87.83,0.0075,10.0,-1.906,1.4704,-0.3098,1.5027,-11.90,0.0000,0.0000,0.0000,0.00,0,850.0,244.0,1.4704,-0.3098,1.5027,-11.90,348.10,-11.90,0.00,False,FORWARDS,0.451,0,0,STUCK,False,False,True,0,True,STUCK_DETECTED,0.00,6
1764557165.6266682,129.770,93,GENERAL,True,-356.8,1693.3,1730.5,348.10,1.000,0.0,3153.5,-3688.4,92.64,92.47,92.64,161.24,87.75,0.0096,10.0,-1.940,1.4704,-0.3098,1.5027,-11.90,0.0000,0.0000,0.0000,0.00,0,850.0,244.0,1.4704,-0.3098,1.5027,-11.90,348.10,-11.90,0.00,False,FORWARDS,0.451,0,0,STUCK,False,False,True,0,True,STUCK_DETECTED,0.00,6
1764557165.6623092,129.806,94,GENERAL,True,-356.8,1693.3,1730.5,348.10,1.000,0.0,3153.2,-3683.4,92.60,92.20,92.60,161.08,87.81,-0.0138,10.0,-1.974,1.4704,-0.3098,1.5027,-11.90,0.0000,0.0000,0.0000,0.00,0,850.0,244.0,1.4704,-0.3098,1.5027,-11.90,348.10,-11.90,0.00,False,FORWARDS,0.451,0,0,STUCK,False,False,True,0,True,STUCK_DETECTED,0.00,5
1764557165.7089496,129.852,95,GENERAL,True,-356.8,1693.3,1730.5,348.10,1.000,0.0,3153.0,-3677.4,92.62,92.96,92.62,161.92,87.85,0.0011,10.0,-2.007,1.4704,-0.3098,1.5027,-11.90,0.0000,0.0000,0.0000,0.00,0,850.0,244.0,1.4704,-0.3098,1.5027,-11.90,348.10,-11.90,0.00,False,FORWARDS,0.451,0,0,STUCK,False,False,True,0,True,STUCK_DETECTED,0.00,5
1764557165.7427938,129.886,96,GENERAL,False,0.0,0.0,0.0,0.00,0.000,0.0,3152.7,-3672.4,92.64,93.04,92.64,162.08,87.80,0.0128,10.0,-2.039,1.4673,-0.3135,1.5005,-12.06,-0.7443,-0.8412,1.1232,-131.50,0,800.0,244.0,0.7230,-1.1548,1.3625,-57.95,0.00,-57.95,0.00,False,FORWARDS_LEFT,0.327,0,0,STUCK,False,False,True,0,True,STUCK_DETECTED,0.00,0
1764557165.7854366,129.929,97,GENERAL,False,0.0,0.0,0.0,0.00,0.000,0.0,3152.6,-3669.5,92.72,93.51,92.72,162.24,87.82,-0.0064,10.0,-2.070,1.4656,-0.3156,1.4992,-12.15,-0.3767,-0.4184,0.5630,-132.00,0,800.0,244.0,1.0888,-0.7340,1.3132,-33.99,0.00,-33.99,0.00,False,FORWARDS_LEFT,0.315,0,0,STUCK,False,False,True,0,True,STUCK_DETECTED,0.00,0
1764557165.8313072,129.975,98,GENERAL,False,0.0,0.0,0.0,0.00,0.000,0.0,3152.5,-3666.4,92.75,93.00,92.75,161.18,87.82,0.0266,10.0,-2.099,1.4637,-0.3178,1.4978,-12.25,-0.7443,-0.8412,1.1232,-131.50,0,800.0,244.0,0.7194,-1.1591,1.3642,-58.17,0.00,-58.17,0.00,False,FORWARDS_LEFT,0.327,0,0,STUCK,False,False,True,0,True,STUCK_DETECTED,0.00,0
1764557165.8697789,130.013,99,GENERAL,False,0.0,0.0,0.0,0.00,0.000,0.0,3152.3,-3663.9,92.69,92.04,92.69,159.77,87.88,0.0213,10.0,-2.129,1.4621,-0.3197,1.4967,-12.33,-0.3767,-0.4184,0.5630,-132.00,0,800.0,244.0,1.0854,-0.7381,1.3126,-34.22,0.00,-34.22,0.00,False,FORWARDS_LEFT,0.315,0,0,STUCK,False,False,True,0,True,STUCK_DETECTED,0.00,0
1764557165.9124944,130.056,100,GENERAL,False,0.0,0.0,0.0,0.00,0.000,0.0,3152.2,-3660.9,92.64,91.80,92.64,159.33,87.79,0.0021,10.0,-2.158,1.4603,-0.3218,1.4953,-12.43,-0.3767,-0.4184,0.5630,-132.00,0,800.0,245.0,1.0836,-0.7402,1.3123,-34.34,0.00,-34.34,0.00,False,FORWARDS_LEFT,0.315,0,0,STUCK,False,False,True,0,True,STUCK_DETECTED,0.00,0
1764557165.9558413,130.099,101,GENERAL,False,0.0,0.0,0.0,0.00,0.000,0.0,3152.1,-3658.1,92.60,92.14,92.60,159.42,87.70,-0.0011,10.0,-2.188,1.4586,-0.3238,1.4941,-12.52,-0.7443,-0.8412,1.1232,-131.50,0,800.0,245.0,0.7143,-1.1651,1.3666,-58.49,0.00,-58.49,0.00,False,FORWARDS_LEFT,0.328,0,0,STUCK,False,False,True,0,True,STUCK_DETECTED,0.00,0
1764557166.0023787,130.146,102,GENERAL,True,-414.9,1636.3,1688.1,345.77,0.999,0.0,3151.9,-3655.0,92.49,91.69,92.49,158.78,87.66,0.0309,10.0,-2.240,1.5307,-0.3881,1.5792,-14.23,-0.7443,-0.8412,1.1232,-131.50,0,800.0,245.0,0.7864,-1.2293,1.4594,-57.39,345.77,-57.39,-43.17,False,FORWARDS_LEFT,0.350,0,0,STUCK,False,False,True,0,True,STUCK_DETECTED,0.00,9
1764557166.0372381,130.181,103,GENERAL,True,-414.9,1636.3,1688.1,345.77,0.999,0.0,3151.8,-3652.4,92.31,90.72,92.31,157.83,87.66,0.0277,10.0,-2.293,1.5307,-0.3881,1.5792,-14.23,-0.7443,-0.8412,1.1232,-131.50,0,800.0,245.0,0.7864,-1.2293,1.4594,-57.39,345.77,-57.39,-43.17,False,FORWARDS_LEFT,0.350,0,0,STUCK,False,False,True,0,True,STUCK_DETECTED,0.00,8
1764557166.084765,130.228,104,GENERAL,True,-414.9,1636.3,1688.1,345.77,0.999,0.0,3151.7,-3649.0,92.11,90.23,92.11,157.48,87.67,-0.0213,10.0,-2.349,1.5307,-0.3881,1.5792,-14.23,-0.7443,-0.8412,1.1232,-131.50,0,800.0,245.0,0.7864,-1.2293,1.4594,-57.39,345.77,-57.39,-43.17,False,FORWARDS_LEFT,0.350,0,0,STUCK,False,False,True,0,True,STUCK_DETECTED,0.00,8
1764557166.1219296,130.265,105,GENERAL,True,-467.9,1586.8,1654.4,343.57,0.997,0.0,3151.6,-3646.3,91.90,90.84,91.90,158.12,87.68,-0.0224,10.0,-2.407,1.5770,-0.4650,1.6442,-16.43,-0.8054,-0.8945,1.2036,-132.00,1,750.0,245.0,0.7716,-1.3595,1.5632,-60.42,343.57,-60.42,-43.99,False,LEFT,0.281,0,0,STUCK,False,False,True,0,True,TURNING_WRONG_WAY|STUCK_DETECTED,0.00,7
1764557166.166353,130.310,106,GENERAL,True,-467.9,1586.8,1654.4,343.57,0.997,0.0,3151.6,-3646.3,91.81,92.07,91.81,159.22,87.71,0.0181,10.0,-2.466,1.5770,-0.4650,1.6442,-16.43,-0.8054,-0.8945,1.2036,-132.00,1,750.0,245.0,0.7716,-1.3595,1.5632,-60.42,343.57,-60.42,-43.99,False,LEFT,0.281,0,0,STUCK,False,False,True,0,True,TURNING_WRONG_WAY|STUCK_DETECTED,0.00,7
1764557166.2140973,130.358,107,GENERAL,True,-499.0,1577.3,1654.4,342.44,0.997,0.0,3151.6,-3646.3,91.63,91.74,91.63,158.67,87.76,0.0192,10.0,-2.526,1.5676,-0.4959,1.6442,-17.56,-1.1451,-1.3292,1.7544,-130.74,1,750.0,246.0,0.4225,-1.8251,1.8734,-76.97,342.44,-76.97,-59.41,False,LEFT,0.337,0,0,STUCK,False,False,True,0,True,TURNING_WRONG_WAY|STUCK_DETECTED,0.00,5
1764557166.2583408,130.402,108,GENERAL,True,-499.0,1577.3,1654.4,342.44,0.997,0.0,3151.6,-3646.3,91.38,90.48,91.38,157.18,87.68,0.0192,10.0,-2.590,1.5676,-0.4959,1.6442,-17.56,-1.1451,-1.3292,1.7544,-130.74,1,750.0,246.0,0.4225,-1.8251,1.8734,-76.97,342.44,-76.97,-59.41,False,LEFT,0.337,0,0,STUCK,False,False,True,0,True,TURNING_WRONG_WAY|STUCK_DETECTED,0.00,5
1764557166.2960372,130.440,109,GENERAL,True,-499.0,1577.3,1654.4,342.44,0.997,0.0,3151.6,-3646.3,91.21,90.37,91.21,156.87,87.63,0.0000,10.0,-2.654,1.5676,-0.4959,1.6442,-17.56,-2.7629,-3.1955,4.2243,-130.85,4,750.0,246.0,-1.1954,-3.6914,3.8801,-107.94,342.44,-107.94,-90.39,True,LEFT,0.600,0,0,STUCK,False,False,True,0,True,FORCE_AWAY_FROM_PERSON|TURNING_WRONG_WAY|STUCK_DETECTED,0.00,5
1764557166.3397205,130.483,110,GENERAL,True,-499.0,1577.3,1654.4,342.44,0.997,0.0,3151.6,-3646.3,91.13,91.02,91.13,157.33,87.70,-0.0096,10.0,-2.720,1.5676,-0.4959,1.6442,-17.56,-2.7201,-3.1332,4.1492,-130.96,3,750.0,240.0,-1.1525,-3.6291,3.8077,-107.62,342.44,-107.62,-90.06,True,LEFT,0.600,0,0,STUCK,False,False,True,0,True,FORCE_AWAY_FROM_PERSON|TURNING_WRONG_WAY|STUCK_DETECTED,0.00,4
1764557166.382014,130.526,111,GENERAL,True,-499.0,1577.3,1654.4,342.44,0.997,0.0,3151.6,-3646.3,91.14,92.20,91.14,158.17,87.68,0.0000,10.0,-2.786,1.5676,-0.4959,1.6442,-17.56,-2.7201,-3.1332,4.1492,-130.96,3,750.0,240.0,-1.1525,-3.6291,3.8077,-107.62,342.44,-107.62,-90.06,True,LEFT,0.600,0,0,STUCK,False,False,True,0,True,FORCE_AWAY_FROM_PERSON|TURNING_WRONG_WAY|STUCK_DETECTED,0.00,4
1764557166.4205198,130.564,112,GENERAL,True,-529.9,1567.2,1654.4,341.32,0.997,0.0,3151.6,-3646.3,91.17,91.99,91.17,157.10,87.59,0.0373,10.0,-2.851,1.5575,-0.5266,1.6442,-18.68,-3.1778,-4.0771,5.1693,-127.93,4,750.0,240.0,-1.6202,-4.6037,4.8805,-109.39,341.32,-109.39,-90.71,True,LEFT,0.600,0,0,STUCK,False,False,True,0,True,FORCE_AWAY_FROM_PERSON|TURNING_WRONG_WAY|STUCK_DETECTED,0.00,3
1764557166.4627748,130.606,113,GENERAL,False,0.0,0.0,0.0,0.00,0.000,0.0,3151.6,-3646.3,91.09,89.99,91.09,153.74,87.65,0.0149,10.0,-2.915,1.5575,-0.5266,1.6442,-18.68,-3.1778,-4.0771,5.1693,-127.93,4,750.0,240.0,-1.6202,-4.6037,4.8805,-109.39,0.00,-109.39,0.00,False,LEFT,0.600,0,0,STUCK,False,False,True,0,True,STUCK_DETECTED,0.00,0
1764557166.5002394,130.644,114,GENERAL,False,0.0,0.0,0.0,0.00,0.000,0.0,3151.6,-3646.3,90.97,88.97,90.97,151.97,87.63,-0.0138,10.0,-2.982,1.5575,-0.5266,1.6442,-18.68,-3.0321,-4.4309,5.3690,-124.38,3,750.0,240.0,-1.4255,-4.7925,5.0000,-106.56,0.00,-106.56,0.00,False,LEFT,0.600,0,0,STUCK,False,False,True,0,True,STUCK_DETECTED,0.00,0
1764557166.543843,130.687,115,GENERAL,False,0.0,0.0,0.0,0.00,0.000,0.0,3151.6,-3646.3,90.99,91.11,90.99,153.58,87.78,-0.0160,10.0,-3.053,1.5575,-0.5266,1.6442,-18.68,-3.0321,-4.4309,5.3690,-124.38,3,750.0,240.0,-1.4255,-4.7925,5.0000,-106.56,0.00,-106.56,0.00,False,LEFT,0.600,0,0,STUCK,False,False,True,0,True,STUCK_DETECTED,0.00,0
1764557166.5846887,130.728,116,GENERAL,False,0.0,0.0,0.0,0.00,0.000,0.0,3151.6,-3646.3,91.00,92.11,91.00,154.68,87.66,0.0011,10.0,-3.126,1.5575,-0.5266,1.6442,-18.68,-3.7730,-5.4320,6.6138,-124.78,5,750.0,236.0,-1.7425,-4.6866,5.0000,-110.40,0.00,-110.40,0.00,False,LEFT,0.600,0,0,STUCK,False,False,True,0,True,STUCK_DETECTED,0.00,0
1764557166.6216948,130.765,117,GENERAL,True,-509.2,1514.1,1597.4,341.41,0.999,0.0,3151.6,-3646.3,91.08,92.59,91.08,155.15,87.66,0.0213,10.0,-3.200,1.6716,-0.5621,1.7636,-18.59,-3.7730,-5.4320,6.6138,-124.78,5,750.0,236.0,-1.6542,-4.7184,5.0000,-109.32,341.41,-109.32,-90.73,True,LEFT,0.600,0,0,STUCK,False,False,True,0,True,FORCE_AWAY_FROM_PERSON|TURNING_WRONG_WAY|STUCK_DETECTED,0.00,12
1764557166.6683607,130.812,118,GENERAL,True,-509.2,1514.1,1597.4,341.41,0.999,0.0,3151.6,-3646.3,91.28,92.45,91.28,154.95,87.68,0.0000,10.0,-3.271,1.6716,-0.5621,1.7636,-18.59,-3.7018,-4.9828,6.2074,-126.61,5,750.0,236.0,-1.7191,-4.6952,5.0000,-110.11,341.41,-110.11,-91.52,True,LEFT,0.600,0,0,STUCK,False,False,True,0,True,FORCE_AWAY_FROM_PERSON|TURNING_WRONG_WAY|STUCK_DETECTED,0.00,10
1764557166.7141888,130.858,119,GENERAL,True,-490.2,1490.4,1569.0,341.79,0.999,0.0,3151.6,-3646.3,91.63,93.89,91.63,156.24,87.65,-0.0021,10.0,-3.335,1.7365,-0.5711,1.8280,-18.21,-3.7018,-4.9828,6.2074,-126.61,5,750.0,236.0,-1.6680,-4.7136,5.0000,-109.49,341.79,-109.49,-91.28,True,LEFT,0.600,0,0,STUCK,False,False,True,0,True,FORCE_AWAY_FROM_PERSON|TURNING_WRONG_WAY|STUCK_DETECTED,0.00,18
1764557166.7489452,130.892,120,GENERAL,True,-490.2,1490.4,1569.0,341.79,0.999,0.0,3151.6,-3646.3,92.07,95.44,92.07,157.57,87.66,-0.0362,10.0,-3.392,1.7365,-0.5711,1.8280,-18.21,-4.3061,-5.4968,6.9827,-128.07,5,750.0,236.0,-1.9498,-4.6042,5.0000,-112.95,341.79,-112.95,-94.75,True,LEFT,0.600,0,0,STUCK,False,False,True,0,True,FORCE_AWAY_FROM_PERSON|TURNING_WRONG_WAY|STUCK_DETECTED,0.00,17
1764557166.7880626,130.932,121,GENERAL,True,-457.2,1481.4,1550.4,342.85,1.000,0.0,3151.6,-3646.3,92.37,95.21,92.37,156.93,87.68,0.0181,10.0,-3.447,1.7889,-0.5521,1.8722,-17.15,-4.3061,-5.4968,6.9827,-128.07,5,750.0,236.0,-1.9210,-4.6163,5.0000,-112.59,342.85,-112.59,-95.44,True,LEFT,0.600,0,0,STUCK,False,False,True,0,True,FORCE_AWAY_FROM_PERSON|TURNING_WRONG_WAY|STUCK_DETECTED,0.00,21
1764557166.8315985,130.975,122,GENERAL,True,-486.2,1472.1,1550.4,341.72,1.000,0.0,3151.6,-3646.3,92.52,93.44,92.52,154.45,87.78,0.0746,10.0,-3.500,1.7778,-0.5871,1.8722,-18.28,-3.8290,-4.9524,6.2600,-127.71,3,750.0,236.0,-1.7362,-4.6889,5.0000,-110.32,341.72,-110.32,-92.04,True,LEFT,0.600,0,0,STUCK,False,False,True,0,True,FORCE_AWAY_FROM_PERSON|TURNING_WRONG_WAY|STUCK_DETECTED,0.00,18
1764557166.8681107,131.012,123,GENERAL,True,-486.2,1472.1,1550.4,341.72,1.000,0.0,3151.6,-3646.3,92.67,91.54,92.67,151.45,87.51,0.0277,10.0,-3.551,1.7778,-0.5871,1.8722,-18.28,-3.8290,-4.9524,6.2600,-127.71,3,750.0,236.0,-1.7362,-4.6889,5.0000,-110.32,341.72,-110.32,-92.04,True,LEFT,0.600,0,0,STUCK,False,False,True,0,True,FORCE_AWAY_FROM_PERSON|TURNING_WRONG_WAY|STUCK_DETECTED,0.00,18
1764557166.913921,131.057,124,GENERAL,True,-486.2,1472.1,1550.4,341.72,1.000,0.0,3151.6,-3646.3,93.01,92.38,93.01,150.30,87.38,-0.0181,10.0,-3.595,1.7778,-0.5871,1.8722,-18.28,-4.3085,-5.8735,7.2843,-126.26,3,750.0,236.0,-1.8237,-4.6556,5.0000,-111.39,341.72,-111.39,-93.11,True,LEFT,0.600,0,0,STUCK,False,False,True,0,True,FORCE_AWAY_FROM_PERSON|TURNING_WRONG_WAY|STUCK_DETECTED,0.00,15
1764557166.9662375,131.110,125,GENERAL,True,-486.2,1472.1,1550.4,341.72,1.000,0.0,3151.6,-3646.3,93.35,94.47,93.35,149.52,87.56,-0.0341,10.0,-3.629,1.7778,-0.5871,1.8722,-18.28,-3.9137,-5.4647,6.7216,-125.61,3,750.0,236.0,-1.6641,-4.7150,5.0000,-109.44,341.72,-109.44,-91.16,True,LEFT,0.600,0,0,STUCK,False,False,True,0,True,FORCE_AWAY_FROM_PERSON|TURNING_WRONG_WAY|STUCK_DETECTED,0.00,13
1764557167.0016522,131.145,126,GENERAL,True,-486.2,1472.1,1550.4,341.72,1.000,0.0,3151.6,-3646.3,93.70,95.63,93.70,149.04,87.54,0.0096,10.0,-3.658,1.7778,-0.5871,1.8722,-18.28,-3.9137,-5.4647,6.7216,-125.61,3,750.0,236.0,-1.6641,-4.7150,5.0000,-109.44,341.72,-109.44,-91.16,True,LEFT,0.600,0,0,RECOVERING,True,False,True,0,True,FORCE_AWAY_FROM_PERSON|TURNING_WRONG_WAY|STUCK_DETECTED,0.00,13
1764557167.0445666,131.188,127,GENERAL,True,-515.0,1462.3,1550.4,340.60,1.000,0.0,3151.6,-3646.3,94.02,95.81,94.02,147.81,87.41,0.0266,10.0,-3.684,1.7659,-0.6219,1.8722,-19.40,-3.6500,-5.0080,6.1970,-126.09,3,750.0,233.0,-1.5868,-4.7415,5.0000,-108.50,340.60,-108.50,-89.10,False,LEFT,0.600,0,0,RECOVERING,False,False,True,0,True,TURNING_WRONG_WAY|STUCK_DETECTED,0.00,11
1764557167.0884492,131.232,128,GENERAL,False,0.0,0.0,0.0,0.00,0.000,0.0,3151.6,-3646.3,94.36,95.83,94.36,146.02,87.37,-0.0075,10.0,-3.705,1.7659,-0.6219,1.8722,-19.40,-3.6500,-5.0080,6.1970,-126.09,3,750.0,233.0,-1.5868,-4.7415,5.0000,-108.50,0.00,-108.50,0.00,False,LEFT,0.600,0,0,RECOVERING,False,False,True,0,True,STUCK_DETECTED,0.00,0
1764557167.1316962,131.275,129,GENERAL,False,0.0,0.0,0.0,0.00,0.000,0.0,3151.6,-3646.3,94.63,96.58,94.63,145.22,87.47,-0.0266,10.0,-3.725,1.7659,-0.6219,1.8722,-19.40,-3.4054,-4.5480,5.6817,-126.82,3,750.0,233.0,-1.5115,-4.7661,5.0000,-107.60,0.00,-107.60,0.00,False,LEFT,0.600,0,0,RECOVERING,False,False,True,0,True,STUCK_DETECTED,0.00,0
1764557167.1677148,131.311,130,GENERAL,False,0.0,0.0,0.0,0.00,0.000,0.0,3151.6,-3646.3,94.83,97.48,94.83,145.23,87.48,-0.0170,10.0,-3.744,1.7659,-0.6219,1.8722,-19.40,-3.4054,-4.5480,5.6817,-126.82,3,750.0,233.0,-1.5115,-4.7661,5.0000,-107.60,0.00,-107.60,0.00,False,LEFT,0.600,0,0,RECOVERING,False,False,True,0,True,STUCK_DETECTED,0.00,0
1764557167.2176085,131.361,131,GENERAL,True,-381.0,1489.8,1537.7,345.66,0.983,0.0,3151.6,-3646.3,95.21,98.94,95.21,145.49,87.44,-0.0117,10.0,-3.759,1.8437,-0.4715,1.9031,-14.34,-3.6025,-4.0838,5.4457,-131.42,3,750.0,233.0,-1.7587,-4.5553,4.8830,-111.11,345.66,-111.11,-96.77,True,LEFT,0.600,0,0,RECOVERING,False,False,True,0,True,FORCE_AWAY_FROM_PERSON|TURNING_WRONG_WAY|STUCK_DETECTED,0.00,19
1764557167.250408,131.394,132,GENERAL,True,-381.0,1489.8,1537.7,345.66,0.983,0.0,3151.6,-3646.3,95.83,99.63,95.83,145.19,87.35,0.0011,10.0,-3.768,1.8437,-0.4715,1.9031,-14.34,-3.6025,-4.0838,5.4457,-131.42,3,750.0,233.0,-1.7587,-4.5553,4.8830,-111.11,345.66,-111.11,-96.77,True,LEFT,0.600,0,0,RECOVERING,False,False,True,0,True,FORCE_AWAY_FROM_PERSON|TURNING_WRONG_WAY|STUCK_DETECTED,0.00,19
1764557167.2964752,131.440,133,GENERAL,True,-381.0,1489.8,1537.7,345.66,0.983,0.0,3151.6,-3646.3,96.67,100.02,96.67,144.70,87.36,-0.0064,10.0,-3.768,1.8437,-0.4715,1.9031,-14.34,-3.8090,-3.6201,5.2548,-136.46,3,750.0,233.0,-1.9652,-4.0915,4.5390,-115.66,345.66,-115.66,-101.31,True,LEFT,0.600,0,0,RECOVERING,False,False,True,0,True,FORCE_AWAY_FROM_PERSON|TURNING_WRONG_WAY|STUCK_DETECTED,0.00,18
1764557167.3451724,131.489,134,GENERAL,True,-381.0,1489.8,1537.7,345.66,0.983,0.0,3151.6,-3646.3,97.48,100.39,97.48,144.38,87.37,-0.0202,10.0,-3.763,1.8437,-0.4715,1.9031,-14.34,-3.8090,-3.6201,5.2548,-136.46,3,750.0,233.0,-1.9652,-4.0915,4.5390,-115.66,345.66,-115.66,-101.31,True,LEFT,0.600,0,0,RECOVERING,False,False,True,0,True,FORCE_AWAY_FROM_PERSON|TURNING_WRONG_WAY|STUCK_DETECTED,0.00,18
1764557167.3787632,131.522,135,GENERAL,True,-196.5,1530.7,1543.3,352.69,0.683,0.0,3151.6,-3646.3,98.16,101.35,98.16,144.25,87.45,0.0011,10.0,-3.752,1.8740,-0.2406,1.8894,-7.31,-3.7612,-2.7030,4.6317,-144.30,3,750.0,233.0,-1.8872,-2.9436,3.4966,-122.66,352.69,-122.66,-115.35,True,LEFT,0.500,0,0,RECOVERING,False,False,True,0,True,FORCE_AWAY_FROM_PERSON|TURNING_WRONG_WAY|STUCK_DETECTED,0.00,9
1764557167.4230008,131.567,136,GENERAL,True,-196.5,1530.7,1543.3,352.69,0.683,0.0,3151.6,-3646.3,98.76,101.58,98.76,143.57,87.30,-0.0160,10.0,-3.734,1.8740,-0.2406,1.8894,-7.31,-3.7612,-2.7030,4.6317,-144.30,3,750.0,233.0,-1.8872,-2.9436,3.4966,-122.66,352.69,-122.66,-115.35,True,LEFT,0.500,0,0,RECOVERING,False,False,True,0,True,FORCE_AWAY_FROM_PERSON|TURNING_WRONG_WAY|STUCK_DETECTED,0.00,9
1764557167.4702263,131.614,137,GENERAL,True,-196.5,1530.7,1543.3,352.69,0.683,0.0,3151.6,-3646.3,99.46,102.85,99.46,143.03,87.39,-0.0181,10.0,-3.706,1.8740,-0.2406,1.8894,-7.31,-3.0364,-1.7989,3.5293,-149.36,2,750.0,233.0,-1.1624,-2.0394,2.3474,-119.68,352.69,-119.68,-112.37,True,LEFT,0.423,0,0,RECOVERING,False,False,True,0,True,FORCE_AWAY_FROM_PERSON|TURNING_WRONG_WAY|STUCK_DETECTED,0.00,7
1764557167.5099378,131.653,138,GENERAL,True,-196.5,1530.7,1543.3,352.69,0.683,0.0,3151.6,-3646.3,100.26,103.83,100.26,142.64,87.39,0.0011,10.0,-3.671,1.8740,-0.2406,1.8894,-7.31,-2.5849,-0.8424,2.7187,-161.95,3,750.0,233.0,-0.7109,-1.0830,1.2955,-123.28,352.69,-123.28,-115.97,True,LEFT,0.194,0,0,RECOVERING,False,False,True,0,True,FORCE_AWAY_FROM_PERSON|TURNING_WRONG_WAY|STUCK_DETECTED,0.00,7
1764557167.5471244,131.691,139,GENERAL,True,-196.5,1530.7,1543.3,352.69,0.683,0.0,3151.6,-3646.3,101.04,104.33,101.04,142.17,87.43,0.0011,10.0,-3.629,1.8740,-0.2406,1.8894,-7.31,-2.5849,-0.8424,2.7187,-161.95,3,750.0,233.0,-0.7109,-1.0830,1.2955,-123.28,352.69,-123.28,-115.97,True,LEFT,0.194,0,0,RECOVERING,False,False,True,0,True,FORCE_AWAY_FROM_PERSON|TURNING_WRONG_WAY|STUCK_DETECTED,0.00,7
1764557167.6044385,131.748,140,GENERAL,True,-196.5,1530.7,1543.3,352.69,0.683,0.0,3151.6,-3646.3,101.82,105.26,101.82,141.93,87.37,-0.0107,10.0,-3.581,1.8740,-0.2406,1.8894,-7.31,-2.6921,-0.7925,2.8063,-163.60,4,750.0,233.0,-0.8181,-1.0331,1.3178,-128.37,352.69,-128.37,-121.06,True,LEFT,0.198,0,0,RECOVERING,False,False,True,0,True,FORCE_AWAY_FROM_PERSON|TURNING_WRONG_WAY|STUCK_DETECTED,0.00,6
1764557167.648756,131.792,141,GENERAL,True,-196.5,1530.7,1543.3,352.69,0.683,0.0,3151.6,-3646.3,102.58,106.52,102.58,142.08,87.41,-0.0085,10.0,-3.523,1.8740,-0.2406,1.8894,-7.31,-2.6921,-0.7925,2.8063,-163.60,4,750.0,233.0,-0.8181,-1.0331,1.3178,-128.37,352.69,-128.37,-121.06,True,LEFT,0.198,0,0,RECOVERING,False,False,True,0,True,FORCE_AWAY_FROM_PERSON|TURNING_WRONG_WAY|STUCK_DETECTED,0.00,6
1764557167.6815999,131.825,142,GENERAL,True,-196.5,1530.7,1543.3,352.69,0.683,0.0,3151.6,-3646.3,103.38,107.69,103.38,142.18,87.40,0.0011,10.0,-3.456,1.8740,-0.2406,1.8894,-7.31,-2.5082,-0.2907,2.5250,-173.39,5,750.0,233.0,-0.6342,-0.5312,0.8273,-140.05,352.69,-140.05,-132.73,True,LEFT,0.124,0,0,RECOVERING,False,False,True,0,True,FORCE_AWAY_FROM_PERSON|TURNING_WRONG_WAY|STUCK_DETECTED,0.00,5
1764557167.7333906,131.877,143,GENERAL,False,0.0,0.0,0.0,0.00,0.000,0.0,3151.6,-3646.3,104.14,107.62,104.14,140.54,87.32,0.0181,10.0,-3.382,1.8740,-0.2406,1.8894,-7.31,-1.4499,0.1126,1.4543,175.56,3,750.0,233.0,0.4241,-0.1280,0.4430,-16.79,0.00,-16.79,0.00,False,FORWARDS,0.133,0,0,RECOVERING,False,False,True,0,True,STUCK_DETECTED,0.00,0
1764557167.7708595,131.914,144,GENERAL,False,0.0,0.0,0.0,0.00,0.000,0.0,3151.2,-3644.8,104.82,107.19,104.82,139.46,87.42,-0.0021,10.0,-3.301,1.8724,-0.2421,1.8880,-7.37,-1.4499,0.1126,1.4543,175.56,3,750.0,233.0,0.4225,-0.1295,0.4419,-17.04,0.00,-17.04,0.00,False,FORWARDS,0.133,0,0,RECOVERING,False,False,True,0,True,STUCK_DETECTED,0.00,0
1764557167.8123367,131.956,145,GENERAL,False,0.0,0.0,0.0,0.00,0.000,0.0,3150.8,-3643.2,105.48,107.88,105.48,139.10,87.28,0.0000,10.0,-3.213,1.8706,-0.2437,1.8864,-7.42,-0.6761,1.0214,1.2249,123.50,2,750.0,226.0,1.1945,0.7777,1.4254,33.06,0.00,33.06,0.00,False,FORWARDS_RIGHT,0.342,0,0,RECOVERING,False,False,True,0,True,STUCK_DETECTED,0.00,0
1764557167.858244,132.002,146,GENERAL,False,0.0,0.0,0.0,0.00,0.000,0.0,3149.9,-3640.1,106.17,108.55,106.17,139.34,87.39,0.0288,10.0,-3.117,1.8671,-0.2468,1.8833,-7.53,-1.0436,0.5986,1.2031,150.16,2,750.0,226.0,0.8234,0.3517,0.8954,23.13,0.00,23.13,0.00,False,FORWARDS,0.269,0,0,RECOVERING,False,False,True,0,True,STUCK_DETECTED,0.00,0
1764557167.902617,132.046,147,GENERAL,True,135.1,1603.7,1609.4,4.82,0.972,0.0,3148.9,-3636.9,106.63,107.45,106.63,137.84,87.29,0.0288,10.0,-3.016,1.7313,0.1458,1.7374,4.82,-0.6761,1.0214,1.2249,123.50,2,750.0,285.0,1.0552,1.1672,1.5735,47.89,4.82,47.89,43.07,False,FORWARDS_RIGHT,0.378,0,0,RECOVERING,False,False,True,0,True,STUCK_DETECTED,0.00,0
1764557167.9384065,132.082,148,GENERAL,True,166.5,1600.7,1609.4,5.94,0.972,0.0,3148.1,-3634.1,106.93,106.82,106.93,137.07,87.22,-0.0032,10.0,-2.912,1.7281,0.1798,1.7374,5.94,-0.6761,1.0214,1.2249,123.50,2,750.0,285.0,1.0520,1.2012,1.5967,48.79,5.94,48.79,42.85,False,FORWARDS_RIGHT,0.383,0,0,RECOVERING,False,False,True,0,True,STUCK_DETECTED,0.00,0
1764557167.989625,132.133,149,GENERAL,True,166.5,1600.7,1609.4,5.94,0.972,0.0,3146.9,-3630.2,107.41,109.11,107.41,139.20,87.30,-0.0458,10.0,-2.802,1.7281,0.1798,1.7374,5.94,-0.6761,1.0214,1.2249,123.50,2,750.0,285.0,1.0520,1.2012,1.5967,48.79,5.94,48.79,42.85,False,FORWARDS_RIGHT,0.383,0,0,RECOVERING,False,False,True,0,True,STUCK_DETECTED,0.00,0
1764557168.0314007,132.175,150,GENERAL,True,166.5,1600.7,1609.4,5.94,0.972,0.0,3145.8,-3627.1,108.08,112.00,108.08,142.09,87.22,-0.0479,10.0,-2.685,1.7281,0.1798,1.7374,5.94,-0.6761,1.0214,1.2249,123.50,2,750.0,285.0,1.0520,1.2012,1.5967,48.79,5.94,48.79,42.85,False,FORWARDS_RIGHT,0.383,0,0,RECOVERING,False,False,True,0,True,STUCK_DETECTED,0.00,0
1764557168.0697532,132.213,151,GENERAL,True,166.5,1600.7,1609.4,5.94,0.972,0.0,3144.8,-3624.0,108.62,111.85,108.62,141.98,87.44,0.0309,10.0,-2.561,1.7281,0.1798,1.7374,5.94,-0.6761,1.0214,1.2249,123.50,2,750.0,285.0,1.0520,1.2012,1.5967,48.79,5.94,48.79,42.85,False,FORWARDS_RIGHT,0.383,0,0,RECOVERING,False,False,True,0,True,STUCK_DETECTED,0.00,0
1764557168.1211479,132.265,152,GENERAL,True,166.5,1600.7,1609.4,5.94,0.972,0.0,3143.5,-3620.1,108.78,109.31,108.78,139.52,87.28,0.0352,10.0,-2.434,1.7281,0.1798,1.7374,5.94,-0.9978,1.5363,1.8319,123.00,3,750.0,285.0,0.7302,1.7161,1.8650,66.95,5.94,66.95,61.01,False,RIGHT,0.336,0,0,RECOVERING,False,False,True,0,True,STUCK_DETECTED,0.00,0
1764557168.1604986,132.304,153,GENERAL,True,197.9,1597.2,1609.4,7.07,0.972,0.0,3143.5,-3620.1,109.00,109.80,109.00,140.01,87.28,-0.0181,10.0,-2.306,1.7242,0.2137,1.7374,7.07,-0.9978,1.5363,1.8319,123.00,3,750.0,285.0,0.7264,1.7500,1.8948,67.46,7.07,67.46,60.39,False,RIGHT,0.341,0,0,RECOVERING,False,False,True,0,True,STUCK_DETECTED,0.00,0
1764557168.197478,132.341,154,GENERAL,True,197.9,1597.2,1609.4,7.07,0.972,0.0,3143.5,-3620.1,109.41,111.34,109.41,141.49,87.26,-0.0426,10.0,-2.171,1.7242,0.2137,1.7374,7.07,-1.3087,2.0537,2.4352,122.51,4,750.0,284.0,0.4155,2.2674,2.3051,79.62,7.07,79.62,72.55,False,RIGHT,0.415,0,0,RECOVERING,False,False,True,0,True,STUCK_DETECTED,0.00,0
1764557168.2385588,132.382,155,GENERAL,False,0.0,0.0,0.0,0.00,0.000,0.0,3143.5,-3620.1,109.82,112.00,109.82,142.08,87.34,0.0170,10.0,-2.030,1.7242,0.2137,1.7374,7.07,-1.3087,2.0537,2.4352,122.51,4,750.0,284.0,0.4155,2.2674,2.3051,79.62,0.00,79.62,0.00,False,RIGHT,0.415,0,0,RECOVERING,False,False,True,0,True,STUCK_DETECTED,0.00,0
1764557168.2754438,132.419,156,GENERAL,False,0.0,0.0,0.0,0.00,0.000,0.0,3143.5,-3620.1,110.04,110.67,110.04,140.75,87.32,0.0128,10.0,-1.887,1.7242,0.2137,1.7374,7.07,-1.3087,2.0537,2.4352,122.51,4,750.0,284.0,0.4155,2.2674,2.3051,79.62,0.00,79.62,0.00,False,RIGHT,0.415,0,0,RECOVERING,False,False,True,0,True,STUCK_DETECTED,0.00,0
1764557168.3200018,132.464,157,GENERAL,False,0.0,0.0,0.0,0.00,0.000,0.0,3143.5,-3620.1,110.21,109.19,110.21,139.28,87.24,0.0629,10.0,-1.742,1.7242,0.2137,1.7374,7.07,-1.3087,2.0537,2.4352,122.51,4,750.0,284.0,0.4155,2.2674,2.3051,79.62,0.00,79.62,0.00,False,RIGHT,0.415,0,0,RECOVERING,False,False,True,0,True,STUCK_DETECTED,0.00,0
1764557168.360537,132.504,158,GENERAL,False,0.0,0.0,0.0,0.00,0.000,0.0,3143.5,-3620.1,110.34,108.16,110.34,138.28,87.11,0.0245,10.0,-1.594,1.7242,0.2137,1.7374,7.07,-1.3087,2.0537,2.4352,122.51,4,750.0,284.0,0.4155,2.2674,2.3051,79.62,0.00,79.62,0.00,False,RIGHT,0.415,0,0,RECOVERING,False,False,True,0,True,STUCK_DETECTED,0.00,0
1764557168.4056435,132.549,159,GENERAL,True,421.7,1574.9,1630.4,14.99,0.959,0.0,3143.5,-3620.1,110.21,107.75,110.21,137.85,87.18,-0.0458,10.0,-1.446,1.6353,0.4378,1.6929,14.99,-1.3087,2.0537,2.4352,122.51,4,750.0,284.0,0.3266,2.4915,2.5128,82.53,14.99,82.53,67.54,False,RIGHT,0.452,0,0,RECOVERING,False,False,True,0,True,STUCK_DETECTED,0.00,0
1764557168.443239,132.587,160,GENERAL,True,421.7,1574.9,1630.4,14.99,0.959,0.0,3143.5,-3620.1,109.86,108.56,109.86,138.70,87.37,-0.0746,10.0,-1.301,1.6353,0.4378,1.6929,14.99,-1.8870,3.0966,3.6262,121.36,6,750.0,290.0,-0.2517,3.5344,3.5434,94.07,14.99,94.07,79.08,False,RIGHT,0.600,0,0,RECOVERING,False,False,True,0,True,STUCK_DETECTED,0.00,0
1764557168.4901342,132.634,161,GENERAL,True,421.7,1574.9,1630.4,14.99,0.959,0.0,3143.5,-3620.1,109.69,110.07,109.69,140.45,87.50,-0.0511,10.0,-1.156,1.6353,0.4378,1.6929,14.99,-1.8870,3.0966,3.6262,121.36,6,750.0,290.0,-0.2517,3.5344,3.5434,94.07,14.99,94.07,79.08,False,RIGHT,0.600,0,0,RECOVERING,False,False,True,0,True,STUCK_DETECTED,0.00,0
1764557168.524162,132.668,162,GENERAL,True,421.7,1574.9,1630.4,14.99,0.959,0.0,3143.5,-3620.1,109.82,110.67,109.82,141.33,87.66,0.0192,10.0,-1.010,1.6353,0.4378,1.6929,14.99,-2.1543,3.6214,4.2137,120.75,7,750.0,290.0,-0.5191,4.0592,4.0923,97.29,14.99,97.29,82.30,False,RIGHT,0.600,0,0,RECOVERING,False,False,True,0,True,STUCK_DETECTED,0.00,0
1764557168.563756,132.707,163,GENERAL,True,421.7,1574.9,1630.4,14.99,0.959,0.0,3143.5,-3620.1,109.69,108.45,109.69,140.12,87.53,0.0980,10.0,-0.864,1.6353,0.4378,1.6929,14.99,-2.1543,3.6214,4.2137,120.75,7,750.0,290.0,-0.5191,4.0592,4.0923,97.29,14.99,97.29,82.30,False,RIGHT,0.600,0,0,RECOVERING,False,False,True,0,True,STUCK_DETECTED,0.00,0
1764557168.6072958,132.751,164,GENERAL,True,452.5,1566.3,1630.4,16.11,0.959,0.0,3143.5,-3620.1,109.23,106.79,109.23,139.44,87.27,0.0703,10.0,-0.722,1.6264,0.4698,1.6929,16.11,-2.4001,4.1483,4.7926,120.05,8,750.0,290.0,-0.7737,4.6182,4.6825,99.51,16.11,99.51,83.40,False,RIGHT,0.600,0,0,RECOVERING,False,False,True,0,True,STUCK_DETECTED,0.00,0
1764557168.6510308,132.795,165,GENERAL,True,452.5,1566.3,1630.4,16.11,0.959,0.0,3143.5,-3620.1,108.67,106.39,108.67,139.87,87.22,-0.0373,10.0,-0.585,1.6264,0.4698,1.6929,16.11,-2.4001,4.1483,4.7926,120.05,8,750.0,290.0,-0.7737,4.6182,4.6825,99.51,16.11,99.51,83.40,False,RIGHT,0.600,0,0,RECOVERING,False,False,True,0,True,STUCK_DETECTED,0.00,0
1764557168.693223,132.837,166,GENERAL,True,452.5,1566.3,1630.4,16.11,0.959,0.0,3143.5,-3620.1,108.20,105.99,108.20,139.85,87.41,-0.0991,10.0,-0.451,1.6264,0.4698,1.6929,16.11,-1.8218,3.1054,3.6004,120.40,6,750.0,290.0,-0.1954,3.5753,3.5806,93.13,16.11,93.13,77.02,False,RIGHT,0.600,0,0,RECOVERING,False,False,True,0,True,STUCK_DETECTED,0.00,0
1764557168.741102,132.885,167,GENERAL,False,0.0,0.0,0.0,0.00,0.000,0.0,3143.5,-3620.1,107.84,105.62,107.84,140.21,87.65,-0.0298,10.0,-0.320,1.6264,0.4698,1.6929,16.11,-1.8218,3.1054,3.6004,120.40,6,750.0,290.0,-0.1954,3.5753,3.5806,93.13,0.00,93.13,0.00,False,RIGHT,0.600,0,0,RECOVERING,False,False,True,0,True,STUCK_DETECTED,0.00,0
1764557168.7780855,132.922,168,GENERAL,False,0.0,0.0,0.0,0.00,0.000,0.0,3143.5,-3620.1,107.70,106.74,107.70,142.31,87.53,0.0660,10.0,-0.188,1.6264,0.4698,1.6929,16.11,-1.9110,3.5093,3.9959,118.57,5,750.0,290.0,-0.2847,3.9791,3.9893,94.09,0.00,94.09,0.00,False,RIGHT,0.600,0,0,RECOVERING,False,False,True,0,True,STUCK_DETECTED,0.00,0
1764557168.8154216,132.959,169,GENERAL,False,0.0,0.0,0.0,0.00,0.000,0.0,3143.5,-3620.1,107.60,106.69,107.60,143.11,87.27,0.0629,10.0,-0.055,1.6264,0.4698,1.6929,16.11,-1.9110,3.5093,3.9959,118.57,5,750.0,290.0,-0.2847,3.9791,3.9893,94.09,0.00,94.09,0.00,False,RIGHT,0.600,0,0,RECOVERING,False,False,True,0,True,STUCK_DETECTED,0.00,0
1764557168.860196,133.004,170,GENERAL,False,0.0,0.0,0.0,0.00,0.000,0.0,3143.5,-3620.1,107.25,105.12,107.25,142.43,87.29,0.0352,10.0,0.076,1.6264,0.4698,1.6929,16.11,-1.8250,3.4462,3.8996,117.90,4,750.0,290.0,-0.1986,3.9160,3.9210,92.90,0.00,92.90,0.00,False,RIGHT,0.600,0,0,RECOVERING,False,False,True,0,True,STUCK_DETECTED,0.00,0
