timestamp,elapsed_time,log_number,test_mode,person_detected,person_x_mm,person_y_mm,person_distance_mm,person_angle_deg,person_confidence,time_since_person_update_ms,robot_x_mm,robot_y_mm,robot_orientation_deg,imu_yaw_raw,imu_yaw_smoothed,imu_roll,imu_pitch,imu_angular_vel_z,imu_update_rate,imu_drift_estimate,attr_force_x,attr_force_y,attr_force_magnitude,attr_force_direction_deg,repul_force_x,repul_force_y,repul_force_magnitude,repul_force_direction_deg,num_obstacles_in_range,closest_obstacle_dist_mm,closest_obstacle_angle_deg,total_force_x,total_force_y,total_force_magnitude,total_force_direction_deg,expected_direction_to_person_deg,force_direction_deg,direction_error_deg,direction_mismatch_flag,commanded_direction,commanded_speed,motor_1_speed,motor_2_speed,nav_state,nav_state_changed,goal_reached,stuck_detected,time_in_current_state_s,anomaly_detected,anomaly_type,calculation_time_ms,obstacles_filtered_for_person
1764635286.7944684,74.520,1,TEST2_OBSTACLE_BYPASS,False,0.0,0.0,0.0,0.00,0.000,0.0,648.3,-2293.7,85.33,85.33,85.33,145.48,88.52,-0.0075,10.0,0.000,0.0000,0.0000,0.0000,0.00,-2.3331,-2.6090,3.5000,-138.20,2,300.0,253.0,-2.3331,-2.6090,3.5000,-138.20,0.00,-138.20,0.00,False,BACKWARDS_LEFT,0.500,0,0,SEARCHING,True,False,False,0,False,,0.00,0
1764635286.837639,74.564,2,TEST2_OBSTACLE_BYPASS,False,0.0,0.0,0.0,0.00,0.000,0.0,647.9,-2298.1,85.33,85.33,85.33,145.48,88.52,0.0096,10.0,0.000,0.0000,0.0000,0.0000,0.00,-2.3331,-2.6090,3.5000,-138.20,2,300.0,253.0,-2.3331,-2.6090,3.5000,-138.20,0.00,-138.20,0.00,False,BACKWARDS_LEFT,0.500,0,0,SEARCHING,False,False,False,0,False,,0.00,0
1764635286.8756576,74.602,3,TEST2_OBSTACLE_BYPASS,False,0.0,0.0,0.0,0.00,0.000,0.0,647.6,-2302.2,85.33,85.33,85.33,145.48,88.52,0.0043,10.0,0.000,0.0000,0.0000,0.0000,0.00,-1.8552,-2.9678,3.5000,-147.99,3,300.0,253.0,-1.8552,-2.9678,3.5000,-147.99,0.00,-147.99,0.00,False,BACKWARDS_LEFT,0.500,0,0,SEARCHING,False,False,False,0,False,,0.00,0
1764635286.9180534,74.644,4,TEST2_OBSTACLE_BYPASS,False,0.0,0.0,0.0,0.00,0.000,0.0,647.2,-2306.6,85.33,85.33,85.33,145.48,88.52,-0.0107,10.0,0.000,0.0000,0.0000,0.0000,0.00,-1.8552,-2.9678,3.5000,-147.99,3,300.0,253.0,-1.8552,-2.9678,3.5000,-147.99,0.00,-147.99,0.00,False,BACKWARDS_LEFT,0.500,0,0,SEARCHING,False,False,False,0,False,,0.00,0
1764635286.9556274,74.681,5,TEST2_OBSTACLE_BYPASS,False,0.0,0.0,0.0,0.00,0.000,0.0,646.9,-2310.6,85.33,85.33,85.33,145.48,88.52,-0.0043,10.0,0.000,0.0000,0.0000,0.0000,0.00,-2.0583,-2.8308,3.5000,-143.98,2,300.0,253.0,-2.0583,-2.8308,3.5000,-143.98,0.00,-143.98,0.00,False,BACKWARDS_LEFT,0.500,0,0,SEARCHING,False,False,False,0,False,,0.00,0
1764635287.0009646,74.727,6,TEST2_OBSTACLE_BYPASS,False,0.0,0.0,0.0,0.00,0.000,0.0,646.5,-2315.1,85.33,85.33,85.33,145.48,88.52,0.0011,10.0,0.000,0.0000,0.0000,0.0000,0.00,-1.9083,-2.9340,3.5000,-146.96,3,300.0,253.0,-1.9083,-2.9340,3.5000,-146.96,0.00,-146.96,0.00,False,BACKWARDS_LEFT,0.500,0,0,SEARCHING,False,False,False,0,False,,0.00,0
1764635287.0366774,74.763,7,TEST2_OBSTACLE_BYPASS,False,0.0,0.0,0.0,0.00,0.000,0.0,646.2,-2319.0,85.33,85.33,85.33,145.48,88.52,0.0011,10.0,0.000,0.0000,0.0000,0.0000,0.00,-2.2887,-2.6480,3.5000,-139.16,2,300.0,253.0,-2.2887,-2.6480,3.5000,-139.16,0.00,-139.16,0.00,False,BACKWARDS_LEFT,0.500,0,0,SEARCHING,False,False,False,0,False,,0.00,0
1764635287.0805657,74.806,8,TEST2_OBSTACLE_BYPASS,False,0.0,0.0,0.0,0.00,0.000,0.0,645.8,-2323.6,85.33,85.33,85.33,145.48,88.52,0.0075,10.0,0.000,0.0000,0.0000,0.0000,0.00,-2.0224,-2.8566,3.5000,-144.70,2,300.0,253.0,-2.0224,-2.8566,3.5000,-144.70,0.00,-144.70,0.00,False,BACKWARDS_LEFT,0.500,0,0,SEARCHING,False,False,False,0,False,,0.00,0
1764635287.116526,74.842,9,TEST2_OBSTACLE_BYPASS,False,0.0,0.0,0.0,0.00,0.000,0.0,645.5,-2327.4,85.33,85.33,85.33,145.48,88.52,-0.0043,10.0,0.000,0.0000,0.0000,0.0000,0.00,-2.1226,-2.7829,3.5000,-142.67,2,300.0,253.0,-2.1226,-2.7829,3.5000,-142.67,0.00,-142.67,0.00,False,BACKWARDS_LEFT,0.500,0,0,SEARCHING,False,False,False,0,False,,0.00,0
1764635287.1597238,74.886,10,TEST2_OBSTACLE_BYPASS,False,0.0,0.0,0.0,0.00,0.000,0.0,645.2,-2331.8,85.33,85.32,85.33,145.50,88.43,-0.0011,10.0,0.000,0.0000,0.0000,0.0000,0.00,-1.8244,-2.9869,3.5000,-148.58,2,300.0,253.0,-1.8244,-2.9869,3.5000,-148.58,0.00,-148.58,0.00,False,BACKWARDS_LEFT,0.500,0,0,SEARCHING,False,False,True,0,True,STUCK_DETECTED,0.00,0
1764635287.1973279,74.923,11,TEST2_OBSTACLE_BYPASS,False,0.0,0.0,0.0,0.00,0.000,0.0,644.8,-2335.8,85.21,84.13,85.21,144.31,88.44,-0.0064,10.0,0.000,0.0000,0.0000,0.0000,0.00,-1.8312,-2.9827,3.5000,-148.45,2,300.0,253.0,-1.8312,-2.9827,3.5000,-148.45,0.00,-148.45,0.00,False,BACKWARDS_LEFT,0.500,0,0,SEARCHING,False,False,True,0,True,STUCK_DETECTED,0.00,0
1764635287.240756,74.967,12,TEST2_OBSTACLE_BYPASS,False,0.0,0.0,0.0,0.00,0.000,0.0,644.5,-2340.2,84.91,82.32,84.91,142.56,88.63,-0.0234,10.0,-0.050,0.0000,0.0000,0.0000,0.00,-1.3794,-3.2167,3.5000,-156.79,3,300.0,253.0,-1.3794,-3.2167,3.5000,-156.79,0.00,-156.79,0.00,False,BACKWARDS_LEFT,0.500,0,0,SEARCHING,False,False,True,0,True,STUCK_DETECTED,0.00,0
1764635287.2806544,75.007,13,TEST2_OBSTACLE_BYPASS,False,0.0,0.0,0.0,0.00,0.000,0.0,644.0,-2344.4,84.45,80.69,84.45,140.96,88.84,0.0288,10.0,-0.119,0.0000,0.0000,0.0000,0.00,-2.1367,-2.7721,3.5000,-142.38,1,300.0,253.0,-2.1367,-2.7721,3.5000,-142.38,0.00,-142.38,0.00,False,BACKWARDS_LEFT,0.500,0,0,SEARCHING,False,False,True,0,True,STUCK_DETECTED,0.00,0
1764635287.3207152,75.047,14,TEST2_OBSTACLE_BYPASS,False,0.0,0.0,0.0,0.00,0.000,0.0,643.6,-2348.5,83.68,77.63,83.68,138.18,88.71,0.0277,10.0,-0.238,0.0000,0.0000,0.0000,0.00,-0.8578,-3.3933,3.5000,-165.81,5,300.0,253.0,-0.8578,-3.3933,3.5000,-165.81,0.00,-165.81,0.00,False,BACKWARDS,0.500,0,0,SEARCHING,False,False,True,0,True,STUCK_DETECTED,0.00,0
1764635287.3617837,75.088,15,TEST2_OBSTACLE_BYPASS,False,0.0,0.0,0.0,0.00,0.000,0.0,642.8,-2354.9,82.92,77.81,82.92,138.68,88.65,-0.0021,10.0,-0.393,0.0000,0.0000,0.0000,0.00,-1.7331,-3.0408,3.5000,-150.32,3,300.0,253.0,-1.7331,-3.0408,3.5000,-150.32,0.00,-150.32,0.00,False,BACKWARDS_LEFT,0.500,0,0,SEARCHING,False,False,True,0,True,STUCK_DETECTED,0.00,0
1764635287.399576,75.125,16,TEST2_OBSTACLE_BYPASS,False,0.0,0.0,0.0,0.00,0.000,0.0,642.3,-2358.8,82.42,80.30,82.42,141.51,88.41,-0.0053,10.0,-0.561,0.0000,0.0000,0.0000,0.00,0.3675,-3.4807,3.5000,173.97,8,300.0,253.0,0.3675,-3.4807,3.5000,173.97,0.00,173.97,0.00,False,BACKWARDS,0.500,0,0,SEARCHING,False,False,True,0,True,STUCK_DETECTED,0.00,0
1764635287.4434562,75.169,17,TEST2_OBSTACLE_BYPASS,False,0.0,0.0,0.0,0.00,0.000,0.0,641.4,-2365.1,82.22,83.34,82.22,144.78,88.49,-0.0277,10.0,-0.720,0.0000,0.0000,0.0000,0.00,-0.2404,-3.4917,3.5000,-176.06,5,750.0,253.0,-0.2404,-3.4917,3.5000,-176.06,0.00,-176.06,0.00,False,BACKWARDS,0.500,0,0,SEARCHING,False,False,True,0,True,STUCK_DETECTED,0.00,0
1764635287.4796088,75.205,18,TEST2_OBSTACLE_BYPASS,False,0.0,0.0,0.0,0.00,0.000,0.0,640.6,-2370.7,82.16,84.68,82.16,146.37,88.47,-0.0170,10.0,-0.865,0.0000,0.0000,0.0000,0.00,1.5349,-3.1455,3.5000,153.99,9,300.0,253.0,1.5349,-3.1455,3.5000,153.99,0.00,153.99,0.00,False,BACKWARDS_RIGHT,0.500,0,0,SEARCHING,False,False,True,0,True,STUCK_DETECTED,0.00,0
1764635287.524424,75.250,19,TEST2_OBSTACLE_BYPASS,False,0.0,0.0,0.0,0.00,0.000,0.0,640.0,-2375.2,82.04,84.20,82.04,146.26,88.42,0.0181,10.0,-1.000,0.0000,0.0000,0.0000,0.00,0.7341,-3.4221,3.5000,167.89,5,750.0,253.0,0.7341,-3.4221,3.5000,167.89,0.00,167.89,0.00,False,BACKWARDS,0.500,0,0,SEARCHING,False,False,True,0,True,STUCK_DETECTED,0.00,0
1764635287.5608358,75.287,20,TEST2_OBSTACLE_BYPASS,False,0.0,0.0,0.0,0.00,0.000,0.0,639.2,-2380.7,81.81,82.97,81.81,145.27,88.55,0.0075,10.0,-1.133,0.0000,0.0000,0.0000,0.00,1.7395,-3.0371,3.5000,150.20,11,300.0,253.0,1.7395,-3.0371,3.5000,150.20,0.00,150.20,0.00,False,BACKWARDS_RIGHT,0.500,0,0,SEARCHING,False,False,True,0,True,STUCK_DETECTED,0.00,0
1764635287.5990174,75.325,21,TEST2_OBSTACLE_BYPASS,False,0.0,0.0,0.0,0.00,0.000,0.0,638.6,-2384.9,81.65,82.51,81.65,145.10,88.68,0.0075,10.0,-1.260,0.0000,0.0000,0.0000,0.00,1.3387,-3.2339,3.5000,157.51,8,300.0,253.0,1.3387,-3.2339,3.5000,157.51,0.00,157.51,0.00,False,BACKWARDS,0.500,0,0,SEARCHING,False,False,True,0,True,STUCK_DETECTED,0.00,0
1764635287.6395998,75.365,22,TEST2_OBSTACLE_BYPASS,False,0.0,0.0,0.0,0.00,0.000,0.0,637.8,-2390.7,81.73,83.18,81.73,145.96,88.70,-0.0085,10.0,-1.372,0.0000,0.0000,0.0000,0.00,1.8636,-2.9626,3.5000,147.83,12,300.0,253.0,1.8636,-2.9626,3.5000,147.83,0.00,147.83,0.00,False,BACKWARDS_RIGHT,0.500,0,0,SEARCHING,False,False,True,0,True,STUCK_DETECTED,0.00,0
1764635287.6829548,75.409,23,TEST2_OBSTACLE_BYPASS,False,0.0,0.0,0.0,0.00,0.000,0.0,637.2,-2395.1,82.15,84.87,82.15,147.98,88.52,0.0011,10.0,-1.454,0.0000,0.0000,0.0000,0.00,1.7739,-3.0171,3.5000,149.55,10,300.0,253.0,1.7739,-3.0171,3.5000,149.55,0.00,149.55,0.00,False,BACKWARDS_RIGHT,0.500,0,0,SEARCHING,False,False,True,0,True,STUCK_DETECTED,0.00,0
1764635287.717689,75.444,24,TEST2_OBSTACLE_BYPASS,False,0.0,0.0,0.0,0.00,0.000,0.0,636.7,-2399.0,82.81,84.19,82.81,147.55,88.42,0.0160,10.0,-1.501,0.0000,0.0000,0.0000,0.00,2.1735,-2.7434,3.5000,141.61,13,300.0,253.0,2.1735,-2.7434,3.5000,141.61,0.00,141.61,0.00,False,BACKWARDS_RIGHT,0.500,0,0,SEARCHING,False,False,True,0,True,STUCK_DETECTED,0.00,0
1764635287.7625732,75.488,25,TEST2_OBSTACLE_BYPASS,False,0.0,0.0,0.0,0.00,0.000,0.0,636.1,-2403.5,83.36,83.31,83.36,146.78,88.67,0.0181,10.0,-1.521,0.0000,0.0000,0.0000,0.00,1.8634,-2.9627,3.5000,147.83,8,700.0,254.0,1.8634,-2.9627,3.5000,147.83,0.00,147.83,0.00,False,BACKWARDS_RIGHT,0.500,0,0,SEARCHING,False,False,True,0,True,STUCK_DETECTED,0.00,0
1764635287.7995589,75.525,26,TEST2_OBSTACLE_BYPASS,False,0.0,0.0,0.0,0.00,0.000,0.0,635.7,-2407.4,83.65,83.25,83.65,146.82,88.65,-0.0032,10.0,-1.527,0.0000,0.0000,0.0000,0.00,2.3794,-2.5668,3.5000,137.17,13,300.0,254.0,2.3794,-2.5668,3.5000,137.17,0.00,137.17,0.00,False,BACKWARDS_RIGHT,0.500,0,0,SEARCHING,False,False,True,0,True,STUCK_DETECTED,0.00,0
1764635287.8437023,75.570,27,TEST2_OBSTACLE_BYPASS,False,0.0,0.0,0.0,0.00,0.000,0.0,635.2,-2412.0,83.73,84.19,83.73,147.97,88.32,0.0053,10.0,-1.530,0.0000,0.0000,0.0000,0.00,2.2585,-2.6738,3.5000,139.81,10,300.0,254.0,2.2585,-2.6738,3.5000,139.81,0.00,139.81,0.00,False,BACKWARDS_RIGHT,0.500,0,0,SEARCHING,False,False,True,0,True,STUCK_DETECTED,0.00,0
1764635287.8818088,75.608,28,TEST2_OBSTACLE_BYPASS,False,0.0,0.0,0.0,0.00,0.000,0.0,634.8,-2416.0,83.70,84.35,83.70,148.10,88.50,0.0011,10.0,-1.534,0.0000,0.0000,0.0000,0.00,2.3869,-2.5599,3.5000,137.00,16,300.0,254.0,2.3869,-2.5599,3.5000,137.00,0.00,137.00,0.00,False,BACKWARDS_RIGHT,0.500,0,0,SEARCHING,False,False,True,0,True,STUCK_DETECTED,0.00,0
1764635287.9244998,75.650,29,TEST2_OBSTACLE_BYPASS,False,0.0,0.0,0.0,0.00,0.000,0.0,634.3,-2420.4,83.55,82.64,83.55,146.56,88.37,0.0128,10.0,-1.543,0.0000,0.0000,0.0000,0.00,2.0416,-2.8429,3.5000,144.32,11,700.0,254.0,2.0416,-2.8429,3.5000,144.32,0.00,144.32,0.00,False,BACKWARDS_RIGHT,0.500,0,0,SEARCHING,False,False,True,0,True,STUCK_DETECTED,0.00,0
1764635287.9647493,75.691,30,TEST2_OBSTACLE_BYPASS,False,0.0,0.0,0.0,0.00,0.000,0.0,633.8,-2424.5,83.15,78.98,83.15,142.94,88.56,-0.0053,10.0,-1.565,0.0000,0.0000,0.0000,0.00,2.3964,-2.5509,3.5000,136.79,13,300.0,254.0,2.3964,-2.5509,3.5000,136.79,0.00,136.79,0.00,False,BACKWARDS_RIGHT,0.500,0,0,SEARCHING,False,False,True,0,True,STUCK_DETECTED,0.00,0
1764635288.001811,75.728,31,TEST2_OBSTACLE_BYPASS,False,0.0,0.0,0.0,0.00,0.000,0.0,633.3,-2428.5,82.83,79.35,82.83,143.37,88.62,0.0096,10.0,-1.596,0.0000,0.0000,0.0000,0.00,2.3107,-2.6288,3.5000,138.68,11,500.0,254.0,2.3107,-2.6288,3.5000,138.68,0.00,138.68,0.00,False,BACKWARDS_RIGHT,0.500,0,0,SEARCHING,False,False,True,0,True,STUCK_DETECTED,0.00,0
1764635288.0518928,75.778,32,TEST2_OBSTACLE_BYPASS,False,0.0,0.0,0.0,0.00,0.000,0.0,632.6,-2433.6,82.84,83.29,82.84,147.43,88.32,0.0085,10.0,-1.625,0.0000,0.0000,0.0000,0.00,2.1508,-2.7612,3.5000,142.08,9,300.0,254.0,2.1508,-2.7612,3.5000,142.08,0.00,142.08,0.00,False,BACKWARDS_RIGHT,0.500,0,0,SEARCHING,False,False,True,0,True,STUCK_DETECTED,0.00,0
1764635288.0939474,75.820,33,TEST2_OBSTACLE_BYPASS,False,0.0,0.0,0.0,0.00,0.000,0.0,632.1,-2438.1,82.91,85.54,82.91,149.67,88.28,-0.0021,10.0,-1.650,0.0000,0.0000,0.0000,0.00,2.1751,-2.7420,3.5000,141.58,13,300.0,254.0,2.1751,-2.7420,3.5000,141.58,0.00,141.58,0.00,False,BACKWARDS_RIGHT,0.500,0,0,SEARCHING,False,False,True,0,True,STUCK_DETECTED,0.00,0
1764635288.1372647,75.863,34,TEST2_OBSTACLE_BYPASS,False,0.0,0.0,0.0,0.00,0.000,0.0,631.5,-2442.5,82.96,84.73,82.96,148.89,88.24,-0.0224,10.0,-1.672,0.0000,0.0000,0.0000,0.00,2.0345,-2.8479,3.5000,144.46,9,700.0,254.0,2.0345,-2.8479,3.5000,144.46,0.00,144.46,0.00,False,BACKWARDS_RIGHT,0.500,0,0,SEARCHING,False,False,True,0,True,STUCK_DETECTED,0.00,0
1764635288.1753254,75.901,35,TEST2_OBSTACLE_BYPASS,False,0.0,0.0,0.0,0.00,0.000,0.0,631.1,-2446.4,83.05,84.15,83.05,148.19,88.44,0.0064,10.0,-1.690,0.0000,0.0000,0.0000,0.00,2.2650,-2.6683,3.5000,139.67,12,300.0,254.0,2.2650,-2.6683,3.5000,139.67,0.00,139.67,0.00,False,BACKWARDS_RIGHT,0.500,0,0,SEARCHING,False,False,True,0,True,STUCK_DETECTED,0.00,0
1764635288.2159047,75.942,36,TEST2_OBSTACLE_BYPASS,False,0.0,0.0,0.0,0.00,0.000,0.0,630.5,-2450.8,83.06,83.39,83.06,147.39,88.45,0.0224,10.0,-1.707,0.0000,0.0000,0.0000,0.00,1.9422,-2.9117,3.5000,146.30,8,700.0,254.0,1.9422,-2.9117,3.5000,146.30,0.00,146.30,0.00,False,BACKWARDS_RIGHT,0.500,0,0,SEARCHING,False,False,True,0,True,STUCK_DETECTED,0.00,0
1764635288.2559617,75.982,37,TEST2_OBSTACLE_BYPASS,False,0.0,0.0,0.0,0.00,0.000,0.0,630.0,-2455.0,83.03,83.83,83.03,147.68,88.42,0.0064,10.0,-1.723,0.0000,0.0000,0.0000,0.00,2.0797,-2.8151,3.5000,143.54,13,300.0,254.0,2.0797,-2.8151,3.5000,143.54,0.00,143.54,0.00,False,BACKWARDS_RIGHT,0.500,0,0,SEARCHING,False,False,True,0,True,STUCK_DETECTED,0.00,0
1764635288.2946827,76.021,38,TEST2_OBSTACLE_BYPASS,False,0.0,0.0,0.0,0.00,0.000,0.0,629.5,-2459.0,82.98,83.89,82.98,147.63,88.24,0.0160,10.0,-1.740,0.0000,0.0000,0.0000,0.00,1.9970,-2.8744,3.5000,145.21,10,700.0,254.0,1.9970,-2.8744,3.5000,145.21,0.00,145.21,0.00,False,BACKWARDS_RIGHT,0.500,0,0,SEARCHING,False,False,True,0,True,STUCK_DETECTED,0.00,0
1764635288.3426461,76.069,39,TEST2_OBSTACLE_BYPASS,False,0.0,0.0,0.0,0.00,0.000,0.0,628.9,-2463.9,83.06,83.43,83.06,146.97,88.21,0.0053,10.0,-1.754,0.0000,0.0000,0.0000,0.00,1.7910,-3.0070,3.5000,149.22,14,300.0,254.0,1.7910,-3.0070,3.5000,149.22,0.00,149.22,0.00,False,BACKWARDS_RIGHT,0.500,0,0,SEARCHING,False,False,True,0,True,STUCK_DETECTED,0.00,0
1764635288.3774986,76.103,40,TEST2_OBSTACLE_BYPASS,False,0.0,0.0,0.0,0.00,0.000,0.0,628.5,-2467.7,83.30,81.38,83.30,144.73,88.24,0.0160,10.0,-1.761,0.0000,0.0000,0.0000,0.00,1.5081,-3.1584,3.5000,154.48,10,700.0,254.0,1.5081,-3.1584,3.5000,154.48,0.00,154.48,0.00,False,BACKWARDS_RIGHT,0.500,0,0,SEARCHING,False,False,True,0,True,STUCK_DETECTED,0.00,0
1764635288.4187257,76.145,41,TEST2_OBSTACLE_BYPASS,False,0.0,0.0,0.0,0.00,0.000,0.0,627.9,-2472.0,83.21,78.44,83.21,141.62,88.50,-0.0170,10.0,-1.771,0.0000,0.0000,0.0000,0.00,1.5081,-3.1584,3.5000,154.48,10,700.0,254.0,1.5081,-3.1584,3.5000,154.48,0.00,154.48,0.00,False,BACKWARDS_RIGHT,0.500,0,0,SEARCHING,False,False,True,0,True,STUCK_DETECTED,0.00,0
1764635288.4564908,76.182,42,TEST2_OBSTACLE_BYPASS,False,0.0,0.0,0.0,0.00,0.000,0.0,627.4,-2476.0,82.67,77.92,82.67,141.27,88.46,-0.0426,10.0,-1.792,0.0000,0.0000,0.0000,0.00,1.6453,-3.0892,3.5000,151.96,11,300.0,254.0,1.6453,-3.0892,3.5000,151.96,0.00,151.96,0.00,False,BACKWARDS_RIGHT,0.500,0,0,SEARCHING,False,False,True,0,True,STUCK_DETECTED,0.00,0
1764635288.500313,76.226,43,TEST2_OBSTACLE_BYPASS,False,0.0,0.0,0.0,0.00,0.000,0.0,626.8,-2480.4,82.12,80.01,82.12,143.58,88.61,-0.0138,10.0,-1.826,0.0000,0.0000,0.0000,0.00,1.5607,-3.1327,3.5000,153.52,12,300.0,254.0,1.5607,-3.1327,3.5000,153.52,0.00,153.52,0.00,False,BACKWARDS_RIGHT,0.500,0,0,SEARCHING,False,False,True,0,True,STUCK_DETECTED,0.00,0
1764635288.5361564,76.262,44,TEST2_OBSTACLE_BYPASS,False,0.0,0.0,0.0,0.00,0.000,0.0,626.3,-2484.3,81.76,81.12,81.76,144.96,88.65,0.0192,10.0,-1.867,0.0000,0.0000,0.0000,0.00,1.5749,-3.1256,3.5000,153.26,11,300.0,254.0,1.5749,-3.1256,3.5000,153.26,0.00,153.26,0.00,False,BACKWARDS_RIGHT,0.500,0,0,SEARCHING,False,False,True,0,True,STUCK_DETECTED,0.00,0
1764635288.5800862,76.306,45,TEST2_OBSTACLE_BYPASS,False,0.0,0.0,0.0,0.00,0.000,0.0,625.6,-2488.7,81.37,80.32,81.37,144.55,88.55,0.0309,10.0,-1.914,0.0000,0.0000,0.0000,0.00,1.5749,-3.1256,3.5000,153.26,11,300.0,254.0,1.5749,-3.1256,3.5000,153.26,0.00,153.26,0.00,False,BACKWARDS_RIGHT,0.500,0,0,SEARCHING,False,False,True,0,True,STUCK_DETECTED,0.00,0
1764635288.617468,76.343,46,TEST2_OBSTACLE_BYPASS,False,0.0,0.0,0.0,0.00,0.000,0.0,625.0,-2492.6,81.01,79.79,81.01,144.17,88.63,-0.0075,10.0,-1.968,0.0000,0.0000,0.0000,0.00,1.4238,-3.1973,3.5000,156.00,13,300.0,254.0,1.4238,-3.1973,3.5000,156.00,0.00,156.00,0.00,False,BACKWARDS_RIGHT,0.500,0,0,SEARCHING,False,False,True,0,True,STUCK_DETECTED,0.00,0
1764635288.660054,76.386,47,TEST2_OBSTACLE_BYPASS,False,0.0,0.0,0.0,0.00,0.000,0.0,624.3,-2497.0,80.64,80.12,80.64,144.59,88.50,-0.0224,10.0,-2.027,0.0000,0.0000,0.0000,0.00,1.4238,-3.1973,3.5000,156.00,13,300.0,254.0,1.4238,-3.1973,3.5000,156.00,0.00,156.00,0.00,False,BACKWARDS_RIGHT,0.500,0,0,SEARCHING,False,False,True,0,True,STUCK_DETECTED,0.00,0
1764635288.696222,76.422,48,TEST2_OBSTACLE_BYPASS,False,0.0,0.0,0.0,0.00,0.000,0.0,623.6,-2500.9,80.31,80.63,80.31,145.19,88.48,0.0000,10.0,-2.091,0.0000,0.0000,0.0000,0.00,0.5236,-3.4606,3.5000,171.40,10,300.0,254.0,0.5236,-3.4606,3.5000,171.40,0.00,171.40,0.00,False,BACKWARDS,0.500,0,0,SEARCHING,False,False,True,0,True,STUCK_DETECTED,0.00,0
1764635288.742362,76.468,49,TEST2_OBSTACLE_BYPASS,False,0.0,0.0,0.0,0.00,0.000,0.0,622.4,-2507.3,79.98,80.11,79.98,144.70,88.70,0.0064,10.0,-2.159,0.0000,0.0000,0.0000,0.00,0.5236,-3.4606,3.5000,171.40,10,300.0,254.0,0.5236,-3.4606,3.5000,171.40,0.00,171.40,0.00,False,BACKWARDS,0.500,0,0,SEARCHING,False,False,True,0,True,STUCK_DETECTED,0.00,0
1764635288.7789755,76.505,50,TEST2_OBSTACLE_BYPASS,False,0.0,0.0,0.0,0.00,0.000,0.0,621.5,-2512.8,79.75,79.03,79.75,143.83,88.42,0.0160,10.0,-2.229,0.0000,0.0000,0.0000,0.00,-0.0473,-3.4997,3.5000,-179.23,9,300.0,254.0,-0.0473,-3.4997,3.5000,-179.23,0.00,-179.23,0.00,False,BACKWARDS,0.500,0,0,SEARCHING,False,False,True,0,True,STUCK_DETECTED,0.00,0
1764635288.8258212,76.552,51,TEST2_OBSTACLE_BYPASS,False,0.0,0.0,0.0,0.00,0.000,0.0,620.3,-2519.2,79.77,78.71,79.77,143.62,88.52,0.0021,10.0,-2.295,0.0000,0.0000,0.0000,0.00,-0.0473,-3.4997,3.5000,-179.23,9,300.0,254.0,-0.0473,-3.4997,3.5000,-179.23,0.00,-179.23,0.00,False,BACKWARDS,0.500,0,0,SEARCHING,False,False,True,0,True,STUCK_DETECTED,0.00,0
1764635288.8595035,76.585,52,TEST2_OBSTACLE_BYPASS,False,0.0,0.0,0.0,0.00,0.000,0.0,619.3,-2524.7,79.90,79.19,79.90,144.18,88.56,-0.0064,10.0,-2.357,0.0000,0.0000,0.0000,0.00,-0.1235,-3.4978,3.5000,-177.98,9,300.0,254.0,-0.1235,-3.4978,3.5000,-177.98,0.00,-177.98,0.00,False,BACKWARDS,0.500,0,0,SEARCHING,False,False,True,0,True,STUCK_DETECTED,0.00,0
1764635288.9045222,76.630,53,TEST2_OBSTACLE_BYPASS,False,0.0,0.0,0.0,0.00,0.000,0.0,618.2,-2531.0,79.87,79.67,79.87,144.82,88.55,-0.0011,10.0,-2.416,0.0000,0.0000,0.0000,0.00,-0.1235,-3.4978,3.5000,-177.98,9,300.0,254.0,-0.1235,-3.4978,3.5000,-177.98,0.00,-177.98,0.00,False,BACKWARDS,0.500,0,0,SEARCHING,False,False,True,0,True,STUCK_DETECTED,0.00,0
1764635288.9402645,76.666,54,TEST2_OBSTACLE_BYPASS,False,0.0,0.0,0.0,0.00,0.000,0.0,617.1,-2536.9,79.66,79.00,79.66,144.32,88.50,0.0085,10.0,-2.478,0.0000,0.0000,0.0000,0.00,-0.0660,-3.4994,3.5000,-178.92,8,300.0,254.0,-0.0660,-3.4994,3.5000,-178.92,0.00,-178.92,0.00,False,BACKWARDS,0.500,0,0,SEARCHING,False,False,True,0,True,STUCK_DETECTED,0.00,0
1764635288.9867089,76.713,55,TEST2_OBSTACLE_BYPASS,False,0.0,0.0,0.0,0.00,0.000,0.0,615.9,-2543.4,79.45,78.23,79.45,143.76,88.54,0.0000,10.0,-2.541,0.0000,0.0000,0.0000,0.00,-0.0614,-3.4995,3.5000,-179.00,8,300.0,254.0,-0.0614,-3.4995,3.5000,-179.00,0.00,-179.00,0.00,False,BACKWARDS,0.500,0,0,SEARCHING,False,False,True,0,True,STUCK_DETECTED,0.00,0
1764635289.0281222,76.754,56,TEST2_OBSTACLE_BYPASS,False,0.0,0.0,0.0,0.00,0.000,0.0,614.8,-2549.4,79.23,77.62,79.23,143.35,88.50,0.0011,10.0,-2.606,0.0000,0.0000,0.0000,0.00,-0.0614,-3.4995,3.5000,-179.00,8,300.0,254.0,-0.0614,-3.4995,3.5000,-179.00,0.00,-179.00,0.00,False,BACKWARDS,0.500,0,0,SEARCHING,False,False,True,0,True,STUCK_DETECTED,0.00,0
1764635289.0688236,76.795,57,TEST2_OBSTACLE_BYPASS,False,0.0,0.0,0.0,0.00,0.000,0.0,613.6,-2555.1,78.82,75.99,78.82,141.80,88.82,-0.0266,10.0,-2.676,0.0000,0.0000,0.0000,0.00,-0.0614,-3.4995,3.5000,-179.00,8,300.0,254.0,-0.0614,-3.4995,3.5000,-179.00,0.00,-179.00,0.00,False,BACKWARDS,0.500,0,0,SEARCHING,False,False,True,0,True,STUCK_DETECTED,0.00,0
1764635289.1112914,76.837,58,TEST2_OBSTACLE_BYPASS,False,0.0,0.0,0.0,0.00,0.000,0.0,612.3,-2561.6,78.13,73.73,78.13,139.86,88.66,-0.0362,10.0,-2.755,0.0000,0.0000,0.0000,0.00,-0.0054,-3.5000,3.5000,-179.91,7,300.0,254.0,-0.0054,-3.5000,3.5000,-179.91,0.00,-179.91,0.00,False,BACKWARDS,0.500,0,0,SEARCHING,False,False,True,0,True,STUCK_DETECTED,0.00,0
1764635289.1490705,76.875,59,TEST2_OBSTACLE_BYPASS,False,0.0,0.0,0.0,0.00,0.000,0.0,611.0,-2567.3,77.65,75.37,77.65,141.56,89.01,-0.0320,10.0,-2.840,0.0000,0.0000,0.0000,0.00,-0.1194,-3.4980,3.5000,-178.04,8,300.0,254.0,-0.1194,-3.4980,3.5000,-178.04,0.00,-178.04,0.00,False,BACKWARDS,0.500,0,0,SEARCHING,False,False,True,0,True,STUCK_DETECTED,0.00,0
1764635289.1908607,76.917,60,TEST2_OBSTACLE_BYPASS,False,0.0,0.0,0.0,0.00,0.000,0.0,609.7,-2573.4,77.51,77.60,77.51,143.97,88.90,0.0170,10.0,-2.925,0.0000,0.0000,0.0000,0.00,-0.1194,-3.4980,3.5000,-178.04,8,300.0,254.0,-0.1194,-3.4980,3.5000,-178.04,0.00,-178.04,0.00,False,BACKWARDS,0.500,0,0,SEARCHING,False,False,True,0,True,STUCK_DETECTED,0.00,0
1764635289.228522,76.954,61,TEST2_OBSTACLE_BYPASS,False,0.0,0.0,0.0,0.00,0.000,0.0,608.4,-2579.0,77.37,77.28,77.37,143.76,88.87,0.0309,10.0,-3.009,0.0000,0.0000,0.0000,0.00,0.0664,-3.4994,3.5000,178.91,9,300.0,254.0,0.0664,-3.4994,3.5000,178.91,0.00,178.91,0.00,False,BACKWARDS,0.500,0,0,SEARCHING,False,False,True,0,True,STUCK_DETECTED,0.00,0
1764635289.2689946,76.995,62,TEST2_OBSTACLE_BYPASS,False,0.0,0.0,0.0,0.00,0.000,0.0,607.1,-2584.9,77.07,76.19,77.07,142.80,88.57,0.0405,10.0,-3.095,0.0000,0.0000,0.0000,0.00,0.0664,-3.4994,3.5000,178.91,9,300.0,254.0,0.0664,-3.4994,3.5000,178.91,0.00,178.91,0.00,False,BACKWARDS,0.500,0,0,SEARCHING,False,False,True,0,True,STUCK_DETECTED,0.00,0
1764635289.312811,77.039,63,TEST2_OBSTACLE_BYPASS,False,0.0,0.0,0.0,0.00,0.000,0.0,605.5,-2591.2,76.31,72.13,76.31,138.71,88.55,0.0373,10.0,-3.190,0.0000,0.0000,0.0000,0.00,-0.0450,-3.4997,3.5000,-179.26,8,300.0,254.0,-0.0450,-3.4997,3.5000,-179.26,0.00,-179.26,0.00,False,BACKWARDS,0.500,0,0,SEARCHING,False,False,True,0,True,STUCK_DETECTED,0.00,0
1764635289.353099,77.079,64,TEST2_OBSTACLE_BYPASS,False,0.0,0.0,0.0,0.00,0.000,0.0,604.0,-2597.1,75.50,70.86,75.50,137.37,88.76,-0.0085,10.0,-3.296,0.0000,0.0000,0.0000,0.00,-0.0450,-3.4997,3.5000,-179.26,8,300.0,254.0,-0.0450,-3.4997,3.5000,-179.26,0.00,-179.26,0.00,False,BACKWARDS,0.500,0,0,SEARCHING,False,False,True,0,True,STUCK_DETECTED,0.00,0
1764635289.3919606,77.118,65,TEST2_OBSTACLE_BYPASS,False,0.0,0.0,0.0,0.00,0.000,0.0,602.5,-2602.7,75.17,74.88,75.17,141.47,88.82,-0.0884,10.0,-3.403,0.0000,0.0000,0.0000,0.00,0.0640,-3.4994,3.5000,178.95,9,300.0,254.0,0.0640,-3.4994,3.5000,178.95,0.00,178.95,0.00,False,BACKWARDS,0.500,0,0,SEARCHING,False,False,True,0,True,STUCK_DETECTED,0.00,0
1764635289.4348614,77.161,66,TEST2_OBSTACLE_BYPASS,False,0.0,0.0,0.0,0.00,0.000,0.0,601.0,-2608.8,75.70,82.93,75.70,149.68,88.79,-0.0266,10.0,-3.499,0.0000,0.0000,0.0000,0.00,0.0640,-3.4994,3.5000,178.95,9,300.0,254.0,0.0640,-3.4994,3.5000,178.95,0.00,178.95,0.00,False,BACKWARDS,0.500,0,0,SEARCHING,False,False,True,0,True,STUCK_DETECTED,0.00,0
1764635289.473127,77.199,67,TEST2_OBSTACLE_BYPASS,False,0.0,0.0,0.0,0.00,0.000,0.0,599.6,-2614.6,76.44,83.44,76.44,150.52,88.59,0.0383,10.0,-3.581,0.0000,0.0000,0.0000,0.00,0.1521,-3.4967,3.5000,177.51,12,300.0,254.0,0.1521,-3.4967,3.5000,177.51,0.00,177.51,0.00,False,BACKWARDS,0.500,0,0,SEARCHING,False,False,True,0,True,STUCK_DETECTED,0.00,0
1764635289.5160391,77.242,68,TEST2_OBSTACLE_BYPASS,False,0.0,0.0,0.0,0.00,0.000,0.0,598.1,-2620.8,76.72,76.55,76.72,143.98,88.39,0.0937,10.0,-3.656,0.0000,0.0000,0.0000,0.00,0.1521,-3.4967,3.5000,177.51,12,300.0,254.0,0.1521,-3.4967,3.5000,177.51,0.00,177.51,0.00,False,BACKWARDS,0.500,0,0,SEARCHING,False,False,True,0,True,STUCK_DETECTED,0.00,0
1764635289.5528004,77.279,69,TEST2_OBSTACLE_BYPASS,False,0.0,0.0,0.0,0.00,0.000,0.0,596.7,-2626.5,76.55,73.67,76.55,140.87,88.41,0.0011,10.0,-3.731,0.0000,0.0000,0.0000,0.00,0.2219,-3.4930,3.5000,176.36,14,300.0,254.0,0.2219,-3.4930,3.5000,176.36,0.00,176.36,0.00,False,BACKWARDS,0.500,0,0,SEARCHING,False,False,True,0,True,STUCK_DETECTED,0.00,0
1764635289.5982397,77.324,70,TEST2_OBSTACLE_BYPASS,False,0.0,0.0,0.0,0.00,0.000,0.0,595.3,-2632.7,76.56,77.63,76.56,144.22,88.64,-0.0660,10.0,-3.804,0.0000,0.0000,0.0000,0.00,0.2219,-3.4930,3.5000,176.36,14,300.0,254.0,0.2219,-3.4930,3.5000,176.36,0.00,176.36,0.00,False,BACKWARDS,0.500,0,0,SEARCHING,False,False,True,0,True,STUCK_DETECTED,0.00,0
1764635289.6365812,77.362,71,TEST2_OBSTACLE_BYPASS,False,0.0,0.0,0.0,0.00,0.000,0.0,593.9,-2638.5,76.84,80.14,76.84,146.51,88.49,-0.0341,10.0,-3.871,0.0000,0.0000,0.0000,0.00,0.6027,-3.4477,3.5000,170.08,16,300.0,254.0,0.6027,-3.4477,3.5000,170.08,0.00,170.08,0.00,False,BACKWARDS,0.500,0,0,SEARCHING,False,False,True,0,True,STUCK_DETECTED,0.00,0
1764635289.6835551,77.409,72,TEST2_OBSTACLE_BYPASS,False,0.0,0.0,0.0,0.00,0.000,0.0,592.5,-2644.8,77.17,79.46,77.17,145.75,88.62,0.0362,10.0,-3.931,0.0000,0.0000,0.0000,0.00,0.6027,-3.4477,3.5000,170.08,16,300.0,254.0,0.6027,-3.4477,3.5000,170.08,0.00,170.08,0.00,False,BACKWARDS,0.500,0,0,SEARCHING,False,False,True,0,True,STUCK_DETECTED,0.00,0
1764635289.720183,77.446,73,TEST2_OBSTACLE_BYPASS,False,0.0,0.0,0.0,0.00,0.000,0.0,591.2,-2650.6,77.70,77.41,77.70,143.91,88.51,0.0256,10.0,-3.983,0.0000,0.0000,0.0000,0.00,1.2265,-3.2781,3.5000,159.49,18,300.0,254.0,1.2265,-3.2781,3.5000,159.49,0.00,159.49,0.00,False,BACKWARDS,0.500,0,0,SEARCHING,False,False,True,0,True,STUCK_DETECTED,0.00,0
1764635289.7576153,77.483,74,TEST2_OBSTACLE_BYPASS,False,0.0,0.0,0.0,0.00,0.000,0.0,590.1,-2656.2,78.35,77.44,78.35,143.96,88.53,-0.0117,10.0,-4.024,0.0000,0.0000,0.0000,0.00,1.2265,-3.2781,3.5000,159.49,18,300.0,254.0,1.2265,-3.2781,3.5000,159.49,0.00,159.49,0.00,False,BACKWARDS,0.500,0,0,SEARCHING,False,False,True,0,True,STUCK_DETECTED,0.00,0
1764635289.8012307,77.527,75,TEST2_OBSTACLE_BYPASS,False,0.0,0.0,0.0,0.00,0.000,0.0,588.8,-2662.4,78.70,78.36,78.70,144.92,88.53,-0.0181,10.0,-4.059,0.0000,0.0000,0.0000,0.00,1.4922,-3.1659,3.5000,154.76,19,300.0,254.0,1.4922,-3.1659,3.5000,154.76,0.00,154.76,0.00,False,BACKWARDS_RIGHT,0.500,0,0,SEARCHING,False,False,True,0,True,STUCK_DETECTED,0.00,0
1764635289.838453,77.564,76,TEST2_OBSTACLE_BYPASS,False,0.0,0.0,0.0,0.00,0.000,0.0,588.0,-2666.2,78.23,78.19,78.23,144.86,88.53,-0.0170,10.0,-4.100,0.0000,0.0000,0.0000,0.00,1.4922,-3.1659,3.5000,154.76,19,300.0,254.0,1.4922,-3.1659,3.5000,154.76,0.00,154.76,0.00,False,BACKWARDS_RIGHT,0.500,0,0,SEARCHING,False,False,True,0,True,STUCK_DETECTED,0.00,0
1764635289.8789232,77.605,77,TEST2_OBSTACLE_BYPASS,False,0.0,0.0,0.0,0.00,0.000,0.0,587.1,-2670.5,77.69,78.08,77.69,144.89,88.42,-0.0032,10.0,-4.146,0.0000,0.0000,0.0000,0.00,1.5093,-3.1579,3.5000,154.45,22,300.0,254.0,1.5093,-3.1579,3.5000,154.45,0.00,154.45,0.00,False,BACKWARDS_RIGHT,0.500,0,0,SEARCHING,False,False,True,0,True,STUCK_DETECTED,0.00,0
1764635289.9251778,77.651,78,TEST2_OBSTACLE_BYPASS,False,0.0,0.0,0.0,0.00,0.000,0.0,586.1,-2675.1,77.87,78.32,77.87,145.22,88.55,0.0117,10.0,-4.189,0.0000,0.0000,0.0000,0.00,1.5093,-3.1579,3.5000,154.45,22,300.0,254.0,1.5093,-3.1579,3.5000,154.45,0.00,154.45,0.00,False,BACKWARDS_RIGHT,0.500,0,0,SEARCHING,False,False,True,0,True,STUCK_DETECTED,0.00,0
1764635289.965182,77.691,79,TEST2_OBSTACLE_BYPASS,False,0.0,0.0,0.0,0.00,0.000,0.0,585.2,-2679.3,78.30,77.96,78.30,144.92,88.62,0.0245,10.0,-4.226,0.0000,0.0000,0.0000,0.00,1.6027,-3.1115,3.5000,152.75,26,300.0,254.0,1.6027,-3.1115,3.5000,152.75,0.00,152.75,0.00,False,BACKWARDS_RIGHT,0.500,0,0,SEARCHING,False,False,True,0,True,STUCK_DETECTED,0.00,0
1764635290.003417,77.729,80,TEST2_OBSTACLE_BYPASS,False,0.0,0.0,0.0,0.00,0.000,0.0,584.4,-2683.1,78.23,76.96,78.23,144.11,88.39,0.0096,10.0,-4.262,0.0000,0.0000,0.0000,0.00,1.6027,-3.1115,3.5000,152.75,26,300.0,254.0,1.6027,-3.1115,3.5000,152.75,0.00,152.75,0.00,False,BACKWARDS_RIGHT,0.500,0,0,SEARCHING,False,False,True,0,True,STUCK_DETECTED,0.00,0
1764635290.0436268,77.769,81,TEST2_OBSTACLE_BYPASS,False,0.0,0.0,0.0,0.00,0.000,0.0,583.5,-2687.6,77.84,76.24,77.84,143.46,88.48,-0.0064,10.0,-4.303,0.0000,0.0000,0.0000,0.00,1.6805,-3.0701,3.5000,151.30,28,300.0,254.0,1.6805,-3.0701,3.5000,151.30,0.00,151.30,0.00,False,BACKWARDS_RIGHT,0.500,0,0,SEARCHING,False,False,True,0,True,STUCK_DETECTED,0.00,0
1764635290.0831864,77.809,82,TEST2_OBSTACLE_BYPASS,False,0.0,0.0,0.0,0.00,0.000,0.0,582.6,-2691.6,77.56,76.61,77.56,143.96,88.49,-0.0202,10.0,-4.346,0.0000,0.0000,0.0000,0.00,1.9003,-2.9392,3.5000,147.12,27,300.0,254.0,1.9003,-2.9392,3.5000,147.12,0.00,147.12,0.00,False,BACKWARDS_RIGHT,0.500,0,0,SEARCHING,False,False,True,0,True,STUCK_DETECTED,0.00,0
1764635290.1277952,77.854,83,TEST2_OBSTACLE_BYPASS,False,0.0,0.0,0.0,0.00,0.000,0.0,581.6,-2695.9,77.55,77.34,77.55,144.88,88.34,0.0021,10.0,-4.388,0.0000,0.0000,0.0000,0.00,1.9003,-2.9392,3.5000,147.12,27,300.0,254.0,1.9003,-2.9392,3.5000,147.12,0.00,147.12,0.00,False,BACKWARDS_RIGHT,0.500,0,0,SEARCHING,False,False,True,0,True,STUCK_DETECTED,0.00,0
1764635290.1642306,77.890,84,TEST2_OBSTACLE_BYPASS,False,0.0,0.0,0.0,0.00,0.000,0.0,580.8,-2699.8,77.65,78.41,77.65,146.09,88.25,0.0320,10.0,-4.427,0.0000,0.0000,0.0000,0.00,2.0015,-2.8712,3.5000,145.12,22,300.0,254.0,2.0015,-2.8712,3.5000,145.12,0.00,145.12,0.00,False,BACKWARDS_RIGHT,0.500,0,0,SEARCHING,False,False,True,0,True,STUCK_DETECTED,0.00,0
1764635290.206145,77.932,85,TEST2_OBSTACLE_BYPASS,False,0.0,0.0,0.0,0.00,0.000,0.0,579.8,-2704.1,77.68,78.66,77.68,146.38,88.28,0.0128,10.0,-4.466,0.0000,0.0000,0.0000,0.00,2.0015,-2.8712,3.5000,145.12,22,300.0,254.0,2.0015,-2.8712,3.5000,145.12,0.00,145.12,0.00,False,BACKWARDS_RIGHT,0.500,0,0,SEARCHING,False,False,True,0,True,STUCK_DETECTED,0.00,0
1764635290.2446618,77.971,86,TEST2_OBSTACLE_BYPASS,False,0.0,0.0,0.0,0.00,0.000,0.0,579.0,-2708.1,77.68,78.23,77.68,145.98,88.28,-0.0170,10.0,-4.503,0.0000,0.0000,0.0000,0.00,2.1085,-2.7936,3.5000,142.96,24,300.0,254.0,2.1085,-2.7936,3.5000,142.96,0.00,142.96,0.00,False,BACKWARDS_RIGHT,0.500,0,0,SEARCHING,False,False,True,0,True,STUCK_DETECTED,0.00,0
1764635290.2891076,78.015,87,TEST2_OBSTACLE_BYPASS,True,-588.9,2625.2,2690.4,347.36,0.839,0.0,578.0,-2712.5,77.72,78.41,77.72,146.15,88.36,-0.0298,10.0,-4.539,0.0000,0.0000,0.0000,0.00,2.1085,-2.7936,3.5000,142.96,24,300.0,254.0,2.1085,-2.7936,3.5000,142.96,-12.64,142.96,155.60,True,BACKWARDS_RIGHT,0.500,0,0,NAVIGATING,True,False,True,0,True,FORCE_AWAY_FROM_PERSON|STUCK_DETECTED,0.00,0
1764635290.3317885,78.058,88,TEST2_OBSTACLE_BYPASS,True,-622.0,2733.8,2803.7,347.18,0.890,0.0,577.1,-2716.8,77.89,80.12,77.89,147.89,88.35,-0.0149,10.0,-4.573,0.0000,0.0000,0.0000,0.00,2.0524,-2.8351,3.5000,144.10,24,300.0,254.0,2.0524,-2.8351,3.5000,144.10,-12.82,144.10,156.92,True,BACKWARDS_RIGHT,0.500,0,0,STUCK,True,False,True,0,True,FORCE_AWAY_FROM_PERSON|STUCK_DETECTED,0.00,0
1764635290.368785,78.095,89,TEST2_OBSTACLE_BYPASS,True,-622.0,2733.8,2803.7,347.18,0.890,0.0,576.3,-2720.7,78.11,80.11,78.11,147.89,88.39,0.0352,10.0,-4.603,0.0000,0.0000,0.0000,0.00,2.0524,-2.8351,3.5000,144.10,24,300.0,254.0,2.0524,-2.8351,3.5000,144.10,-12.82,144.10,156.92,True,BACKWARDS_RIGHT,0.500,0,0,STUCK,False,False,True,0,True,FORCE_AWAY_FROM_PERSON|STUCK_DETECTED,0.00,0
1764635290.4140599,78.140,90,TEST2_OBSTACLE_BYPASS,True,-706.1,2774.3,2862.8,345.72,0.906,0.0,575.3,-2725.2,78.29,78.75,78.29,146.55,88.32,0.0245,10.0,-4.630,0.0000,0.0000,0.0000,0.00,1.9019,-2.9381,3.5000,147.08,27,300.0,254.0,1.9019,-2.9381,3.5000,147.08,-14.28,147.08,161.36,True,BACKWARDS_RIGHT,0.500,0,0,STUCK,False,False,True,0,True,FORCE_AWAY_FROM_PERSON|STUCK_DETECTED,0.00,0
1764635290.4500935,78.176,91,TEST2_OBSTACLE_BYPASS,True,-706.1,2774.3,2862.8,345.72,0.906,0.0,574.6,-2729.1,78.52,78.54,78.52,146.24,88.24,0.0256,10.0,-4.655,0.0000,0.0000,0.0000,0.00,1.9019,-2.9381,3.5000,147.08,27,300.0,254.0,1.9019,-2.9381,3.5000,147.08,-14.28,147.08,161.36,True,BACKWARDS_RIGHT,0.500,0,0,STUCK,False,False,True,0,True,FORCE_AWAY_FROM_PERSON|STUCK_DETECTED,0.00,0
1764635290.4932892,78.219,92,TEST2_OBSTACLE_BYPASS,True,-706.1,2774.3,2862.8,345.72,0.906,0.0,573.7,-2733.4,78.78,79.17,78.78,146.65,88.16,0.0064,10.0,-4.675,0.0000,0.0000,0.0000,0.00,1.6462,-3.0887,3.5000,151.94,26,300.0,254.0,1.6462,-3.0887,3.5000,151.94,-14.28,151.94,166.22,True,BACKWARDS_RIGHT,0.500,0,0,STUCK,False,False,True,0,True,FORCE_AWAY_FROM_PERSON|STUCK_DETECTED,0.00,0
1764635290.5298934,78.256,93,TEST2_OBSTACLE_BYPASS,True,-706.1,2774.3,2862.8,345.72,0.906,0.0,572.9,-2737.4,78.91,78.74,78.91,146.01,88.08,0.0064,10.0,-4.694,0.0000,0.0000,0.0000,0.00,1.6462,-3.0887,3.5000,151.94,26,300.0,254.0,1.6462,-3.0887,3.5000,151.94,-14.28,151.94,166.22,True,BACKWARDS_RIGHT,0.500,0,0,STUCK,False,False,True,0,True,FORCE_AWAY_FROM_PERSON|STUCK_DETECTED,0.00,0
1764635290.575738,78.302,94,TEST2_OBSTACLE_BYPASS,True,-706.1,2774.3,2862.8,345.72,0.906,0.0,572.0,-2741.8,78.65,75.74,78.65,142.71,88.39,-0.0266,10.0,-4.716,0.0000,0.0000,0.0000,0.00,1.5850,-3.1205,3.5000,153.07,23,300.0,254.0,1.5850,-3.1205,3.5000,153.07,-14.28,153.07,167.35,True,BACKWARDS_RIGHT,0.500,0,0,STUCK,False,False,True,0,True,FORCE_AWAY_FROM_PERSON|STUCK_DETECTED,0.00,0
1764635290.6124635,78.338,95,TEST2_OBSTACLE_BYPASS,True,-760.5,2759.9,2862.8,344.59,0.906,0.0,571.2,-2745.8,78.28,74.96,78.28,142.01,88.41,-0.0554,10.0,-4.741,0.0000,0.0000,0.0000,0.00,1.5850,-3.1205,3.5000,153.07,23,300.0,254.0,1.5850,-3.1205,3.5000,153.07,-15.41,153.07,168.48,True,BACKWARDS_RIGHT,0.500,0,0,STUCK,False,False,True,0,True,FORCE_AWAY_FROM_PERSON|STUCK_DETECTED,0.00,0
1764635290.6531038,78.379,96,TEST2_OBSTACLE_BYPASS,True,-760.5,2759.9,2862.8,344.59,0.906,0.0,570.3,-2750.0,78.25,77.94,78.25,145.32,88.44,-0.0309,10.0,-4.765,0.0000,0.0000,0.0000,0.00,1.5616,-3.1323,3.5000,153.50,21,300.0,254.0,1.5616,-3.1323,3.5000,153.50,-15.41,153.50,168.91,True,BACKWARDS_RIGHT,0.500,0,0,STUCK,False,False,True,0,True,FORCE_AWAY_FROM_PERSON|STUCK_DETECTED,0.00,0
1764635290.6930437,78.419,97,TEST2_OBSTACLE_BYPASS,True,-760.5,2759.9,2862.8,344.59,0.906,0.0,569.5,-2754.0,78.28,78.76,78.28,146.48,88.49,0.0341,10.0,-4.789,0.0000,0.0000,0.0000,0.00,1.5616,-3.1323,3.5000,153.50,21,300.0,254.0,1.5616,-3.1323,3.5000,153.50,-15.41,153.50,168.91,True,BACKWARDS_RIGHT,0.500,0,0,STUCK,False,False,True,0,True,FORCE_AWAY_FROM_PERSON|STUCK_DETECTED,0.00,0
1764635290.7312145,78.457,98,TEST2_OBSTACLE_BYPASS,False,0.0,0.0,0.0,0.00,0.000,0.0,568.6,-2758.3,77.99,77.16,77.99,145.29,88.46,0.0053,10.0,-4.815,0.0000,0.0000,0.0000,0.00,1.1738,-3.2973,3.5000,160.41,20,300.0,254.0,1.1738,-3.2973,3.5000,160.41,0.00,160.41,0.00,False,NONE,0.000,0,0,STUCK,False,False,True,0,True,STUCK_DETECTED,0.00,0
1764635290.769311,78.495,99,TEST2_OBSTACLE_BYPASS,False,0.0,0.0,0.0,0.00,0.000,0.0,567.7,-2762.2,77.71,77.37,77.71,145.50,88.45,-0.0160,10.0,-4.844,0.0000,0.0000,0.0000,0.00,1.1738,-3.2973,3.5000,160.41,20,300.0,254.0,1.1738,-3.2973,3.5000,160.41,0.00,160.41,0.00,False,NONE,0.000,0,0,STUCK,False,False,True,0,True,STUCK_DETECTED,0.00,0
1764635290.8113027,78.537,100,TEST2_OBSTACLE_BYPASS,False,0.0,0.0,0.0,0.00,0.000,0.0,566.8,-2766.5,77.64,78.03,77.64,145.81,88.52,-0.0298,10.0,-4.873,0.0000,0.0000,0.0000,0.00,0.6033,-3.4476,3.5000,170.07,18,300.0,254.0,0.6033,-3.4476,3.5000,170.07,0.00,170.07,0.00,False,NONE,0.000,0,0,STUCK,False,False,True,0,True,STUCK_DETECTED,0.00,0
1764635290.8554046,78.581,101,TEST2_OBSTACLE_BYPASS,True,-842.7,2749.0,2875.2,342.96,0.932,0.0,565.9,-2770.7,77.56,77.68,77.56,145.29,88.69,0.0256,10.0,-4.902,0.0000,0.0000,0.0000,0.00,0.6033,-3.4476,3.5000,170.07,18,300.0,254.0,0.6033,-3.4476,3.5000,170.07,-17.04,170.07,-172.88,True,BACKWARDS,0.500,0,0,STUCK,False,False,True,0,True,FORCE_AWAY_FROM_PERSON|BACKWARD_TOWARD_FRONT_PERSON|STUCK_DETECTED,0.00,0
1764635290.8915536,78.617,102,TEST2_OBSTACLE_BYPASS,True,-842.7,2749.0,2875.2,342.96,0.932,0.0,564.6,-2776.3,77.36,77.21,77.36,144.93,88.51,0.0107,10.0,-4.982,0.0000,0.0000,0.0000,0.00,0.3965,-3.4775,3.5000,173.50,18,300.0,254.0,0.3965,-3.4775,3.5000,173.50,-17.04,173.50,-169.46,True,BACKWARDS,0.500,0,0,STUCK,False,False,True,0,True,FORCE_AWAY_FROM_PERSON|BACKWARD_TOWARD_FRONT_PERSON|STUCK_DETECTED,0.00,0
1764635290.9400556,78.666,103,TEST2_OBSTACLE_BYPASS,True,-834.6,2743.2,2867.4,343.08,0.926,0.0,563.2,-2782.5,77.29,78.09,77.29,145.89,88.39,-0.0128,10.0,-5.062,0.0000,0.0000,0.0000,0.00,0.3965,-3.4775,3.5000,173.50,18,300.0,254.0,0.3965,-3.4775,3.5000,173.50,-16.92,173.50,-169.58,True,BACKWARDS,0.500,0,0,STUCK,False,False,True,0,True,FORCE_AWAY_FROM_PERSON|BACKWARD_TOWARD_FRONT_PERSON|STUCK_DETECTED,0.00,0
1764635290.9746854,78.701,104,TEST2_OBSTACLE_BYPASS,True,-834.6,2743.2,2867.4,343.08,0.926,0.0,562.0,-2788.0,77.63,79.14,77.63,146.71,88.37,-0.0107,10.0,-5.139,0.0000,0.0000,0.0000,0.00,0.2828,-3.4886,3.5000,175.36,18,300.0,254.0,0.2828,-3.4886,3.5000,175.36,-16.92,175.36,-167.71,True,BACKWARDS,0.500,0,0,STUCK,False,False,True,0,True,FORCE_AWAY_FROM_PERSON|BACKWARD_TOWARD_FRONT_PERSON|STUCK_DETECTED,0.00,0
1764635291.0176249,78.743,105,TEST2_OBSTACLE_BYPASS,True,-863.8,2718.5,2852.4,342.37,0.948,0.0,560.7,-2794.0,78.04,79.04,78.04,146.17,88.53,0.0170,10.0,-5.212,0.0000,0.0000,0.0000,0.00,0.2828,-3.4886,3.5000,175.36,18,300.0,254.0,0.2828,-3.4886,3.5000,175.36,-17.63,175.36,-167.01,True,BACKWARDS,0.500,0,0,STUCK,False,False,True,0,True,FORCE_AWAY_FROM_PERSON|BACKWARD_TOWARD_FRONT_PERSON|STUCK_DETECTED,0.00,0
1764635291.0570471,78.783,106,TEST2_OBSTACLE_BYPASS,True,-917.0,2701.0,2852.4,341.25,0.948,0.0,559.5,-2799.8,78.01,77.60,78.01,144.58,88.41,0.0064,10.0,-5.285,0.0000,0.0000,0.0000,0.00,0.6272,-3.4433,3.5000,169.68,17,300.0,254.0,0.6272,-3.4433,3.5000,169.68,-18.75,169.68,-171.57,True,BACKWARDS,0.500,0,0,STUCK,False,False,True,0,True,FORCE_AWAY_FROM_PERSON|BACKWARD_TOWARD_FRONT_PERSON|STUCK_DETECTED,0.00,0
1764635291.1011927,78.827,107,TEST2_OBSTACLE_BYPASS,True,-935.4,2685.7,2843.9,340.80,0.928,0.0,558.1,-2806.1,77.86,77.28,77.86,144.14,88.47,0.0021,10.0,-5.360,0.0000,0.0000,0.0000,0.00,0.6272,-3.4433,3.5000,169.68,17,300.0,254.0,0.6272,-3.4433,3.5000,169.68,-19.20,169.68,-171.12,True,BACKWARDS,0.500,0,0,STUCK,False,False,True,0,True,FORCE_AWAY_FROM_PERSON|BACKWARD_TOWARD_FRONT_PERSON|STUCK_DETECTED,0.00,0
1764635291.1385891,78.864,108,TEST2_OBSTACLE_BYPASS,True,-935.4,2685.7,2843.9,340.80,0.928,0.0,556.8,-2812.4,77.93,77.83,77.93,144.73,88.49,0.0043,10.0,-5.434,0.0000,0.0000,0.0000,0.00,0.0622,-3.4994,3.5000,178.98,12,300.0,254.0,0.0622,-3.4994,3.5000,178.98,-19.20,178.98,-161.82,True,BACKWARDS,0.500,0,0,STUCK,False,False,True,0,True,FORCE_AWAY_FROM_PERSON|BACKWARD_TOWARD_FRONT_PERSON|STUCK_DETECTED,0.00,0
1764635291.188876,78.915,109,TEST2_OBSTACLE_BYPASS,True,-935.4,2685.7,2843.9,340.80,0.928,0.0,555.3,-2819.4,78.03,78.35,78.03,145.51,88.46,-0.0128,10.0,-5.507,0.0000,0.0000,0.0000,0.00,-0.1914,-3.4948,3.5000,-176.87,9,300.0,140.0,-0.1914,-3.4948,3.5000,-176.87,-19.20,-176.87,-157.66,True,BACKWARDS,0.500,0,0,STUCK,False,False,True,0,True,FORCE_AWAY_FROM_PERSON|BACKWARD_TOWARD_FRONT_PERSON|STUCK_DETECTED,0.00,0
1764635291.2225227,78.948,110,TEST2_OBSTACLE_BYPASS,True,-935.4,2685.7,2843.9,340.80,0.928,0.0,554.3,-2824.3,77.97,77.49,77.97,144.78,88.38,-0.0170,10.0,-5.581,0.0000,0.0000,0.0000,0.00,-0.1914,-3.4948,3.5000,-176.87,9,300.0,140.0,-0.1914,-3.4948,3.5000,-176.87,-19.20,-176.87,-157.66,True,BACKWARDS,0.500,0,0,STUCK,False,False,True,0,True,FORCE_AWAY_FROM_PERSON|BACKWARD_TOWARD_FRONT_PERSON|STUCK_DETECTED,0.00,0
1764635291.2630944,78.989,111,TEST2_OBSTACLE_BYPASS,True,-987.9,2666.8,2843.9,339.67,0.928,0.0,552.9,-2830.5,77.76,75.54,77.76,142.67,88.58,-0.0352,10.0,-5.655,0.0000,0.0000,0.0000,0.00,-0.2191,-3.4931,3.5000,-176.41,9,300.0,140.0,-0.2191,-3.4931,3.5000,-176.41,-20.33,-176.41,-156.08,True,BACKWARDS,0.500,0,0,STUCK,False,False,True,0,True,FORCE_AWAY_FROM_PERSON|BACKWARD_TOWARD_FRONT_PERSON|STUCK_DETECTED,0.00,0
1764635291.3041637,79.030,112,TEST2_OBSTACLE_BYPASS,True,-987.9,2666.8,2843.9,339.67,0.928,0.0,551.6,-2836.3,77.61,75.74,77.61,142.72,88.76,-0.0075,10.0,-5.728,0.0000,0.0000,0.0000,0.00,-0.2191,-3.4931,3.5000,-176.41,9,300.0,140.0,-0.2191,-3.4931,3.5000,-176.41,-20.33,-176.41,-156.08,True,BACKWARDS,0.500,0,0,STUCK,False,False,True,0,True,FORCE_AWAY_FROM_PERSON|BACKWARD_TOWARD_FRONT_PERSON|STUCK_DETECTED,0.00,0
1764635291.349949,79.076,113,TEST2_OBSTACLE_BYPASS,True,-987.9,2666.8,2843.9,339.67,0.928,0.0,550.2,-2843.0,77.54,77.34,77.54,144.48,88.64,0.0107,10.0,-5.797,0.0000,0.0000,0.0000,0.00,0.3147,-3.4858,3.5000,174.84,11,300.0,140.0,0.3147,-3.4858,3.5000,174.84,-20.33,174.84,-164.83,True,BACKWARDS,0.500,0,0,STUCK,False,False,True,0,True,FORCE_AWAY_FROM_PERSON|BACKWARD_TOWARD_FRONT_PERSON|STUCK_DETECTED,0.00,0
1764635291.3978431,79.124,114,TEST2_OBSTACLE_BYPASS,False,0.0,0.0,0.0,0.00,0.000,0.0,548.5,-2850.3,77.41,77.88,77.41,145.04,88.42,0.0021,10.0,-5.860,0.0000,0.0000,0.0000,0.00,0.3147,-3.4858,3.5000,174.84,11,300.0,140.0,0.3147,-3.4858,3.5000,174.84,0.00,174.84,0.00,False,NONE,0.000,0,0,STUCK,False,False,True,0,True,STUCK_DETECTED,0.00,0
1764635291.4357615,79.162,115,TEST2_OBSTACLE_BYPASS,False,0.0,0.0,0.0,0.00,0.000,0.0,547.2,-2856.0,77.22,77.16,77.22,143.70,88.49,-0.0117,10.0,-5.917,0.0000,0.0000,0.0000,0.00,0.3793,-3.4794,3.5000,173.78,12,300.0,140.0,0.3793,-3.4794,3.5000,173.78,0.00,173.78,0.00,False,NONE,0.000,0,0,STUCK,False,False,True,0,True,STUCK_DETECTED,0.00,0
1764635291.4776042,79.203,116,TEST2_OBSTACLE_BYPASS,False,0.0,0.0,0.0,0.00,0.000,0.0,545.8,-2862.2,76.98,75.23,76.98,140.78,88.60,-0.0032,10.0,-5.971,0.0000,0.0000,0.0000,0.00,0.3793,-3.4794,3.5000,173.78,12,300.0,140.0,0.3793,-3.4794,3.5000,173.78,0.00,173.78,0.00,False,NONE,0.000,0,0,STUCK,False,False,True,0,True,STUCK_DETECTED,0.00,0
1764635291.5316646,79.258,117,TEST2_OBSTACLE_BYPASS,False,0.0,0.0,0.0,0.00,0.000,0.0,543.9,-2870.3,76.89,76.37,76.89,141.13,88.68,-0.0128,10.0,-6.025,0.0000,0.0000,0.0000,0.00,0.2846,-3.4884,3.5000,175.34,16,300.0,140.0,0.2846,-3.4884,3.5000,175.34,0.00,175.34,0.00,False,NONE,0.000,0,0,STUCK,False,False,True,0,True,STUCK_DETECTED,0.00,0
1764635291.5705922,79.296,118,TEST2_OBSTACLE_BYPASS,False,0.0,0.0,0.0,0.00,0.000,0.0,542.6,-2875.9,77.09,79.76,77.09,144.36,88.52,-0.0021,10.0,-6.075,0.0000,0.0000,0.0000,0.00,0.1462,-3.4969,3.5000,177.61,14,300.0,140.0,0.1462,-3.4969,3.5000,177.61,0.00,177.61,0.00,False,NONE,0.000,0,0,STUCK,False,False,True,0,True,STUCK_DETECTED,0.00,0
1764635291.6140468,79.340,119,TEST2_OBSTACLE_BYPASS,False,0.0,0.0,0.0,0.00,0.000,0.0,541.2,-2882.1,77.33,80.85,77.33,145.27,88.33,0.0352,10.0,-6.122,0.0000,0.0000,0.0000,0.00,0.1462,-3.4969,3.5000,177.61,14,300.0,140.0,0.1462,-3.4969,3.5000,177.61,0.00,177.61,0.00,False,NONE,0.000,0,0,STUCK,False,False,True,0,True,STUCK_DETECTED,0.00,0
1764635291.6669664,79.393,120,TEST2_OBSTACLE_BYPASS,False,0.0,0.0,0.0,0.00,0.000,0.0,539.6,-2889.5,77.46,78.78,77.46,142.88,88.31,0.0426,10.0,-6.166,0.0000,0.0000,0.0000,0.00,0.4497,-3.4710,3.5000,172.62,18,300.0,140.0,0.4497,-3.4710,3.5000,172.62,0.00,172.62,0.00,False,BACKWARDS,0.500,0,0,STUCK,False,False,True,0,True,STUCK_DETECTED,0.00,0
1764635291.7129347,79.439,121,TEST2_OBSTACLE_BYPASS,True,-1092.8,2579.2,2801.1,337.04,0.942,0.0,538.2,-2895.9,77.51,75.98,77.51,139.73,88.37,-0.0107,10.0,-6.207,0.0000,0.0000,0.0000,0.00,0.4497,-3.4710,3.5000,172.62,18,300.0,140.0,0.4497,-3.4710,3.5000,172.62,-22.96,172.62,-164.42,True,BACKWARDS,0.500,0,0,STUCK,False,False,True,0,True,FORCE_AWAY_FROM_PERSON|BACKWARD_TOWARD_FRONT_PERSON|STUCK_DETECTED,0.00,0
1764635291.7491765,79.475,122,TEST2_OBSTACLE_BYPASS,True,-1092.8,2579.2,2801.1,337.04,0.942,0.0,537.0,-2901.3,77.62,76.87,77.62,140.36,88.44,-0.0415,10.0,-6.248,0.0000,0.0000,0.0000,0.00,0.7489,-3.4189,3.5000,167.65,21,300.0,140.0,0.7489,-3.4189,3.5000,167.65,-22.96,167.65,-169.39,True,BACKWARDS,0.500,0,0,STUCK,False,False,True,0,True,FORCE_AWAY_FROM_PERSON|BACKWARD_TOWARD_FRONT_PERSON|STUCK_DETECTED,0.00,0
1764635291.7962222,79.522,123,TEST2_OBSTACLE_BYPASS,True,-1092.8,2579.2,2801.1,337.04,0.942,0.0,535.5,-2908.2,77.90,80.09,77.90,143.33,88.56,-0.0224,10.0,-6.291,0.0000,0.0000,0.0000,0.00,0.7489,-3.4189,3.5000,167.65,21,300.0,140.0,0.7489,-3.4189,3.5000,167.65,-22.96,167.65,-169.39,True,BACKWARDS,0.500,0,0,STUCK,False,False,True,0,True,FORCE_AWAY_FROM_PERSON|BACKWARD_TOWARD_FRONT_PERSON|STUCK_DETECTED,0.00,0
1764635291.8354712,79.561,124,TEST2_OBSTACLE_BYPASS,True,-1084.8,2552.9,2773.8,336.98,0.980,0.0,534.3,-2914.0,78.14,80.28,78.14,143.56,88.36,0.0170,10.0,-6.337,0.0000,0.0000,0.0000,0.00,1.1386,-3.3096,3.5000,161.01,25,300.0,140.0,1.1386,-3.3096,3.5000,161.01,-23.02,161.01,-175.96,True,BACKWARDS,0.500,0,0,STUCK,False,False,True,0,True,FORCE_AWAY_FROM_PERSON|BACKWARD_TOWARD_FRONT_PERSON|STUCK_DETECTED,0.00,0
1764635291.8805187,79.606,125,TEST2_OBSTACLE_BYPASS,True,-1084.8,2552.9,2773.8,336.98,0.980,0.0,533.0,-2920.3,78.33,79.07,78.33,142.13,88.46,0.0330,10.0,-6.388,0.0000,0.0000,0.0000,0.00,1.1386,-3.3096,3.5000,161.01,25,300.0,140.0,1.1386,-3.3096,3.5000,161.01,-23.02,161.01,-175.96,True,BACKWARDS,0.500,0,0,STUCK,False,False,True,0,True,FORCE_AWAY_FROM_PERSON|BACKWARD_TOWARD_FRONT_PERSON|STUCK_DETECTED,0.00,0
1764635291.9298944,79.656,126,TEST2_OBSTACLE_BYPASS,True,-1134.7,2531.1,2773.8,335.85,0.980,0.0,531.5,-2927.9,78.55,77.49,78.55,140.34,88.32,0.0011,10.0,-6.439,0.0000,0.0000,0.0000,0.00,1.1942,-3.2900,3.5000,160.05,27,300.0,140.0,1.1942,-3.2900,3.5000,160.05,-24.15,160.05,-175.80,True,BACKWARDS,0.500,0,0,STUCK,False,False,True,0,True,FORCE_AWAY_FROM_PERSON|BACKWARD_TOWARD_FRONT_PERSON|STUCK_DETECTED,0.00,0
1764635291.9689865,79.695,127,TEST2_OBSTACLE_BYPASS,True,-1134.7,2531.1,2773.8,335.85,0.980,0.0,530.3,-2933.6,78.72,77.99,78.72,140.66,88.37,-0.0266,10.0,-6.489,0.0000,0.0000,0.0000,0.00,1.3549,-3.2271,3.5000,157.22,28,300.0,140.0,1.3549,-3.2271,3.5000,157.22,-24.15,157.22,-178.63,True,BACKWARDS_RIGHT,0.500,0,0,STUCK,False,False,True,0,True,FORCE_AWAY_FROM_PERSON|STUCK_DETECTED,0.00,0
1764635292.0124469,79.738,128,TEST2_OBSTACLE_BYPASS,True,-1134.7,2531.1,2773.8,335.85,0.980,0.0,529.4,-2938.1,78.65,79.09,78.65,141.57,88.41,-0.0234,10.0,-6.539,0.0000,0.0000,0.0000,0.00,1.3549,-3.2271,3.5000,157.22,28,300.0,140.0,1.3549,-3.2271,3.5000,157.22,-24.15,157.22,-178.63,True,BACKWARDS_RIGHT,0.500,0,0,STUCK,False,False,True,0,True,FORCE_AWAY_FROM_PERSON|STUCK_DETECTED,0.00,0
1764635292.061076,79.787,129,TEST2_OBSTACLE_BYPASS,True,-1134.7,2531.1,2773.8,335.85,0.980,0.0,528.4,-2943.3,78.48,79.17,78.48,141.58,88.38,-0.0117,10.0,-6.590,0.0000,0.0000,0.0000,0.00,1.4516,-3.1848,3.5000,155.50,31,300.0,140.0,1.4516,-3.1848,3.5000,155.50,-24.15,155.50,179.64,True,BACKWARDS_RIGHT,0.500,0,0,STUCK,False,False,True,0,True,FORCE_AWAY_FROM_PERSON|STUCK_DETECTED,0.00,0
1764635292.1039784,79.830,130,TEST2_OBSTACLE_BYPASS,True,-1134.7,2531.1,2773.8,335.85,0.980,0.0,527.5,-2947.6,78.49,78.87,78.49,141.10,88.38,0.0149,10.0,-6.637,0.0000,0.0000,0.0000,0.00,1.4516,-3.1848,3.5000,155.50,31,300.0,140.0,1.4516,-3.1848,3.5000,155.50,-24.15,155.50,179.64,True,BACKWARDS_RIGHT,0.500,0,0,STUCK,False,False,True,0,True,FORCE_AWAY_FROM_PERSON|STUCK_DETECTED,0.00,0
1764635292.1384118,79.864,131,TEST2_OBSTACLE_BYPASS,False,0.0,0.0,0.0,0.00,0.000,0.0,526.7,-2951.5,78.79,78.96,78.79,140.85,88.29,0.0160,10.0,-6.677,0.0000,0.0000,0.0000,0.00,1.6805,-3.0702,3.5000,151.31,37,300.0,140.0,1.6805,-3.0702,3.5000,151.31,0.00,151.31,0.00,False,NONE,0.000,0,0,STUCK,False,False,True,0,True,STUCK_DETECTED,0.00,0
1764635292.180401,79.906,132,TEST2_OBSTACLE_BYPASS,False,0.0,0.0,0.0,0.00,0.000,0.0,525.9,-2955.9,79.02,79.19,79.02,140.09,88.36,0.0011,10.0,-6.715,0.0000,0.0000,0.0000,0.00,1.6805,-3.0702,3.5000,151.31,37,300.0,140.0,1.6805,-3.0702,3.5000,151.31,0.00,151.31,0.00,False,NONE,0.000,0,0,STUCK,False,False,True,0,True,STUCK_DETECTED,0.00,0
1764635292.2185159,79.944,133,TEST2_OBSTACLE_BYPASS,False,0.0,0.0,0.0,0.00,0.000,0.0,525.1,-2959.9,78.88,78.68,78.88,138.93,88.24,0.0021,10.0,-6.756,0.0000,0.0000,0.0000,0.00,1.6515,-3.0858,3.5000,151.84,36,300.0,140.0,1.6515,-3.0858,3.5000,151.84,0.00,151.84,0.00,False,NONE,0.000,0,0,STUCK,False,False,True,0,True,STUCK_DETECTED,0.00,0
1764635292.2576225,79.983,134,TEST2_OBSTACLE_BYPASS,False,0.0,0.0,0.0,0.00,0.000,0.0,524.3,-2963.8,78.74,78.89,78.74,138.54,88.41,0.0043,10.0,-6.798,0.0000,0.0000,0.0000,0.00,1.6515,-3.0858,3.5000,151.84,36,300.0,140.0,1.6515,-3.0858,3.5000,151.84,0.00,151.84,0.00,False,NONE,0.000,0,0,STUCK,False,False,True,0,True,STUCK_DETECTED,0.00,0
1764635292.3022494,80.028,135,TEST2_OBSTACLE_BYPASS,True,-958.5,2592.8,2764.2,339.71,0.867,0.0,523.4,-2968.1,78.65,78.17,78.65,137.24,88.40,0.0266,10.0,-6.842,0.0000,0.0000,0.0000,0.00,1.8130,-2.9938,3.5000,148.80,36,300.0,140.0,1.8130,-2.9938,3.5000,148.80,-20.29,148.80,169.09,True,BACKWARDS_RIGHT,0.500,0,0,STUCK,False,False,True,0,True,FORCE_AWAY_FROM_PERSON|STUCK_DETECTED,0.00,0
1764635292.3413143,80.067,136,TEST2_OBSTACLE_BYPASS,True,-958.5,2592.8,2764.2,339.71,0.867,0.0,522.6,-2972.1,78.73,78.33,78.73,137.14,88.23,0.0415,10.0,-6.885,0.0000,0.0000,0.0000,0.00,1.8130,-2.9938,3.5000,148.80,36,300.0,140.0,1.8130,-2.9938,3.5000,148.80,-20.29,148.80,169.09,True,BACKWARDS_RIGHT,0.500,0,0,STUCK,False,False,True,0,True,FORCE_AWAY_FROM_PERSON|STUCK_DETECTED,0.00,0
1764635292.384931,80.111,137,TEST2_OBSTACLE_BYPASS,True,-999.5,2600.2,2785.7,338.97,0.681,0.0,521.7,-2976.6,78.85,79.17,78.85,137.89,87.99,0.0128,10.0,-6.927,0.0000,0.0000,0.0000,0.00,1.8953,-2.9424,3.5000,147.21,32,300.0,140.0,1.8953,-2.9424,3.5000,147.21,-21.03,147.21,168.24,True,BACKWARDS_RIGHT,0.500,0,0,STUCK,False,False,True,0,True,FORCE_AWAY_FROM_PERSON|STUCK_DETECTED,0.00,0
1764635292.4220529,80.148,138,TEST2_OBSTACLE_BYPASS,True,-999.5,2600.2,2785.7,338.97,0.681,0.0,521.0,-2980.4,78.88,79.36,78.88,137.94,88.19,-0.0202,10.0,-6.968,0.0000,0.0000,0.0000,0.00,1.8953,-2.9424,3.5000,147.21,32,300.0,140.0,1.8953,-2.9424,3.5000,147.21,-21.03,147.21,168.24,True,BACKWARDS_RIGHT,0.500,0,0,STUCK,False,False,True,0,True,FORCE_AWAY_FROM_PERSON|STUCK_DETECTED,0.00,0
1764635292.4651163,80.191,139,TEST2_OBSTACLE_BYPASS,True,-999.5,2600.2,2785.7,338.97,0.681,0.0,520.1,-2984.8,78.80,78.35,78.80,136.92,88.08,-0.0160,10.0,-7.010,0.0000,0.0000,0.0000,0.00,1.7675,-3.0209,3.5000,149.67,27,300.0,140.0,1.7675,-3.0209,3.5000,149.67,-21.03,149.67,170.69,True,BACKWARDS_RIGHT,0.500,0,0,STUCK,False,False,True,0,True,FORCE_AWAY_FROM_PERSON|STUCK_DETECTED,0.00,0
1764635292.5014396,80.227,140,TEST2_OBSTACLE_BYPASS,True,-999.5,2600.2,2785.7,338.97,0.681,0.0,519.4,-2988.7,78.77,78.63,78.77,137.21,88.09,-0.0277,10.0,-7.056,0.0000,0.0000,0.0000,0.00,1.7675,-3.0209,3.5000,149.67,27,300.0,140.0,1.7675,-3.0209,3.5000,149.67,-21.03,149.67,170.69,True,BACKWARDS_RIGHT,0.500,0,0,STUCK,False,False,True,0,True,FORCE_AWAY_FROM_PERSON|STUCK_DETECTED,0.00,0
1764635292.5440044,80.270,141,TEST2_OBSTACLE_BYPASS,True,-999.5,2600.2,2785.7,338.97,0.681,0.0,518.5,-2993.1,78.93,80.56,78.93,138.99,88.19,-0.0075,10.0,-7.098,0.0000,0.0000,0.0000,0.00,1.6571,-3.0829,3.5000,151.74,31,300.0,140.0,1.6571,-3.0829,3.5000,151.74,-21.03,151.74,172.77,True,BACKWARDS_RIGHT,0.500,0,0,STUCK,False,False,True,0,True,FORCE_AWAY_FROM_PERSON|STUCK_DETECTED,0.00,0
1764635292.5828052,80.309,142,TEST2_OBSTACLE_BYPASS,True,-999.5,2600.2,2785.7,338.97,0.681,0.0,517.7,-2997.0,79.13,81.16,79.13,139.32,88.12,0.0256,10.0,-7.134,0.0000,0.0000,0.0000,0.00,1.6571,-3.0829,3.5000,151.74,31,300.0,140.0,1.6571,-3.0829,3.5000,151.74,-21.03,151.74,172.77,True,BACKWARDS_RIGHT,0.500,0,0,STUCK,False,False,True,0,True,FORCE_AWAY_FROM_PERSON|STUCK_DETECTED,0.00,0
1764635292.626977,80.353,143,TEST2_OBSTACLE_BYPASS,True,-1050.3,2580.1,2785.7,337.85,0.681,0.0,516.9,-3001.5,79.31,80.49,79.31,138.33,88.00,0.0128,10.0,-7.162,0.0000,0.0000,0.0000,0.00,1.5065,-3.1592,3.5000,154.51,33,300.0,140.0,1.5065,-3.1592,3.5000,154.51,-22.15,154.51,176.66,True,BACKWARDS_RIGHT,0.500,0,0,STUCK,False,False,True,0,True,FORCE_AWAY_FROM_PERSON|STUCK_DETECTED,0.00,0
1764635292.6725726,80.398,144,TEST2_OBSTACLE_BYPASS,True,-1050.3,2580.1,2785.7,337.85,0.681,0.0,516.0,-3006.2,79.39,79.70,79.39,137.06,88.03,-0.0202,10.0,-7.185,0.0000,0.0000,0.0000,0.00,1.5505,-3.1378,3.5000,153.71,36,300.0,140.0,1.5505,-3.1378,3.5000,153.71,-22.15,153.71,175.86,True,BACKWARDS_RIGHT,0.500,0,0,STUCK,False,False,True,0,True,FORCE_AWAY_FROM_PERSON|STUCK_DETECTED,0.00,0
1764635292.7150118,80.441,145,TEST2_OBSTACLE_BYPASS,False,0.0,0.0,0.0,0.00,0.000,0.0,515.2,-3010.7,79.40,78.21,79.40,134.97,88.13,-0.0533,10.0,-7.205,0.0000,0.0000,0.0000,0.00,1.5505,-3.1378,3.5000,153.71,36,300.0,140.0,1.5505,-3.1378,3.5000,153.71,0.00,153.71,0.00,False,NONE,0.000,0,0,STUCK,False,False,True,0,True,STUCK_DETECTED,0.00,0
1764635292.7483447,80.474,146,TEST2_OBSTACLE_BYPASS,False,0.0,0.0,0.0,0.00,0.000,0.0,514.5,-3014.4,79.35,77.89,79.35,134.01,88.24,-0.0522,10.0,-7.222,0.0000,0.0000,0.0000,0.00,1.4096,-3.2036,3.5000,156.25,32,300.0,140.0,1.4096,-3.2036,3.5000,156.25,0.00,156.25,0.00,False,NONE,0.000,0,0,STUCK,False,False,True,0,True,STUCK_DETECTED,0.00,0
1764635292.7920594,80.518,147,TEST2_OBSTACLE_BYPASS,False,0.0,0.0,0.0,0.00,0.000,0.0,513.7,-3018.8,79.55,81.17,79.55,136.50,88.35,0.0043,10.0,-7.233,0.0000,0.0000,0.0000,0.00,1.4096,-3.2036,3.5000,156.25,32,300.0,140.0,1.4096,-3.2036,3.5000,156.25,0.00,156.25,0.00,False,NONE,0.000,0,0,STUCK,False,False,True,0,True,STUCK_DETECTED,0.00,0
1764635292.8329384,80.559,148,TEST2_OBSTACLE_BYPASS,False,0.0,0.0,0.0,0.00,0.000,0.0,512.9,-3023.0,79.70,80.88,79.70,136.16,88.28,0.0597,10.0,-7.239,0.0000,0.0000,0.0000,0.00,1.2662,-3.2629,3.5000,158.79,29,300.0,140.0,1.2662,-3.2629,3.5000,158.79,0.00,158.79,0.00,False,NONE,0.000,0,0,STUCK,False,False,True,0,True,STUCK_DETECTED,0.00,0
1764635292.8702111,80.596,149,TEST2_OBSTACLE_BYPASS,False,0.0,0.0,0.0,0.00,0.000,0.0,512.2,-3026.9,79.76,78.94,79.76,134.31,88.31,0.0277,10.0,-7.241,0.0000,0.0000,0.0000,0.00,1.2662,-3.2629,3.5000,158.79,29,300.0,140.0,1.2662,-3.2629,3.5000,158.79,0.00,158.79,0.00,False,NONE,0.000,0,0,STUCK,False,False,True,0,True,STUCK_DETECTED,0.00,0
1764635292.919815,80.646,150,TEST2_OBSTACLE_BYPASS,False,0.0,0.0,0.0,0.00,0.000,0.0,511.3,-3032.0,79.76,78.56,79.76,134.00,88.12,-0.0394,10.0,-7.241,0.0000,0.0000,0.0000,0.00,0.7540,-3.4178,3.5000,167.56,25,300.0,140.0,0.7540,-3.4178,3.5000,167.56,0.00,167.56,0.00,False,NONE,0.000,0,0,STUCK,False,False,True,0,True,STUCK_DETECTED,0.00,0
1764635292.958327,80.684,151,TEST2_OBSTACLE_BYPASS,False,0.0,0.0,0.0,0.00,0.000,0.0,510.6,-3035.9,79.75,80.52,79.75,136.00,88.26,-0.0362,10.0,-7.241,0.0000,0.0000,0.0000,0.00,0.7540,-3.4178,3.5000,167.56,25,300.0,140.0,0.7540,-3.4178,3.5000,167.56,0.00,167.56,0.00,False,NONE,0.000,0,0,STUCK,False,False,True,0,True,STUCK_DETECTED,0.00,0
1764635293.002457,80.728,152,TEST2_OBSTACLE_BYPASS,False,0.0,0.0,0.0,0.00,0.000,0.0,509.8,-3040.4,79.86,82.20,79.86,137.58,88.28,0.0085,10.0,-7.242,0.0000,0.0000,0.0000,0.00,0.4641,-3.4691,3.5000,172.38,26,300.0,140.0,0.4641,-3.4691,3.5000,172.38,0.00,172.38,0.00,False,BACKWARDS,0.500,0,0,STUCK,False,False,True,0,True,STUCK_DETECTED,0.00,0
1764635293.0452423,80.771,153,TEST2_OBSTACLE_BYPASS,False,0.0,0.0,0.0,0.00,0.000,0.0,508.6,-3047.0,79.92,81.14,79.92,136.29,88.27,0.0224,10.0,-7.241,0.0000,0.0000,0.0000,0.00,0.4641,-3.4691,3.5000,172.38,26,300.0,140.0,0.4641,-3.4691,3.5000,172.38,0.00,172.38,0.00,False,BACKWARDS,0.500,0,0,STUCK,False,False,True,0,True,STUCK_DETECTED,0.00,0
1764635293.0917978,80.818,154,TEST2_OBSTACLE_BYPASS,True,-1141.7,2634.8,2871.5,336.57,0.852,0.0,507.5,-3053.3,79.90,79.47,79.90,134.57,88.07,0.0085,10.0,-7.239,0.0000,0.0000,0.0000,0.00,0.5811,-3.4514,3.5000,170.44,25,300.0,140.0,0.5811,-3.4514,3.5000,170.44,-23.43,170.44,-166.13,True,BACKWARDS,0.500,0,0,STUCK,False,False,True,0,True,FORCE_AWAY_FROM_PERSON|BACKWARD_TOWARD_FRONT_PERSON|STUCK_DETECTED,0.00,0
1764635293.1292663,80.855,155,TEST2_OBSTACLE_BYPASS,True,-1141.7,2634.8,2871.5,336.57,0.852,0.0,506.5,-3058.9,80.03,79.54,80.03,134.60,88.28,-0.0117,10.0,-7.233,0.0000,0.0000,0.0000,0.00,0.5811,-3.4514,3.5000,170.44,25,300.0,140.0,0.5811,-3.4514,3.5000,170.44,-23.43,170.44,-166.13,True,BACKWARDS,0.500,0,0,STUCK,False,False,True,0,True,FORCE_AWAY_FROM_PERSON|BACKWARD_TOWARD_FRONT_PERSON|STUCK_DETECTED,0.00,0
1764635293.175122,80.901,156,TEST2_OBSTACLE_BYPASS,True,-927.6,2740.5,2893.3,341.30,0.958,0.0,505.3,-3065.9,80.43,81.84,80.43,136.67,88.24,-0.0192,10.0,-7.221,0.0000,0.0000,0.0000,0.00,0.7009,-3.4291,3.5000,168.45,22,300.0,140.0,0.7009,-3.4291,3.5000,168.45,-18.70,168.45,-172.85,True,BACKWARDS,0.500,0,0,STUCK,False,False,True,0,True,FORCE_AWAY_FROM_PERSON|BACKWARD_TOWARD_FRONT_PERSON|STUCK_DETECTED,0.00,0
1764635293.2159872,80.942,157,TEST2_OBSTACLE_BYPASS,True,-927.6,2740.5,2893.3,341.30,0.958,0.0,504.3,-3071.7,80.56,82.52,80.56,137.06,88.10,-0.0085,10.0,-7.203,0.0000,0.0000,0.0000,0.00,0.7009,-3.4291,3.5000,168.45,22,300.0,140.0,0.7009,-3.4291,3.5000,168.45,-18.70,168.45,-172.85,True,BACKWARDS,0.500,0,0,STUCK,False,False,True,0,True,FORCE_AWAY_FROM_PERSON|BACKWARD_TOWARD_FRONT_PERSON|STUCK_DETECTED,0.00,0
1764635293.2604594,80.986,158,TEST2_OBSTACLE_BYPASS,True,-927.6,2740.5,2893.3,341.30,0.958,0.0,503.3,-3077.9,80.67,81.95,80.67,135.92,88.21,0.0298,10.0,-7.178,0.0000,0.0000,0.0000,0.00,0.4323,-3.4732,3.5000,172.91,18,300.0,140.0,0.4323,-3.4732,3.5000,172.91,-18.70,172.91,-168.39,True,BACKWARDS,0.500,0,0,STUCK,False,False,True,0,True,FORCE_AWAY_FROM_PERSON|BACKWARD_TOWARD_FRONT_PERSON|STUCK_DETECTED,0.00,0
1764635293.300316,81.026,159,TEST2_OBSTACLE_BYPASS,True,-927.6,2740.5,2893.3,341.30,0.958,0.0,502.3,-3084.3,80.85,80.71,80.85,134.49,88.22,0.0256,10.0,-7.146,0.0000,0.0000,0.0000,0.00,-0.0710,-3.4993,3.5000,-178.84,14,300.0,140.0,-0.0710,-3.4993,3.5000,-178.84,-18.70,-178.84,-160.14,True,BACKWARDS,0.500,0,0,STUCK,False,False,True,0,True,FORCE_AWAY_FROM_PERSON|BACKWARD_TOWARD_FRONT_PERSON|STUCK_DETECTED,0.00,0
1764635293.3373067,81.063,160,TEST2_OBSTACLE_BYPASS,True,-927.6,2740.5,2893.3,341.30,0.958,0.0,501.4,-3089.8,81.02,80.28,81.02,134.03,88.06,-0.0128,10.0,-7.111,0.0000,0.0000,0.0000,0.00,0.0960,-3.4987,3.5000,178.43,14,300.0,140.0,0.0960,-3.4987,3.5000,178.43,-18.70,178.43,-162.87,True,BACKWARDS,0.500,0,0,STUCK,False,False,True,0,True,FORCE_AWAY_FROM_PERSON|BACKWARD_TOWARD_FRONT_PERSON|STUCK_DETECTED,0.00,0
1764635293.380115,81.106,161,TEST2_OBSTACLE_BYPASS,True,-927.6,2740.5,2893.3,341.30,0.958,0.0,500.4,-3096.2,80.99,80.21,80.99,134.00,88.16,-0.0415,10.0,-7.075,0.0000,0.0000,0.0000,0.00,0.1143,-3.4981,3.5000,178.13,12,300.0,140.0,0.1143,-3.4981,3.5000,178.13,-18.70,178.13,-163.17,True,BACKWARDS,0.500,0,0,STUCK,False,False,True,0,True,FORCE_AWAY_FROM_PERSON|BACKWARD_TOWARD_FRONT_PERSON|STUCK_DETECTED,0.00,0
