timestamp,elapsed_time,log_number,test_mode,person_detected,person_x_mm,person_y_mm,person_distance_mm,person_angle_deg,person_confidence,time_since_person_update_ms,robot_x_mm,robot_y_mm,robot_orientation_deg,imu_yaw_raw,imu_yaw_smoothed,imu_roll,imu_pitch,imu_angular_vel_z,imu_update_rate,imu_drift_estimate,attr_force_x,attr_force_y,attr_force_magnitude,attr_force_direction_deg,repul_force_x,repul_force_y,repul_force_magnitude,repul_force_direction_deg,num_obstacles_in_range,closest_obstacle_dist_mm,closest_obstacle_angle_deg,total_force_x,total_force_y,total_force_magnitude,total_force_direction_deg,expected_direction_to_person_deg,force_direction_deg,direction_error_deg,direction_mismatch_flag,commanded_direction,commanded_speed,motor_1_speed,motor_2_speed,nav_state,nav_state_changed,goal_reached,stuck_detected,time_in_current_state_s,anomaly_detected,anomaly_type,calculation_time_ms,obstacles_filtered_for_person
1764574788.0436792,96.445,1,TEST2_OBSTACLE_BYPASS,True,-256.5,2627.8,2640.3,354.43,0.871,0.0,1793.6,-1890.1,86.56,86.56,86.56,153.34,88.17,0.0043,10.0,0.000,-0.9994,2.2025,2.4187,-24.41,-1.5968,7.8390,8.0000,-11.51,0,800.0,108.0,-2.0025,7.7453,8.0000,-14.50,-5.57,-14.50,-8.92,False,FORWARDS,1.000,0,0,NAVIGATING,True,False,False,0,False,,0.00,0
1764574788.0885365,96.490,2,TEST2_OBSTACLE_BYPASS,True,-253.1,2622.5,2634.7,354.49,0.884,0.0,1794.4,-1876.4,86.56,86.56,86.56,153.34,88.17,-0.0064,10.0,0.000,-1.0056,2.2096,2.4277,-24.47,-1.5968,7.8390,8.0000,-11.51,0,800.0,108.0,-2.0057,7.7445,8.0000,-14.52,-5.51,-14.52,-9.01,False,FORWARDS,1.000,0,0,NAVIGATING,False,False,False,0,False,,0.00,0
1764574788.127299,96.529,3,TEST2_OBSTACLE_BYPASS,True,-250.3,2620.2,2632.2,354.54,0.880,0.0,1795.1,-1865.0,86.56,86.56,86.56,153.34,88.17,0.0032,10.0,0.000,-1.0101,2.2148,2.4343,-24.52,-1.3091,7.8922,8.0000,-9.42,0,800.0,108.0,-1.7892,7.7974,8.0000,-12.92,-5.46,-12.92,-7.47,False,FORWARDS,1.000,0,0,NAVIGATING,False,False,False,0,False,,0.00,0
1764574788.1667824,96.568,4,TEST2_OBSTACLE_BYPASS,True,-250.3,2620.2,2632.2,354.54,0.880,0.0,1795.8,-1853.2,86.56,86.56,86.56,153.34,88.17,0.0064,10.0,0.000,-1.0147,2.2184,2.4394,-24.58,-1.3091,7.8922,8.0000,-9.42,0,800.0,108.0,-1.7920,7.7967,8.0000,-12.94,-5.46,-12.94,-7.49,False,FORWARDS,1.000,0,0,NAVIGATING,False,False,False,0,False,,0.00,0
1764574788.2057092,96.607,5,TEST2_OBSTACLE_BYPASS,True,-250.3,2620.2,2632.2,354.54,0.880,0.0,1796.6,-1841.3,86.56,86.56,86.56,153.34,88.17,-0.0064,10.0,0.000,-1.0194,2.2220,2.4446,-24.64,-1.5288,7.8526,8.0000,-11.02,0,800.0,108.0,-1.9617,7.7558,8.0000,-14.19,-5.46,-14.19,-8.74,False,FORWARDS,1.000,0,0,NAVIGATING,False,False,False,0,False,,0.00,0
1764574788.2558544,96.658,6,TEST2_OBSTACLE_BYPASS,True,-250.3,2620.2,2632.2,354.54,0.880,0.0,1797.4,-1827.7,86.56,86.56,86.56,153.34,88.17,0.0075,10.0,0.000,-1.0248,2.2261,2.4507,-24.72,-1.5288,7.8526,8.0000,-11.02,0,800.0,108.0,-1.9648,7.7550,8.0000,-14.22,-5.46,-14.22,-8.76,False,FORWARDS,1.000,0,0,NAVIGATING,False,False,False,0,False,,0.00,0
1764574788.2893014,96.691,7,TEST2_OBSTACLE_BYPASS,True,-250.3,2620.2,2632.2,354.54,0.880,0.0,1798.1,-1816.3,86.56,86.56,86.56,153.34,88.17,-0.0096,10.0,0.000,-1.0294,2.2295,2.4557,-24.78,-1.9445,7.7601,8.0000,-14.07,0,800.0,108.0,-2.2826,7.6675,8.0000,-16.58,-5.46,-16.58,-11.12,False,FORWARDS,1.000,0,0,NAVIGATING,False,False,False,0,False,,0.00,0
1764574788.326815,96.728,8,TEST2_OBSTACLE_BYPASS,True,-250.3,2620.2,2632.2,354.54,0.880,0.0,1798.7,-1805.0,86.59,86.83,86.59,153.54,88.31,-0.0138,10.0,0.000,-1.0340,2.2330,2.4607,-24.85,-1.9445,7.7601,8.0000,-14.07,0,800.0,108.0,-2.2850,7.6667,8.0000,-16.60,-5.46,-16.60,-11.14,False,FORWARDS,1.000,0,0,NAVIGATING,False,False,False,0,False,,0.00,0
1764574788.3709135,96.773,9,TEST2_OBSTACLE_BYPASS,True,-250.3,2620.2,2632.2,354.54,0.880,0.0,1799.5,-1792.3,86.61,86.84,86.61,153.62,88.17,0.0075,10.0,0.000,-1.0391,2.2368,2.4664,-24.92,-1.9445,7.7601,8.0000,-14.07,0,800.0,108.0,-2.2879,7.6659,8.0000,-16.62,-5.46,-16.62,-11.16,False,FORWARDS,1.000,0,0,NAVIGATING,False,False,False,0,False,,0.00,0
1764574788.411856,96.814,10,TEST2_OBSTACLE_BYPASS,True,-250.3,2620.2,2632.2,354.54,0.880,0.0,1800.1,-1781.0,86.64,86.84,86.64,153.62,88.17,-0.0032,10.0,0.000,-1.0437,2.2403,2.4715,-24.98,-1.9445,7.7601,8.0000,-14.07,0,800.0,108.0,-2.2904,7.6651,8.0000,-16.64,-5.46,-16.64,-11.18,False,FORWARDS,1.000,0,0,NAVIGATING,False,False,False,0,False,,0.00,0
1764574788.4477506,96.849,11,TEST2_OBSTACLE_BYPASS,False,0.0,0.0,0.0,0.00,0.000,0.0,1800.9,-1768.3,86.66,86.78,86.66,153.57,88.13,0.0032,10.0,0.000,-1.0489,2.2441,2.4772,-25.05,-2.7064,7.5283,8.0000,-19.77,0,800.0,108.0,-2.8696,7.4676,8.0000,-21.02,0.00,-21.02,0.00,False,NONE,0.000,0,0,SEARCHING,True,False,False,0,False,,0.00,0
1764574788.4868715,96.889,12,TEST2_OBSTACLE_BYPASS,False,0.0,0.0,0.0,0.00,0.000,0.0,1801.6,-1756.6,86.72,87.08,86.72,153.74,88.21,0.0256,10.0,0.039,-1.0537,2.2477,2.4824,-25.12,-2.7064,7.5283,8.0000,-19.77,0,800.0,108.0,-2.8719,7.4667,8.0000,-21.04,0.00,-21.04,0.00,False,NONE,0.000,0,0,SEARCHING,False,False,False,0,False,,0.00,0
1764574788.5311358,96.933,13,TEST2_OBSTACLE_BYPASS,False,0.0,0.0,0.0,0.00,0.000,0.0,1802.3,-1743.8,86.87,88.09,86.87,154.63,88.14,0.0511,10.0,0.061,-1.0590,2.2516,2.4883,-25.19,-3.7908,7.0449,8.0000,-28.28,0,800.0,108.0,-3.7002,7.0928,8.0000,-27.55,0.00,-27.55,0.00,False,NONE,0.000,0,0,SEARCHING,False,False,False,0,False,,0.00,0
1764574788.5705764,96.972,14,TEST2_OBSTACLE_BYPASS,False,0.0,0.0,0.0,0.00,0.000,0.0,1802.9,-1731.6,86.91,86.99,86.91,153.53,87.76,0.0842,10.0,0.084,-1.0641,2.2554,2.4938,-25.26,-5.8940,5.4094,8.0000,-47.45,0,800.0,108.0,-5.3772,5.9233,8.0000,-42.23,0.00,-42.23,0.00,False,NONE,0.000,0,0,SEARCHING,False,False,False,0,False,,0.00,0
1764574788.613127,97.015,15,TEST2_OBSTACLE_BYPASS,False,0.0,0.0,0.0,0.00,0.000,0.0,1803.7,-1718.9,86.65,83.97,86.65,150.31,87.54,0.0959,10.0,0.085,-1.0695,2.2593,2.4996,-25.33,-5.8940,5.4094,8.0000,-47.45,0,800.0,108.0,-5.3780,5.9226,8.0000,-42.24,0.00,-42.24,0.00,False,NONE,0.000,0,0,SEARCHING,False,False,False,0,False,,0.00,0
1764574788.6542208,97.056,16,TEST2_OBSTACLE_BYPASS,False,0.0,0.0,0.0,0.00,0.000,0.0,1804.5,-1706.6,86.12,81.25,86.12,147.36,87.40,0.0256,10.0,0.050,-1.0747,2.2630,2.5053,-25.40,-7.2090,3.4686,8.0000,-64.31,0,800.0,108.0,-6.5788,4.5519,8.0000,-55.32,0.00,-55.32,0.00,False,NONE,0.000,0,0,SEARCHING,False,False,False,0,False,,0.00,0
1764574788.6905072,97.092,17,TEST2_OBSTACLE_BYPASS,False,0.0,0.0,0.0,0.00,0.000,0.0,1805.4,-1695.2,85.71,82.40,85.71,148.44,87.37,-0.1023,10.0,-0.007,-1.0796,2.2664,2.5105,-25.47,-7.2090,3.4686,8.0000,-64.31,0,800.0,108.0,-6.5788,4.5519,8.0000,-55.32,0.00,-55.32,0.00,False,NONE,0.000,0,0,SEARCHING,False,False,False,0,False,,0.00,0
1764574788.7427254,97.144,18,TEST2_OBSTACLE_BYPASS,True,-252.8,2610.6,2622.8,354.47,0.889,0.0,1806.3,-1682.4,85.57,85.47,85.57,151.65,87.84,-0.1119,10.0,-0.064,-1.0900,2.2725,2.5203,-25.62,-7.8276,1.6517,8.0000,-78.09,4,750.0,108.0,-7.3224,3.2222,8.0000,-66.25,-5.53,-66.25,-60.72,False,FORWARDS_LEFT,1.000,0,0,NAVIGATING,True,False,False,0,False,,0.00,0
1764574788.776807,97.178,19,TEST2_OBSTACLE_BYPASS,True,-252.8,2610.6,2622.8,354.47,0.889,0.0,1806.9,-1674.5,85.62,87.32,85.62,153.72,88.26,-0.0927,10.0,-0.113,-1.0934,2.2748,2.5240,-25.67,-7.8276,1.6517,8.0000,-78.09,4,750.0,108.0,-7.3221,3.2228,8.0000,-66.24,-5.53,-66.24,-60.71,False,FORWARDS_LEFT,1.000,0,0,NAVIGATING,False,False,False,0,False,,0.00,0
1764574788.8223643,97.224,20,TEST2_OBSTACLE_BYPASS,True,-252.8,2610.6,2622.8,354.47,0.889,0.0,1807.6,-1665.7,85.79,88.57,85.79,155.38,88.51,-0.0415,10.0,-0.147,-1.0973,2.2775,2.5280,-25.72,-7.9743,0.6410,8.0000,-85.40,7,750.0,108.0,-7.6156,2.4500,8.0000,-72.17,-5.53,-72.17,-66.64,False,LEFT,0.700,0,0,NAVIGATING,False,False,False,0,False,,0.00,0
1764574788.8588645,97.261,21,TEST2_OBSTACLE_BYPASS,True,-252.8,2610.6,2622.8,354.47,0.889,0.0,1807.6,-1665.7,85.98,88.70,85.98,155.81,88.56,0.0383,10.0,-0.169,-1.0973,2.2775,2.5280,-25.72,-7.9743,0.6410,8.0000,-85.40,7,750.0,108.0,-7.6156,2.4500,8.0000,-72.17,-5.53,-72.17,-66.64,False,LEFT,0.700,0,0,NAVIGATING,False,False,False,0,False,,0.00,0
1764574788.9002042,97.302,22,TEST2_OBSTACLE_BYPASS,True,-253.3,2613.5,2625.8,354.46,0.896,0.0,1807.6,-1665.7,86.06,87.83,86.06,155.18,88.27,0.0607,10.0,-0.184,-1.0963,2.2763,2.5265,-25.72,-7.9912,0.3760,8.0000,-87.31,13,700.0,108.0,-7.6796,2.2414,8.0000,-73.73,-5.54,-73.73,-68.19,False,LEFT,0.700,0,0,STUCK,True,False,True,0,True,STUCK_DETECTED,0.00,0
1764574788.9368064,97.338,23,TEST2_OBSTACLE_BYPASS,True,-253.3,2613.5,2625.8,354.46,0.896,0.0,1807.6,-1665.7,86.04,87.88,86.04,155.24,88.02,0.0096,10.0,-0.200,-1.0963,2.2763,2.5265,-25.72,-7.9912,0.3760,8.0000,-87.31,13,700.0,108.0,-7.6796,2.2414,8.0000,-73.73,-5.54,-73.73,-68.19,False,LEFT,0.700,0,0,STUCK,False,False,True,0,True,STUCK_DETECTED,0.00,0
1764574788.9794762,97.381,24,TEST2_OBSTACLE_BYPASS,True,-253.3,2613.5,2625.8,354.46,0.896,0.0,1807.6,-1665.7,86.14,88.01,86.14,155.38,87.93,0.0064,10.0,-0.209,-1.0963,2.2763,2.5265,-25.72,-8.0000,-0.0209,8.0000,-90.15,19,700.0,108.0,-7.7649,1.9253,8.0000,-76.07,-5.54,-76.07,-70.54,False,LEFT,0.700,0,0,STUCK,False,False,True,0,True,STUCK_DETECTED,0.00,0
1764574789.02613,97.428,25,TEST2_OBSTACLE_BYPASS,True,-253.3,2613.5,2625.8,354.46,0.896,0.0,1807.6,-1665.7,86.59,88.48,86.59,155.72,88.07,-0.0192,10.0,-0.199,-1.0963,2.2763,2.5265,-25.72,-8.0000,-0.0209,8.0000,-90.15,19,700.0,108.0,-7.7649,1.9253,8.0000,-76.07,-5.54,-76.07,-70.54,False,LEFT,0.700,0,0,STUCK,False,False,True,0,True,STUCK_DETECTED,0.00,0
1764574789.0558672,97.458,26,TEST2_OBSTACLE_BYPASS,True,-253.3,2613.5,2625.8,354.46,0.896,0.0,1807.6,-1665.7,87.32,88.58,87.32,155.77,88.11,-0.0320,10.0,-0.161,-1.0963,2.2763,2.5265,-25.72,-7.9788,-0.5823,8.0000,-94.17,27,700.0,108.0,-7.8642,1.4679,8.0000,-79.43,-5.54,-79.43,-73.89,False,LEFT,0.700,0,0,STUCK,False,False,True,0,True,STUCK_DETECTED,0.00,0
1764574789.1050603,97.507,27,TEST2_OBSTACLE_BYPASS,True,-253.3,2613.5,2625.8,354.46,0.896,0.0,1807.6,-1665.7,88.12,90.38,88.12,157.43,88.38,-0.0575,10.0,-0.094,-1.0963,2.2763,2.5265,-25.72,-7.9788,-0.5823,8.0000,-94.17,27,700.0,108.0,-7.8642,1.4679,8.0000,-79.43,-5.54,-79.43,-73.89,False,LEFT,0.700,0,0,STUCK,False,False,True,0,True,STUCK_DETECTED,0.00,0
1764574789.1376164,97.539,28,TEST2_OBSTACLE_BYPASS,True,-253.3,2613.5,2625.8,354.46,0.896,0.0,1807.6,-1665.7,88.60,90.23,88.60,157.29,88.08,0.1715,10.0,-0.015,-1.0963,2.2763,2.5265,-25.72,-7.9795,-0.5726,8.0000,-94.10,36,650.0,108.0,-7.8627,1.4759,8.0000,-79.37,-5.54,-79.37,-73.83,False,LEFT,0.700,0,0,STUCK,False,False,True,0,True,STUCK_DETECTED,0.00,0
1764574789.1806507,97.582,29,TEST2_OBSTACLE_BYPASS,True,-253.3,2613.5,2625.8,354.46,0.896,0.0,1807.6,-1665.7,88.74,88.72,88.74,155.36,86.64,0.2141,10.0,0.063,-1.0963,2.2763,2.5265,-25.72,-7.9795,-0.5726,8.0000,-94.10,36,650.0,108.0,-7.8627,1.4759,8.0000,-79.37,-5.54,-79.37,-73.83,False,LEFT,0.700,0,0,STUCK,False,False,True,0,True,STUCK_DETECTED,0.00,0
1764574789.2183406,97.620,30,TEST2_OBSTACLE_BYPASS,False,0.0,0.0,0.0,0.00,0.000,0.0,1807.6,-1665.7,88.81,89.33,88.81,155.11,85.27,0.1481,10.0,0.139,-1.0963,2.2763,2.5265,-25.72,-7.9437,-0.9475,8.0000,-96.80,51,650.0,108.0,-7.9150,1.1634,8.0000,-81.64,0.00,-81.64,0.00,False,NONE,0.000,0,0,STUCK,False,False,True,0,True,STUCK_DETECTED,0.00,0
1764574789.2550466,97.657,31,TEST2_OBSTACLE_BYPASS,False,0.0,0.0,0.0,0.00,0.000,0.0,1807.6,-1665.7,88.88,89.38,88.88,154.46,84.97,-0.0277,10.0,0.211,-1.0963,2.2763,2.5265,-25.72,-7.9437,-0.9475,8.0000,-96.80,51,650.0,108.0,-7.9150,1.1634,8.0000,-81.64,0.00,-81.64,0.00,False,NONE,0.000,0,0,STUCK,False,False,True,0,True,STUCK_DETECTED,0.00,0
1764574789.294813,97.696,32,TEST2_OBSTACLE_BYPASS,False,0.0,0.0,0.0,0.00,0.000,0.0,1807.6,-1665.7,88.89,87.93,88.89,152.33,85.59,-0.0778,10.0,0.280,-1.0963,2.2763,2.5265,-25.72,-7.9262,-1.0843,8.0000,-97.79,60,650.0,108.0,-7.9311,1.0478,8.0000,-82.47,0.00,-82.47,0.00,False,NONE,0.000,0,0,STUCK,False,False,True,0,True,STUCK_DETECTED,0.00,0
1764574789.3368096,97.738,33,TEST2_OBSTACLE_BYPASS,False,0.0,0.0,0.0,0.00,0.000,0.0,1807.6,-1665.7,88.76,86.60,88.76,150.72,86.21,-0.1534,10.0,0.340,-1.0963,2.2763,2.5265,-25.72,-7.9262,-1.0843,8.0000,-97.79,60,650.0,108.0,-7.9311,1.0478,8.0000,-82.47,0.00,-82.47,0.00,False,NONE,0.000,0,0,STUCK,False,False,True,0,True,STUCK_DETECTED,0.00,0
1764574789.3762596,97.778,34,TEST2_OBSTACLE_BYPASS,False,0.0,0.0,0.0,0.00,0.000,0.0,1807.6,-1665.7,88.68,87.12,88.68,151.02,86.91,-0.1310,10.0,0.394,-1.0963,2.2763,2.5265,-25.72,-7.8972,-1.2785,8.0000,-99.20,56,650.0,108.0,-7.9512,0.8821,8.0000,-83.67,0.00,-83.67,0.00,False,NONE,0.000,0,0,STUCK,False,False,True,0,True,STUCK_DETECTED,0.00,0
1764574789.4145484,97.816,35,TEST2_OBSTACLE_BYPASS,False,0.0,0.0,0.0,0.00,0.000,0.0,1807.6,-1665.7,88.73,89.05,88.73,152.93,87.07,-0.0927,10.0,0.446,-1.0963,2.2763,2.5265,-25.72,-7.8780,-1.3916,8.0000,-100.02,58,600.0,108.0,-7.9614,0.7848,8.0000,-84.37,0.00,-84.37,0.00,False,NONE,0.000,0,0,STUCK,False,False,True,0,True,STUCK_DETECTED,0.00,0
1764574789.456255,97.858,36,TEST2_OBSTACLE_BYPASS,False,0.0,0.0,0.0,0.00,0.000,0.0,1807.6,-1665.7,89.04,91.65,89.04,155.48,87.04,-0.0117,10.0,0.504,-1.0963,2.2763,2.5265,-25.72,-7.8780,-1.3916,8.0000,-100.02,58,600.0,108.0,-7.9614,0.7848,8.0000,-84.37,0.00,-84.37,0.00,False,NONE,0.000,0,0,STUCK,False,False,True,0,True,STUCK_DETECTED,0.00,0
1764574789.4934213,97.895,37,TEST2_OBSTACLE_BYPASS,False,0.0,0.0,0.0,0.00,0.000,0.0,1807.6,-1665.7,89.35,93.51,89.35,157.35,86.82,0.0426,10.0,0.568,-1.0963,2.2763,2.5265,-25.72,-7.8594,-1.4932,8.0000,-100.76,63,600.0,108.0,-7.9696,0.6968,8.0000,-85.00,0.00,-85.00,0.00,False,NONE,0.000,0,0,STUCK,False,False,True,0,True,STUCK_DETECTED,0.00,0
1764574789.5370865,97.939,38,TEST2_OBSTACLE_BYPASS,False,0.0,0.0,0.0,0.00,0.000,0.0,1807.6,-1665.7,89.62,92.95,89.62,156.91,86.59,0.0011,10.0,0.635,-1.0963,2.2763,2.5265,-25.72,-7.8594,-1.4932,8.0000,-100.76,63,600.0,108.0,-7.9696,0.6968,8.0000,-85.00,0.00,-85.00,0.00,False,NONE,0.000,0,0,STUCK,False,False,True,0,True,STUCK_DETECTED,0.00,0
1764574789.573824,97.976,39,TEST2_OBSTACLE_BYPASS,False,0.0,0.0,0.0,0.00,0.000,0.0,1807.6,-1665.7,90.09,93.37,90.09,157.19,86.75,-0.0032,10.0,0.712,-1.0963,2.2763,2.5265,-25.72,-7.8594,-1.4932,8.0000,-100.76,63,600.0,108.0,-7.9696,0.6968,8.0000,-85.00,0.00,-85.00,0.00,False,NONE,0.000,0,0,STUCK,False,False,True,0,True,STUCK_DETECTED,0.00,0
1764574789.618373,98.020,40,TEST2_OBSTACLE_BYPASS,False,0.0,0.0,0.0,0.00,0.000,0.0,1807.6,-1665.7,90.58,94.20,90.58,157.72,86.64,0.0000,10.0,0.796,-1.0963,2.2763,2.5265,-25.72,-7.8036,-1.7620,8.0000,-102.72,68,600.0,108.0,-7.9867,0.4615,8.0000,-86.69,0.00,-86.69,0.00,False,NONE,0.000,0,0,STUCK,False,False,True,0,True,STUCK_DETECTED,0.00,0
1764574789.6557376,98.057,41,TEST2_OBSTACLE_BYPASS,False,0.0,0.0,0.0,0.00,0.000,0.0,1807.6,-1665.7,91.11,94.67,91.11,157.51,86.34,0.0650,10.0,0.890,-1.0963,2.2763,2.5265,-25.72,-7.6853,-2.2219,8.0000,-106.13,69,600.0,108.0,-7.9998,0.0495,8.0000,-89.65,0.00,-89.65,0.00,False,NONE,0.000,0,0,STUCK,False,False,True,0,True,STUCK_DETECTED,0.00,0
1764574789.6946592,98.096,42,TEST2_OBSTACLE_BYPASS,False,0.0,0.0,0.0,0.00,0.000,0.0,1807.6,-1665.7,91.66,93.52,91.66,155.16,86.15,0.0415,10.0,0.993,-1.0963,2.2763,2.5265,-25.72,-7.6853,-2.2219,8.0000,-106.13,69,600.0,108.0,-7.9998,0.0495,8.0000,-89.65,0.00,-89.65,0.00,False,NONE,0.000,0,0,STUCK,False,False,True,0,True,STUCK_DETECTED,0.00,0
1764574789.737189,98.139,43,TEST2_OBSTACLE_BYPASS,False,0.0,0.0,0.0,0.00,0.000,0.0,1807.6,-1665.7,92.26,92.55,92.26,152.57,86.21,-0.0607,10.0,1.105,-1.0963,2.2763,2.5265,-25.72,-7.6214,-2.4319,8.0000,-107.70,64,600.0,108.0,-7.9987,-0.1428,8.0000,-91.02,0.00,-91.02,0.00,False,LEFT,0.700,0,0,STUCK,False,False,True,0,True,STUCK_DETECTED,0.00,0
1764574789.7748694,98.177,44,TEST2_OBSTACLE_BYPASS,False,0.0,0.0,0.0,0.00,0.000,0.0,1807.6,-1665.7,93.01,94.63,93.01,152.82,86.35,-0.0682,10.0,1.229,-1.0963,2.2763,2.5265,-25.72,-7.6214,-2.4319,8.0000,-107.70,64,600.0,108.0,-7.9987,-0.1428,8.0000,-91.02,0.00,-91.02,0.00,False,LEFT,0.700,0,0,STUCK,False,False,True,0,True,STUCK_DETECTED,0.00,0
1764574789.819242,98.221,45,TEST2_OBSTACLE_BYPASS,False,0.0,0.0,0.0,0.00,0.000,0.0,1807.6,-1665.7,93.82,97.12,93.82,153.63,86.35,0.0181,10.0,1.366,-1.0963,2.2763,2.5265,-25.72,-7.4920,-2.8052,8.0000,-110.53,59,600.0,284.0,-7.9849,-0.4918,8.0000,-93.52,0.00,-93.52,0.00,False,LEFT,0.700,0,0,STUCK,False,False,True,0,True,STUCK_DETECTED,0.00,0
1764574789.8579464,98.260,46,TEST2_OBSTACLE_BYPASS,False,0.0,0.0,0.0,0.00,0.000,0.0,1807.6,-1665.7,94.30,96.49,94.30,151.84,86.19,0.0266,10.0,1.508,-1.0963,2.2763,2.5265,-25.72,-7.4920,-2.8052,8.0000,-110.53,59,600.0,284.0,-7.9849,-0.4918,8.0000,-93.52,0.00,-93.52,0.00,False,LEFT,0.700,0,0,STUCK,False,False,True,0,True,STUCK_DETECTED,0.00,0
1764574789.8987415,98.300,47,TEST2_OBSTACLE_BYPASS,False,0.0,0.0,0.0,0.00,0.000,0.0,1807.6,-1665.7,94.55,96.02,94.55,149.78,86.27,-0.0160,10.0,1.649,-1.0963,2.2763,2.5265,-25.72,-7.2929,-3.2884,8.0000,-114.27,50,600.0,284.0,-7.9424,-0.9582,8.0000,-96.88,0.00,-96.88,0.00,False,LEFT,0.700,0,0,STUCK,False,False,True,0,True,STUCK_DETECTED,0.00,0
1764574789.9368985,98.339,48,TEST2_OBSTACLE_BYPASS,False,0.0,0.0,0.0,0.00,0.000,0.0,1807.6,-1665.7,94.90,96.43,94.90,149.32,86.27,-0.0383,10.0,1.792,-1.0963,2.2763,2.5265,-25.72,-7.2929,-3.2884,8.0000,-114.27,50,600.0,284.0,-7.9424,-0.9582,8.0000,-96.88,0.00,-96.88,0.00,False,LEFT,0.700,0,0,STUCK,False,False,True,0,True,STUCK_DETECTED,0.00,0
1764574789.9804184,98.382,49,TEST2_OBSTACLE_BYPASS,False,0.0,0.0,0.0,0.00,0.000,0.0,1807.6,-1665.7,95.39,98.25,95.39,149.84,86.34,-0.0629,10.0,1.938,-1.0963,2.2763,2.5265,-25.72,-7.1389,-3.6105,8.0000,-116.83,48,650.0,284.0,-7.8970,-1.2795,8.0000,-99.20,0.00,-99.20,0.00,False,LEFT,0.700,0,0,STUCK,False,False,True,0,True,STUCK_DETECTED,0.00,0
1764574790.024531,98.426,50,TEST2_OBSTACLE_BYPASS,True,-326.6,2473.8,2495.2,352.48,0.938,0.0,1807.6,-1665.7,96.03,100.60,96.03,150.85,86.30,-0.0373,10.0,2.092,-1.1807,2.2902,2.5766,-27.27,-7.1389,-3.6105,8.0000,-116.83,48,650.0,284.0,-7.9011,-1.2540,8.0000,-99.02,-7.52,-99.02,-91.50,True,LEFT,0.700,0,0,STUCK,False,False,True,0,True,FORCE_AWAY_FROM_PERSON|STUCK_DETECTED,0.00,0
1764574790.0600755,98.462,51,TEST2_OBSTACLE_BYPASS,True,-326.6,2473.8,2495.2,352.48,0.938,0.0,1807.6,-1665.7,96.72,101.60,96.72,151.12,86.35,-0.0075,10.0,2.253,-1.1807,2.2902,2.5766,-27.27,-7.0999,-3.6867,8.0000,-117.44,48,650.0,284.0,-7.8886,-1.3304,8.0000,-99.57,-7.52,-99.57,-92.05,True,LEFT,0.700,0,0,STUCK,False,False,True,0,True,FORCE_AWAY_FROM_PERSON|STUCK_DETECTED,0.00,0
1764574790.1004195,98.502,52,TEST2_OBSTACLE_BYPASS,True,-326.6,2473.8,2495.2,352.48,0.938,0.0,1807.6,-1665.7,97.61,102.41,97.61,150.90,86.23,-0.0011,10.0,2.426,-1.1807,2.2902,2.5766,-27.27,-7.0999,-3.6867,8.0000,-117.44,48,650.0,284.0,-7.8886,-1.3304,8.0000,-99.57,-7.52,-99.57,-92.05,True,LEFT,0.700,0,0,STUCK,False,False,True,0,True,FORCE_AWAY_FROM_PERSON|STUCK_DETECTED,0.00,0
1764574790.143053,98.545,53,TEST2_OBSTACLE_BYPASS,True,-326.6,2473.8,2495.2,352.48,0.938,0.0,1807.6,-1665.7,98.67,103.18,98.67,149.95,86.25,-0.0234,10.0,2.612,-1.1807,2.2902,2.5766,-27.27,-7.1000,-3.6864,8.0000,-117.44,44,650.0,119.0,-7.8887,-1.3301,8.0000,-99.57,-7.52,-99.57,-92.05,True,LEFT,0.700,0,0,STUCK,False,False,True,0,True,FORCE_AWAY_FROM_PERSON|STUCK_DETECTED,0.00,0
1764574790.17904,98.581,54,TEST2_OBSTACLE_BYPASS,True,-85.1,2392.2,2393.7,357.96,0.925,0.0,1807.6,-1665.7,99.57,103.61,99.57,149.85,86.23,-0.0245,10.0,2.808,-1.1328,2.4288,2.6800,-25.00,-7.1000,-3.6864,8.0000,-117.44,44,650.0,119.0,-7.9083,-1.2080,8.0000,-98.68,-2.04,-98.68,-96.65,True,LEFT,0.700,0,0,STUCK,False,False,True,0,True,FORCE_AWAY_FROM_PERSON|STUCK_DETECTED,0.00,0
1764574790.2236505,98.625,55,TEST2_OBSTACLE_BYPASS,True,-85.1,2392.2,2393.7,357.96,0.925,0.0,1807.6,-1665.7,100.39,105.33,100.39,149.24,86.11,0.0117,10.0,3.013,-1.1328,2.4288,2.6800,-25.00,-7.1329,-3.6224,8.0000,-116.92,45,650.0,119.0,-7.9179,-1.1434,8.0000,-98.22,-2.04,-98.22,-96.18,True,LEFT,0.700,0,0,STUCK,False,False,True,0,True,FORCE_AWAY_FROM_PERSON|STUCK_DETECTED,0.00,0
1764574790.264375,98.666,56,TEST2_OBSTACLE_BYPASS,True,-85.1,2392.2,2393.7,357.96,0.925,0.0,1807.6,-1665.7,101.32,105.73,101.32,148.83,86.13,-0.0011,10.0,3.226,-1.1328,2.4288,2.6800,-25.00,-7.1329,-3.6224,8.0000,-116.92,45,650.0,119.0,-7.9179,-1.1434,8.0000,-98.22,-2.04,-98.22,-96.18,True,LEFT,0.700,0,0,STUCK,False,False,True,0,True,FORCE_AWAY_FROM_PERSON|STUCK_DETECTED,0.00,0
1764574790.304572,98.706,57,TEST2_OBSTACLE_BYPASS,True,-85.1,2392.2,2393.7,357.96,0.925,0.0,1807.6,-1665.7,102.33,106.17,102.33,148.37,86.05,-0.0032,10.0,3.450,-1.1328,2.4288,2.6800,-25.00,-7.0088,-3.8570,8.0000,-118.82,51,650.0,125.0,-7.8797,-1.3822,8.0000,-99.95,-2.04,-99.95,-97.91,True,LEFT,0.700,0,0,STUCK,False,False,True,0,True,FORCE_AWAY_FROM_PERSON|STUCK_DETECTED,0.00,0
1764574790.3510797,98.753,58,TEST2_OBSTACLE_BYPASS,True,-85.1,2392.2,2393.7,357.96,0.925,0.0,1807.6,-1665.7,103.40,107.13,103.40,148.24,85.99,-0.0298,10.0,3.685,-1.1328,2.4288,2.6800,-25.00,-7.0088,-3.8570,8.0000,-118.82,51,650.0,125.0,-7.8797,-1.3822,8.0000,-99.95,-2.04,-99.95,-97.91,True,LEFT,0.700,0,0,STUCK,False,False,True,0,True,FORCE_AWAY_FROM_PERSON|STUCK_DETECTED,0.00,0
1764574790.3806703,98.782,59,TEST2_OBSTACLE_BYPASS,True,-85.1,2392.2,2393.7,357.96,0.925,0.0,1807.6,-1665.7,104.40,108.26,104.40,148.13,86.00,-0.0447,10.0,3.929,-1.1328,2.4288,2.6800,-25.00,-7.1832,-3.5216,8.0000,-116.12,49,650.0,125.0,-7.9318,-1.0423,8.0000,-97.49,-2.04,-97.49,-95.45,True,LEFT,0.700,0,0,STUCK,False,False,True,0,True,FORCE_AWAY_FROM_PERSON|STUCK_DETECTED,0.00,0
1764574790.4267719,98.828,60,TEST2_OBSTACLE_BYPASS,True,-85.1,2392.2,2393.7,357.96,0.925,0.0,1807.6,-1665.7,105.26,109.17,105.26,147.47,86.08,-0.0011,10.0,4.180,-1.1328,2.4288,2.6800,-25.00,-7.9739,-0.6461,8.0000,-94.63,51,650.0,125.0,-7.8510,1.5369,8.0000,-78.92,-2.04,-78.92,-76.89,False,LEFT,0.700,0,0,STUCK,False,False,True,0,True,STUCK_DETECTED,0.00,0
1764574790.4656498,98.867,61,TEST2_OBSTACLE_BYPASS,True,-85.1,2392.2,2393.7,357.96,0.925,0.0,1807.6,-1665.7,106.03,109.29,106.03,146.09,86.09,-0.0021,10.0,4.434,-1.1328,2.4288,2.6800,-25.00,-7.9739,-0.6461,8.0000,-94.63,51,650.0,125.0,-7.8510,1.5369,8.0000,-78.92,-2.04,-78.92,-76.89,False,LEFT,0.700,0,0,STUCK,False,False,True,0,True,STUCK_DETECTED,0.00,0
1764574790.5021608,98.904,62,TEST2_OBSTACLE_BYPASS,False,0.0,0.0,0.0,0.00,0.000,0.0,1807.6,-1665.7,106.77,109.79,106.77,144.78,86.15,-0.0320,10.0,4.693,-1.1328,2.4288,2.6800,-25.00,-7.9524,0.8716,8.0000,-83.75,55,650.0,131.0,-7.5192,2.7315,8.0000,-70.04,0.00,-70.04,0.00,False,NONE,0.000,0,0,STUCK,False,False,True,0,True,STUCK_DETECTED,0.00,0
1764574790.543926,98.946,63,TEST2_OBSTACLE_BYPASS,False,0.0,0.0,0.0,0.00,0.000,0.0,1807.6,-1665.7,107.56,111.15,107.56,144.14,86.29,-0.0682,10.0,4.956,-1.1328,2.4288,2.6800,-25.00,-7.9524,0.8716,8.0000,-83.75,55,650.0,131.0,-7.5192,2.7315,8.0000,-70.04,0.00,-70.04,0.00,False,NONE,0.000,0,0,STUCK,False,False,True,0,True,STUCK_DETECTED,0.00,0
1764574790.5829632,98.985,64,TEST2_OBSTACLE_BYPASS,False,0.0,0.0,0.0,0.00,0.000,0.0,1807.6,-1665.7,108.37,111.69,108.37,143.70,86.47,-0.0586,10.0,5.224,-1.1328,2.4288,2.6800,-25.00,-6.2502,4.9935,8.0000,-51.38,59,650.0,131.0,-5.6418,5.6719,8.0000,-44.85,0.00,-44.85,0.00,False,NONE,0.000,0,0,STUCK,False,False,True,0,True,STUCK_DETECTED,0.00,0
1764574790.6285052,99.030,65,TEST2_OBSTACLE_BYPASS,True,709.5,2354.3,2458.9,16.77,0.917,0.0,1807.6,-1665.7,108.85,110.10,108.85,140.15,86.75,-0.0043,10.0,5.490,-0.7588,2.7778,2.8795,-15.28,-6.2502,4.9935,8.0000,-51.38,59,650.0,131.0,-5.3580,5.9407,8.0000,-42.05,16.77,-42.05,-58.82,False,FORWARDS_LEFT,1.000,0,0,STUCK,False,False,True,0,True,STUCK_DETECTED,0.00,0
1764574790.6709075,99.073,66,TEST2_OBSTACLE_BYPASS,True,755.6,2340.0,2458.9,17.90,0.917,0.0,1804.7,-1657.2,108.88,106.04,108.88,134.73,86.99,0.0117,10.0,5.749,-0.7372,2.8087,2.9038,-14.71,-3.2514,7.3095,8.0000,-23.98,59,650.0,134.0,-2.9338,7.4426,8.0000,-21.51,17.90,-21.51,-39.41,False,FORWARDS,1.000,0,0,STUCK,False,False,True,0,True,STUCK_DETECTED,0.00,0
1764574790.7149713,99.117,67,TEST2_OBSTACLE_BYPASS,True,856.2,2255.1,2412.2,20.79,0.742,0.0,1800.6,-1645.2,108.73,104.71,108.73,132.16,87.06,0.0107,10.0,5.998,-0.7037,2.9063,2.9903,-13.61,-3.2514,7.3095,8.0000,-23.98,59,650.0,134.0,-2.8883,7.4604,8.0000,-21.16,20.79,-21.16,-41.95,False,FORWARDS,1.000,0,0,STUCK,False,False,True,0,True,STUCK_DETECTED,0.00,0
1764574790.7526083,99.154,68,TEST2_OBSTACLE_BYPASS,True,856.2,2255.1,2412.2,20.79,0.742,0.0,1797.0,-1634.5,108.75,107.27,108.75,133.48,86.91,-0.0170,10.0,6.240,-0.7050,2.9147,2.9987,-13.60,-2.1685,7.7005,8.0000,-15.73,67,600.0,138.0,-2.0903,7.7221,8.0000,-15.15,20.79,-15.15,-35.94,False,FORWARDS,1.000,0,0,STUCK,False,False,True,0,True,STUCK_DETECTED,0.00,0
1764574790.7925265,99.194,69,TEST2_OBSTACLE_BYPASS,True,918.6,2222.5,2404.9,22.46,0.784,0.0,1792.9,-1622.7,109.09,111.67,109.09,136.46,86.69,-0.0128,10.0,6.479,-0.6747,2.9673,3.0431,-12.81,-2.1685,7.7005,8.0000,-15.73,67,600.0,138.0,-2.0602,7.7302,8.0000,-14.92,22.46,-14.92,-37.38,False,FORWARDS,1.000,0,0,STUCK,False,False,True,0,True,STUCK_DETECTED,0.00,0
1764574790.834313,99.236,70,TEST2_OBSTACLE_BYPASS,True,918.6,2222.5,2404.9,22.46,0.784,0.0,1788.9,-1611.5,109.60,114.25,109.60,137.51,86.65,-0.0043,10.0,6.719,-0.6756,2.9765,3.0522,-12.79,-2.2835,7.6672,8.0000,-16.59,65,600.0,138.0,-2.1429,7.7077,8.0000,-15.54,22.46,-15.54,-37.99,False,FORWARDS,1.000,0,0,STUCK,False,False,True,0,True,STUCK_DETECTED,0.00,0
1764574790.8792443,99.281,71,TEST2_OBSTACLE_BYPASS,True,962.1,2204.1,2404.9,23.58,0.784,0.0,1784.4,-1599.2,110.10,114.33,110.10,135.97,86.70,-0.0043,10.0,6.960,-0.6517,3.0143,3.0839,-12.20,-2.2835,7.6672,8.0000,-16.59,65,600.0,138.0,-2.1198,7.7140,8.0000,-15.37,23.58,-15.37,-38.95,False,FORWARDS,1.000,0,0,STUCK,False,False,True,0,True,STUCK_DETECTED,0.00,0
1764574790.9184124,99.320,72,TEST2_OBSTACLE_BYPASS,True,962.1,2204.1,2404.9,23.58,0.784,0.0,1779.9,-1587.1,110.48,113.64,110.48,133.78,86.85,-0.0043,10.0,7.199,-0.6524,3.0245,3.0941,-12.17,-2.3290,7.6535,8.0000,-16.93,67,550.0,140.0,-2.1514,7.7053,8.0000,-15.60,23.58,-15.60,-39.18,False,FORWARDS,1.000,0,0,STUCK,False,False,True,0,True,STUCK_DETECTED,0.00,0
1764574790.9655595,99.367,73,TEST2_OBSTACLE_BYPASS,True,962.1,2204.1,2404.9,23.58,0.784,0.0,1774.9,-1574.0,110.88,115.09,110.88,133.69,86.80,0.0032,10.0,7.436,-0.6531,3.0357,3.1051,-12.14,-2.1320,7.7107,8.0000,-15.46,73,550.0,145.0,-2.0070,7.7441,8.0000,-14.53,23.58,-14.53,-38.11,False,FORWARDS,1.000,0,0,NAVIGATING,True,False,False,0,False,,0.00,0
1764574791.0002475,99.402,74,TEST2_OBSTACLE_BYPASS,True,962.1,2204.1,2404.9,23.58,0.784,0.0,1771.2,-1564.6,111.39,116.80,111.39,134.33,86.64,0.0234,10.0,7.675,-0.6535,3.0439,3.1132,-12.12,-2.1320,7.7107,8.0000,-15.46,73,550.0,145.0,-2.0059,7.7444,8.0000,-14.52,23.58,-14.52,-38.10,False,FORWARDS,1.000,0,0,NAVIGATING,False,False,False,0,False,,0.00,0
1764574791.0461323,99.448,75,TEST2_OBSTACLE_BYPASS,True,962.1,2204.1,2404.9,23.58,0.784,0.0,1766.2,-1552.3,112.31,119.34,112.31,135.67,86.36,0.0352,10.0,7.919,-0.6539,3.0546,3.1238,-12.08,-2.3705,7.6407,8.0000,-17.24,69,500.0,145.0,-2.1768,7.6981,8.0000,-15.79,23.58,-15.79,-39.37,False,FORWARDS,1.000,0,0,NAVIGATING,False,False,False,0,False,,0.00,0
1764574791.0829957,99.485,76,TEST2_OBSTACLE_BYPASS,True,1005.1,2184.8,2404.9,24.71,0.784,0.0,1761.3,-1541.4,113.91,122.04,113.91,137.30,86.21,-0.0096,10.0,8.178,-0.6277,3.0931,3.1562,-11.47,-2.3705,7.6407,8.0000,-17.24,69,500.0,145.0,-2.1522,7.7051,8.0000,-15.61,24.71,-15.61,-40.31,False,FORWARDS,1.000,0,0,NAVIGATING,False,False,False,0,False,,0.00,0
1764574791.1188366,99.521,77,TEST2_OBSTACLE_BYPASS,False,0.0,0.0,0.0,0.00,0.000,0.0,1756.4,-1531.2,115.90,124.58,115.90,138.73,86.11,-0.0490,10.0,8.457,-0.6272,3.1025,3.1653,-11.43,-2.4712,7.6088,8.0000,-17.99,71,500.0,146.0,-2.2230,7.6849,8.0000,-16.13,0.00,-16.13,0.00,False,NONE,0.000,0,0,SEARCHING,True,False,False,0,False,,0.00,0
1764574791.1619143,99.564,78,TEST2_OBSTACLE_BYPASS,False,0.0,0.0,0.0,0.00,0.000,0.0,1750.5,-1520.0,117.77,125.97,117.77,138.46,86.16,-0.0426,10.0,8.752,-0.6263,3.1131,3.1755,-11.37,-2.4712,7.6088,8.0000,-17.99,71,500.0,146.0,-2.2204,7.6857,8.0000,-16.11,0.00,-16.11,0.00,False,NONE,0.000,0,0,SEARCHING,False,False,False,0,False,,0.00,0
1764574791.199855,99.602,79,TEST2_OBSTACLE_BYPASS,False,0.0,0.0,0.0,0.00,0.000,0.0,1744.8,-1509.8,118.82,122.13,118.82,132.34,86.42,0.0629,10.0,9.053,-0.6252,3.1229,3.1848,-11.32,-2.3907,7.6344,8.0000,-17.39,69,500.0,152.0,-2.1596,7.7030,8.0000,-15.66,0.00,-15.66,0.00,False,NONE,0.000,0,0,SEARCHING,False,False,False,0,False,,0.00,0
1764574791.241622,99.643,80,TEST2_OBSTACLE_BYPASS,False,0.0,0.0,0.0,0.00,0.000,0.0,1738.7,-1498.8,119.20,118.08,119.20,127.04,86.38,0.0820,10.0,9.352,-0.6240,3.1335,3.1950,-11.26,-2.3907,7.6344,8.0000,-17.39,69,500.0,152.0,-2.1568,7.7038,8.0000,-15.64,0.00,-15.64,0.00,False,NONE,0.000,0,0,SEARCHING,False,False,False,0,False,,0.00,0
1764574791.279839,99.682,81,TEST2_OBSTACLE_BYPASS,False,0.0,0.0,0.0,0.00,0.000,0.0,1733.1,-1488.9,119.56,117.97,119.56,126.12,86.21,0.0266,10.0,9.648,-0.6228,3.1431,3.2042,-11.21,-2.1870,7.6952,8.0000,-15.87,63,500.0,152.0,-2.0076,7.7440,8.0000,-14.53,0.00,-14.53,0.00,False,NONE,0.000,0,0,SEARCHING,False,False,False,0,False,,0.00,0
1764574791.3217635,99.723,82,TEST2_OBSTACLE_BYPASS,False,0.0,0.0,0.0,0.00,0.000,0.0,1726.8,-1478.0,120.00,118.01,120.00,125.17,86.13,0.0511,10.0,9.941,-0.6214,3.1538,3.2144,-11.15,-2.1870,7.6952,8.0000,-15.87,63,500.0,152.0,-2.0048,7.7447,8.0000,-14.51,0.00,-14.51,0.00,False,NONE,0.000,0,0,SEARCHING,False,False,False,0,False,,0.00,0
1764574791.3597062,99.761,83,TEST2_OBSTACLE_BYPASS,False,0.0,0.0,0.0,0.00,0.000,0.0,1721.0,-1468.1,120.17,116.73,120.17,123.17,86.03,0.0842,10.0,10.230,-0.6200,3.1636,3.2238,-11.09,-1.9339,7.7627,8.0000,-13.99,65,500.0,162.0,-1.8208,7.7900,8.0000,-13.16,0.00,-13.16,0.00,False,NONE,0.000,0,0,SEARCHING,False,False,False,0,False,,0.00,0
1764574791.403074,99.805,84,TEST2_OBSTACLE_BYPASS,False,0.0,0.0,0.0,0.00,0.000,0.0,1714.6,-1456.9,120.03,115.42,120.03,121.35,85.78,0.1300,10.0,10.510,-0.6185,3.1747,3.2344,-11.02,-1.9339,7.7627,8.0000,-13.99,65,500.0,162.0,-1.8181,7.7907,8.0000,-13.14,0.00,-13.14,0.00,False,NONE,0.000,0,0,SEARCHING,False,False,False,0,False,,0.00,0
1764574791.4408884,99.843,85,TEST2_OBSTACLE_BYPASS,False,0.0,0.0,0.0,0.00,0.000,0.0,1708.9,-1447.0,119.60,115.04,119.60,120.87,85.55,0.0895,10.0,10.778,-0.6171,3.1846,3.2439,-10.97,-1.7549,7.8051,8.0000,-12.67,75,500.0,270.0,-1.6879,7.8199,8.0000,-12.18,0.00,-12.18,0.00,False,NONE,0.000,0,0,SEARCHING,False,False,False,0,False,,0.00,0
1764574791.4829922,99.885,86,TEST2_OBSTACLE_BYPASS,False,0.0,0.0,0.0,0.00,0.000,0.0,1702.9,-1436.0,118.91,115.14,118.91,120.92,85.46,-0.0181,10.0,11.032,-0.6158,3.1956,3.2544,-10.91,-1.7549,7.8051,8.0000,-12.67,75,500.0,270.0,-1.6853,7.8205,8.0000,-12.16,0.00,-12.16,0.00,False,NONE,0.000,0,0,SEARCHING,False,False,False,0,False,,0.00,0
1764574791.5203655,99.922,87,TEST2_OBSTACLE_BYPASS,False,0.0,0.0,0.0,0.00,0.000,0.0,1697.6,-1426.0,118.01,115.63,118.01,121.35,85.45,-0.0746,10.0,11.269,-0.6147,3.2055,3.2639,-10.86,-1.6681,7.8242,8.0000,-12.04,81,500.0,270.0,-1.6214,7.8340,8.0000,-11.69,0.00,-11.69,0.00,False,NONE,0.000,0,0,SEARCHING,False,False,False,0,False,,0.00,0
1764574791.5628998,99.965,88,TEST2_OBSTACLE_BYPASS,False,0.0,0.0,0.0,0.00,0.000,0.0,1691.8,-1414.7,117.00,115.89,117.00,121.70,85.80,-0.1001,10.0,11.490,-0.6136,3.2167,3.2748,-10.80,-1.6681,7.8242,8.0000,-12.04,81,500.0,270.0,-1.6191,7.8344,8.0000,-11.68,0.00,-11.68,0.00,False,NONE,0.000,0,0,SEARCHING,False,False,False,0,False,,0.00,0
1764574791.6006174,100.002,89,TEST2_OBSTACLE_BYPASS,False,0.0,0.0,0.0,0.00,0.000,0.0,1686.8,-1404.5,116.30,115.09,116.30,121.20,86.07,-0.0756,10.0,11.697,-0.6128,3.2269,3.2846,-10.75,-1.6678,7.8242,8.0000,-12.03,79,500.0,275.0,-1.6169,7.8349,8.0000,-11.66,0.00,-11.66,0.00,False,NONE,0.000,0,0,SEARCHING,False,False,False,0,False,,0.00,0
1764574791.645608,100.047,90,TEST2_OBSTACLE_BYPASS,False,0.0,0.0,0.0,0.00,0.000,0.0,1681.2,-1392.9,115.67,111.81,115.67,118.66,86.30,0.0117,10.0,11.893,-0.6119,3.2385,3.2958,-10.70,-1.6678,7.8242,8.0000,-12.03,79,500.0,275.0,-1.6147,7.8354,8.0000,-11.64,0.00,-11.64,0.00,False,FORWARDS,1.000,0,0,SEARCHING,False,False,False,0,False,,0.00,0
1764574791.6835964,100.085,91,TEST2_OBSTACLE_BYPASS,False,0.0,0.0,0.0,0.00,0.000,0.0,1676.3,-1382.4,114.85,109.75,114.85,117.31,86.30,0.0554,10.0,12.075,-0.6113,3.2490,3.3060,-10.66,-1.4754,7.8628,8.0000,-10.63,78,500.0,274.0,-1.4766,7.8626,8.0000,-10.64,0.00,-10.64,0.00,False,FORWARDS,1.000,0,0,SEARCHING,False,False,False,0,False,,0.00,0
1764574791.7276063,100.129,92,TEST2_OBSTACLE_BYPASS,False,0.0,0.0,0.0,0.00,0.000,0.0,1671.1,-1370.6,113.99,109.40,113.99,117.89,86.06,0.0650,10.0,12.244,-0.6107,3.2608,3.3175,-10.61,-1.4754,7.8628,8.0000,-10.63,78,500.0,274.0,-1.4747,7.8629,8.0000,-10.62,0.00,-10.62,0.00,False,FORWARDS,1.000,0,0,SEARCHING,False,False,False,0,False,,0.00,0
1764574791.7761428,100.178,93,TEST2_OBSTACLE_BYPASS,False,0.0,0.0,0.0,0.00,0.000,0.0,1665.4,-1357.4,113.39,110.74,113.39,119.43,85.91,0.0032,10.0,12.402,-0.6102,3.2740,3.3304,-10.56,-1.0481,7.9311,8.0000,-7.53,85,500.0,274.0,-1.1712,7.9138,8.0000,-8.42,0.00,-8.42,0.00,False,FORWARDS,1.000,0,0,SEARCHING,False,False,False,0,False,,0.00,0
1764574791.817056,100.219,94,TEST2_OBSTACLE_BYPASS,False,0.0,0.0,0.0,0.00,0.000,0.0,1660.7,-1346.3,112.97,111.22,112.97,119.70,85.91,-0.0277,10.0,12.553,-0.6099,3.2852,3.3413,-10.52,-1.0481,7.9311,8.0000,-7.53,85,500.0,274.0,-1.1698,7.9140,8.0000,-8.41,0.00,-8.41,0.00,False,FORWARDS,1.000,0,0,SEARCHING,False,False,False,0,False,,0.00,0
1764574791.859225,100.261,95,TEST2_OBSTACLE_BYPASS,False,0.0,0.0,0.0,0.00,0.000,0.0,1655.7,-1334.5,112.57,111.07,112.57,119.43,86.05,-0.0266,10.0,12.696,-0.6095,3.2971,3.3530,-10.47,-0.7718,7.9627,8.0000,-5.54,89,500.0,274.0,-0.9741,7.9405,8.0000,-6.99,0.00,-6.99,0.00,False,FORWARDS,1.000,0,0,SEARCHING,False,False,False,0,False,,0.00,0
1764574791.9066076,100.308,96,TEST2_OBSTACLE_BYPASS,False,0.0,0.0,0.0,0.00,0.000,0.0,1650.6,-1321.8,112.16,110.99,112.16,119.94,86.14,-0.0011,10.0,12.832,-0.6092,3.3101,3.3657,-10.43,-0.3729,7.9913,8.0000,-2.67,94,500.0,274.0,-0.6926,7.9700,8.0000,-4.97,0.00,-4.97,0.00,False,FORWARDS,1.000,0,0,SEARCHING,False,False,False,0,False,,0.00,0
1764574791.9405987,100.342,97,TEST2_OBSTACLE_BYPASS,False,0.0,0.0,0.0,0.00,0.000,0.0,1646.6,-1311.8,111.73,111.38,111.73,120.74,86.09,-0.0032,10.0,12.961,-0.6091,3.3202,3.3757,-10.40,-0.3729,7.9913,8.0000,-2.67,94,500.0,274.0,-0.6919,7.9700,8.0000,-4.96,0.00,-4.96,0.00,False,FORWARDS,1.000,0,0,SEARCHING,False,False,False,0,False,,0.00,0
1764574791.9826267,100.384,98,TEST2_OBSTACLE_BYPASS,False,0.0,0.0,0.0,0.00,0.000,0.0,1642.0,-1300.0,111.39,112.40,111.39,121.93,86.08,-0.0043,10.0,13.083,-0.6090,3.3323,3.3875,-10.36,0.0118,8.0000,8.0000,0.08,104,500.0,274.0,-0.4210,7.9889,8.0000,-3.02,0.00,-3.02,0.00,False,FORWARDS,1.000,0,0,SEARCHING,False,False,False,0,False,,0.00,0
1764574792.0197961,100.421,99,TEST2_OBSTACLE_BYPASS,False,0.0,0.0,0.0,0.00,0.000,0.0,1637.6,-1288.7,111.11,112.38,111.11,121.99,86.10,0.0245,10.0,13.200,-0.6089,3.3439,3.3989,-10.32,0.0118,8.0000,8.0000,0.08,104,500.0,274.0,-0.4205,7.9889,8.0000,-3.01,0.00,-3.01,0.00,False,FORWARDS,1.000,0,0,SEARCHING,False,False,False,0,False,,0.00,0
1764574792.0644395,100.466,100,TEST2_OBSTACLE_BYPASS,False,0.0,0.0,0.0,0.00,0.000,0.0,1633.1,-1277.0,111.01,110.75,111.01,120.51,86.06,0.0224,10.0,13.314,-0.6088,3.3560,3.4108,-10.28,0.0150,8.0000,8.0000,0.11,97,500.0,274.0,-0.4178,7.9891,8.0000,-2.99,0.00,-2.99,0.00,False,FORWARDS,1.000,0,0,SEARCHING,False,False,False,0,False,,0.00,0
1764574792.1011071,100.503,101,TEST2_OBSTACLE_BYPASS,False,0.0,0.0,0.0,0.00,0.000,0.0,1629.1,-1266.5,110.98,109.45,110.98,119.25,86.03,0.0245,10.0,13.425,0.0000,0.0000,0.0000,0.00,0.0150,8.0000,8.0000,0.11,97,500.0,274.0,0.0150,8.0000,8.0000,0.11,0.00,0.11,0.00,False,FORWARDS,1.000,0,0,SEARCHING,False,False,False,0,False,,0.00,0
1764574792.1454349,100.547,102,TEST2_OBSTACLE_BYPASS,False,0.0,0.0,0.0,0.00,0.000,0.0,1624.5,-1254.5,111.02,109.81,111.02,119.80,85.97,-0.0107,10.0,13.669,0.0000,0.0000,0.0000,0.00,0.1693,7.9982,8.0000,1.21,89,500.0,274.0,0.1693,7.9982,8.0000,1.21,0.00,1.21,0.00,False,FORWARDS,1.000,0,0,SEARCHING,False,False,False,0,False,,0.00,0
1764574792.1820707,100.584,103,TEST2_OBSTACLE_BYPASS,False,0.0,0.0,0.0,0.00,0.000,0.0,1620.5,-1244.1,111.07,111.21,111.07,121.64,85.96,-0.0373,10.0,13.915,0.0000,0.0000,0.0000,0.00,0.1693,7.9982,8.0000,1.21,89,500.0,274.0,0.1693,7.9982,8.0000,1.21,0.00,1.21,0.00,False,FORWARDS,1.000,0,0,SEARCHING,False,False,False,0,False,,0.00,0
1764574792.2238662,100.626,104,TEST2_OBSTACLE_BYPASS,False,0.0,0.0,0.0,0.00,0.000,0.0,1615.9,-1232.3,111.24,112.95,111.24,123.76,86.07,-0.0490,10.0,14.161,0.0000,0.0000,0.0000,0.00,0.2526,7.9960,8.0000,1.81,82,550.0,274.0,0.2526,7.9960,8.0000,1.81,0.00,1.81,0.00,False,FORWARDS,1.000,0,0,SEARCHING,False,False,False,0,False,,0.00,0
1764574792.2630768,100.665,105,TEST2_OBSTACLE_BYPASS,False,0.0,0.0,0.0,0.00,0.000,0.0,1611.4,-1221.0,111.51,113.74,111.51,124.92,86.11,-0.0426,10.0,14.411,0.0000,0.0000,0.0000,0.00,0.2526,7.9960,8.0000,1.81,82,550.0,274.0,0.2526,7.9960,8.0000,1.81,0.00,1.81,0.00,False,FORWARDS,1.000,0,0,SEARCHING,False,False,False,0,False,,0.00,0
1764574792.3076644,100.709,106,TEST2_OBSTACLE_BYPASS,False,0.0,0.0,0.0,0.00,0.000,0.0,1606.6,-1209.0,111.75,113.42,111.75,125.05,86.25,-0.0138,10.0,14.663,0.0000,0.0000,0.0000,0.00,0.5023,7.9842,8.0000,3.60,93,550.0,269.0,0.5023,7.9842,8.0000,3.60,0.00,3.60,0.00,False,FORWARDS,1.000,0,0,SEARCHING,False,False,False,0,False,,0.00,0
1764574792.3449259,100.747,107,TEST2_OBSTACLE_BYPASS,False,0.0,0.0,0.0,0.00,0.000,0.0,1602.6,-1198.9,111.92,113.09,111.92,125.02,86.27,0.0085,10.0,14.916,0.0000,0.0000,0.0000,0.00,0.5023,7.9842,8.0000,3.60,93,550.0,269.0,0.5023,7.9842,8.0000,3.60,0.00,3.60,0.00,False,FORWARDS,1.000,0,0,SEARCHING,False,False,False,0,False,,0.00,0
1764574792.3882656,100.790,108,TEST2_OBSTACLE_BYPASS,False,0.0,0.0,0.0,0.00,0.000,0.0,1597.4,-1186.1,111.99,113.05,111.99,125.68,86.16,0.0149,10.0,15.170,0.0000,0.0000,0.0000,0.00,0.8207,7.9578,8.0000,5.89,94,550.0,33.0,0.8207,7.9578,8.0000,5.89,0.00,5.89,0.00,False,FORWARDS,1.000,0,0,SEARCHING,False,False,False,0,False,,0.00,0
1764574792.4330251,100.835,109,TEST2_OBSTACLE_BYPASS,False,0.0,0.0,0.0,0.00,0.000,0.0,1592.8,-1174.7,111.92,111.72,111.92,124.83,86.29,-0.0298,10.0,15.423,0.0000,0.0000,0.0000,0.00,0.8207,7.9578,8.0000,5.89,94,550.0,33.0,0.8207,7.9578,8.0000,5.89,0.00,5.89,0.00,False,FORWARDS,1.000,0,0,SEARCHING,False,False,False,0,False,,0.00,0
1764574792.468117,100.870,110,TEST2_OBSTACLE_BYPASS,False,0.0,0.0,0.0,0.00,0.000,0.0,1588.5,-1164.1,112.06,112.13,112.06,125.14,86.29,0.0053,10.0,15.678,0.0000,0.0000,0.0000,0.00,1.0365,7.9326,8.0000,7.44,87,550.0,33.0,1.0365,7.9326,8.0000,7.44,0.00,7.44,0.00,False,FORWARDS,1.000,0,0,SEARCHING,False,False,False,0,False,,0.00,0
1764574792.520334,100.922,111,TEST2_OBSTACLE_BYPASS,False,0.0,0.0,0.0,0.00,0.000,0.0,1583.4,-1151.8,112.39,112.73,112.39,125.70,86.26,0.0202,10.0,15.935,0.0000,0.0000,0.0000,0.00,1.0365,7.9326,8.0000,7.44,87,550.0,33.0,1.0365,7.9326,8.0000,7.44,0.00,7.44,0.00,False,FORWARDS,1.000,0,0,SEARCHING,False,False,False,0,False,,0.00,0
1764574792.5496664,100.951,112,TEST2_OBSTACLE_BYPASS,False,0.0,0.0,0.0,0.00,0.000,0.0,1579.2,-1141.6,112.69,112.80,112.69,125.70,86.18,0.0288,10.0,16.194,0.0000,0.0000,0.0000,0.00,1.1399,7.9184,8.0000,8.19,77,550.0,33.0,1.1399,7.9184,8.0000,8.19,0.00,8.19,0.00,False,FORWARDS,1.000,0,0,SEARCHING,False,False,False,0,False,,0.00,0
1764574792.5950866,100.997,113,TEST2_OBSTACLE_BYPASS,False,0.0,0.0,0.0,0.00,0.000,0.0,1573.8,-1128.8,112.85,112.84,112.85,125.64,86.17,-0.0352,10.0,16.454,0.0000,0.0000,0.0000,0.00,1.1757,7.9131,8.0000,8.45,72,550.0,33.0,1.1757,7.9131,8.0000,8.45,0.00,8.45,0.00,False,FORWARDS,1.000,0,0,SEARCHING,False,False,False,0,False,,0.00,0
1764574792.6366477,101.038,114,TEST2_OBSTACLE_BYPASS,False,0.0,0.0,0.0,0.00,0.000,0.0,1569.2,-1117.8,112.87,113.14,112.87,125.92,86.24,-0.0202,10.0,16.714,0.0000,0.0000,0.0000,0.00,1.1757,7.9131,8.0000,8.45,72,550.0,33.0,1.1757,7.9131,8.0000,8.45,0.00,8.45,0.00,False,FORWARDS,1.000,0,0,SEARCHING,False,False,False,0,False,,0.00,0
1764574792.6794841,101.081,115,TEST2_OBSTACLE_BYPASS,False,0.0,0.0,0.0,0.00,0.000,0.0,1564.2,-1106.1,112.88,113.92,112.88,126.67,86.26,0.0160,10.0,16.976,0.0000,0.0000,0.0000,0.00,1.1935,7.9105,8.0000,8.58,89,350.0,37.0,1.1935,7.9105,8.0000,8.58,0.00,8.58,0.00,False,FORWARDS,1.000,0,0,SEARCHING,False,False,False,0,False,,0.00,0
1764574792.7164867,101.118,116,TEST2_OBSTACLE_BYPASS,False,0.0,0.0,0.0,0.00,0.000,0.0,1559.7,-1095.4,112.92,113.77,112.92,126.51,86.21,0.0373,10.0,17.244,0.0000,0.0000,0.0000,0.00,1.1935,7.9105,8.0000,8.58,89,350.0,37.0,1.1935,7.9105,8.0000,8.58,0.00,8.58,0.00,False,FORWARDS,1.000,0,0,SEARCHING,False,False,False,0,False,,0.00,0
1764574792.7607205,101.162,117,TEST2_OBSTACLE_BYPASS,False,0.0,0.0,0.0,0.00,0.000,0.0,1554.9,-1084.0,112.98,113.68,112.98,126.40,86.13,0.0298,10.0,17.517,0.0000,0.0000,0.0000,0.00,1.7297,7.8108,8.0000,12.49,93,350.0,37.0,1.7297,7.8108,8.0000,12.49,0.00,12.49,0.00,False,FORWARDS,1.000,0,0,SEARCHING,False,False,False,0,False,,0.00,0
1764574792.7960668,101.198,118,TEST2_OBSTACLE_BYPASS,False,0.0,0.0,0.0,0.00,0.000,0.0,1550.3,-1073.3,113.00,113.27,113.00,125.91,86.07,-0.0170,10.0,17.791,0.0000,0.0000,0.0000,0.00,1.7297,7.8108,8.0000,12.49,93,350.0,37.0,1.7297,7.8108,8.0000,12.49,0.00,12.49,0.00,False,FORWARDS,1.000,0,0,SEARCHING,False,False,False,0,False,,0.00,0
1764574792.8393164,101.241,119,TEST2_OBSTACLE_BYPASS,False,0.0,0.0,0.0,0.00,0.000,0.0,1545.3,-1061.6,113.22,113.89,113.22,126.47,86.14,-0.0458,10.0,18.067,0.0000,0.0000,0.0000,0.00,1.7520,7.8058,8.0000,12.65,94,350.0,37.0,1.7520,7.8058,8.0000,12.65,0.00,12.65,0.00,False,FORWARDS,1.000,0,0,SEARCHING,False,False,False,0,False,,0.00,0
1764574792.8774433,101.279,120,TEST2_OBSTACLE_BYPASS,False,0.0,0.0,0.0,0.00,0.000,0.0,1540.8,-1051.3,113.49,114.87,113.49,127.44,86.14,-0.0352,10.0,18.344,0.0000,0.0000,0.0000,0.00,1.7520,7.8058,8.0000,12.65,94,350.0,37.0,1.7520,7.8058,8.0000,12.65,0.00,12.65,0.00,False,FORWARDS,1.000,0,0,SEARCHING,False,False,False,0,False,,0.00,0
1764574792.9189568,101.321,121,TEST2_OBSTACLE_BYPASS,False,0.0,0.0,0.0,0.00,0.000,0.0,1535.7,-1039.8,113.79,115.68,113.79,128.21,86.28,-0.0309,10.0,18.622,0.0000,0.0000,0.0000,0.00,2.0556,7.7314,8.0000,14.89,80,350.0,38.0,2.0556,7.7314,8.0000,14.89,0.00,14.89,0.00,False,FORWARDS,1.000,0,0,SEARCHING,False,False,False,0,False,,0.00,0
1764574792.9562235,101.358,122,TEST2_OBSTACLE_BYPASS,False,0.0,0.0,0.0,0.00,0.000,0.0,1531.2,-1029.5,114.04,115.32,114.04,127.85,86.39,0.0043,10.0,18.902,0.0000,0.0000,0.0000,0.00,2.0556,7.7314,8.0000,14.89,80,350.0,38.0,2.0556,7.7314,8.0000,14.89,0.00,14.89,0.00,False,FORWARDS,1.000,0,0,SEARCHING,False,False,False,0,False,,0.00,0
1764574792.9956737,101.397,123,TEST2_OBSTACLE_BYPASS,False,0.0,0.0,0.0,0.00,0.000,0.0,1526.1,-1018.2,114.23,114.77,114.23,127.30,86.30,0.0011,10.0,19.184,0.0000,0.0000,0.0000,0.00,2.0704,7.7274,8.0000,15.00,82,350.0,38.0,2.0704,7.7274,8.0000,15.00,0.00,15.00,0.00,False,FORWARDS,1.000,0,0,SEARCHING,False,False,False,0,False,,0.00,0
1764574793.0397472,101.441,124,TEST2_OBSTACLE_BYPASS,False,0.0,0.0,0.0,0.00,0.000,0.0,1520.9,-1006.9,114.46,115.37,114.46,127.87,86.22,0.0117,10.0,19.467,0.0000,0.0000,0.0000,0.00,2.0704,7.7274,8.0000,15.00,82,350.0,38.0,2.0704,7.7274,8.0000,15.00,0.00,15.00,0.00,False,FORWARDS,1.000,0,0,SEARCHING,False,False,False,0,False,,0.00,0
1764574793.0790243,101.481,125,TEST2_OBSTACLE_BYPASS,False,0.0,0.0,0.0,0.00,0.000,0.0,1516.2,-996.5,114.60,115.40,114.60,127.83,86.26,-0.0021,10.0,19.747,0.0000,0.0000,0.0000,0.00,2.9333,7.4428,8.0000,21.51,96,350.0,38.0,2.9333,7.4428,8.0000,21.51,0.00,21.51,0.00,False,FORWARDS,1.000,0,0,SEARCHING,False,False,False,0,False,,0.00,0
1764574793.1189878,101.521,126,TEST2_OBSTACLE_BYPASS,False,0.0,0.0,0.0,0.00,0.000,0.0,1510.9,-985.1,114.74,115.12,114.74,127.51,86.26,-0.0266,10.0,20.021,0.0000,0.0000,0.0000,0.00,2.9333,7.4428,8.0000,21.51,96,350.0,38.0,2.9333,7.4428,8.0000,21.51,0.00,21.51,0.00,False,FORWARDS,1.000,0,0,SEARCHING,False,False,False,0,False,,0.00,0
1764574793.1582766,101.560,127,TEST2_OBSTACLE_BYPASS,False,0.0,0.0,0.0,0.00,0.000,0.0,1506.0,-974.4,114.93,115.56,114.93,127.90,86.27,-0.0064,10.0,20.289,0.0000,0.0000,0.0000,0.00,3.9728,6.9438,8.0000,29.78,97,350.0,40.0,3.9728,6.9438,8.0000,29.78,0.00,29.78,0.00,False,FORWARDS_RIGHT,1.000,0,0,SEARCHING,False,False,False,0,False,,0.00,0
1764574793.201245,101.603,128,TEST2_OBSTACLE_BYPASS,False,0.0,0.0,0.0,0.00,0.000,0.0,1502.1,-966.2,115.21,116.12,115.21,128.43,86.43,-0.0405,10.0,20.556,0.0000,0.0000,0.0000,0.00,3.9728,6.9438,8.0000,29.78,97,350.0,40.0,3.9728,6.9438,8.0000,29.78,0.00,29.78,0.00,False,FORWARDS_RIGHT,1.000,0,0,SEARCHING,False,False,False,0,False,,0.00,0
1764574793.2420087,101.644,129,TEST2_OBSTACLE_BYPASS,False,0.0,0.0,0.0,0.00,0.000,0.0,1498.2,-958.1,115.49,116.68,115.49,128.96,86.39,0.0032,10.0,20.823,0.0000,0.0000,0.0000,0.00,4.9246,6.3046,8.0000,37.99,100,500.0,40.0,4.9246,6.3046,8.0000,37.99,0.00,37.99,0.00,False,FORWARDS_RIGHT,1.000,0,0,SEARCHING,False,False,False,0,False,,0.00,0
1764574793.2898412,101.692,130,TEST2_OBSTACLE_BYPASS,False,0.0,0.0,0.0,0.00,0.000,0.0,1494.1,-949.4,115.37,113.66,115.37,125.91,86.45,0.0234,10.0,21.089,0.0000,0.0000,0.0000,0.00,5.6067,5.7066,8.0000,44.49,78,500.0,40.0,5.6067,5.7066,8.0000,44.49,0.00,44.49,0.00,False,FORWARDS_RIGHT,1.000,0,0,SEARCHING,False,False,False,0,False,,0.00,0
1764574793.3285067,101.730,131,TEST2_OBSTACLE_BYPASS,False,0.0,0.0,0.0,0.00,0.000,0.0,1490.7,-942.0,114.84,110.39,114.84,122.66,86.64,-0.0053,10.0,21.348,0.0000,0.0000,0.0000,0.00,5.6067,5.7066,8.0000,44.49,78,500.0,40.0,5.6067,5.7066,8.0000,44.49,0.00,44.49,0.00,False,FORWARDS_RIGHT,1.000,0,0,SEARCHING,False,False,False,0,False,,0.00,0
1764574793.3730726,101.775,132,TEST2_OBSTACLE_BYPASS,False,0.0,0.0,0.0,0.00,0.000,0.0,1486.9,-933.7,114.43,111.26,114.43,123.63,86.52,-0.0884,10.0,21.604,0.0000,0.0000,0.0000,0.00,5.7184,5.5947,8.0000,45.63,73,500.0,40.0,5.7184,5.5947,8.0000,45.63,0.00,45.63,0.00,False,FORWARDS_RIGHT,1.000,0,0,SEARCHING,False,False,True,0,True,STUCK_DETECTED,0.00,0
1764574793.4101543,101.812,133,TEST2_OBSTACLE_BYPASS,False,0.0,0.0,0.0,0.00,0.000,0.0,1483.7,-926.5,113.97,110.15,113.97,122.77,86.81,-0.1747,10.0,21.856,0.0000,0.0000,0.0000,0.00,5.7184,5.5947,8.0000,45.63,73,500.0,40.0,5.7184,5.5947,8.0000,45.63,0.00,45.63,0.00,False,FORWARDS_RIGHT,1.000,0,0,SEARCHING,False,False,True,0,True,STUCK_DETECTED,0.00,0
1764574793.454096,101.856,134,TEST2_OBSTACLE_BYPASS,False,0.0,0.0,0.0,0.00,0.000,0.0,1480.1,-918.3,113.88,114.48,113.88,127.81,87.20,-0.1470,10.0,22.108,0.0000,0.0000,0.0000,0.00,5.6494,5.6643,8.0000,44.92,72,500.0,40.0,5.6494,5.6643,8.0000,44.92,0.00,44.92,0.00,False,FORWARDS_RIGHT,1.000,0,0,SEARCHING,False,False,True,0,True,STUCK_DETECTED,0.00,0
1764574793.494569,101.896,135,TEST2_OBSTACLE_BYPASS,False,0.0,0.0,0.0,0.00,0.000,0.0,1476.4,-910.0,113.99,116.44,113.99,130.30,87.36,0.0788,10.0,22.360,0.0000,0.0000,0.0000,0.00,5.6494,5.6643,8.0000,44.92,72,500.0,40.0,5.6494,5.6643,8.0000,44.92,0.00,44.92,0.00,False,FORWARDS_RIGHT,1.000,0,0,SEARCHING,False,False,True,0,True,STUCK_DETECTED,0.00,0
1764574793.5390027,101.941,136,TEST2_OBSTACLE_BYPASS,False,0.0,0.0,0.0,0.00,0.000,0.0,1472.7,-901.6,113.82,113.49,113.82,128.18,86.90,0.2407,10.0,22.608,0.0000,0.0000,0.0000,0.00,5.7366,5.5760,8.0000,45.81,72,500.0,40.0,5.7366,5.5760,8.0000,45.81,0.00,45.81,0.00,False,FORWARDS_RIGHT,1.000,0,0,SEARCHING,False,False,True,0,True,STUCK_DETECTED,0.00,0
1764574793.5795121,101.981,137,TEST2_OBSTACLE_BYPASS,False,0.0,0.0,0.0,0.00,0.000,0.0,1469.3,-893.8,113.54,112.76,113.54,127.55,86.32,0.1182,10.0,22.850,0.0000,0.0000,0.0000,0.00,5.7366,5.5760,8.0000,45.81,72,500.0,40.0,5.7366,5.5760,8.0000,45.81,0.00,45.81,0.00,False,FORWARDS_RIGHT,1.000,0,0,SEARCHING,False,False,True,0,True,STUCK_DETECTED,0.00,0
1764574793.6205304,102.022,138,TEST2_OBSTACLE_BYPASS,False,0.0,0.0,0.0,0.00,0.000,0.0,1466.0,-886.2,113.48,115.47,113.48,129.70,85.95,-0.0245,10.0,23.089,0.0000,0.0000,0.0000,0.00,7.2223,3.4406,8.0000,64.53,80,500.0,40.0,7.2223,3.4406,8.0000,64.53,0.00,64.53,0.00,False,FORWARDS_RIGHT,1.000,0,0,SEARCHING,False,False,True,0,True,STUCK_DETECTED,0.00,0
1764574793.6631598,102.065,139,TEST2_OBSTACLE_BYPASS,False,0.0,0.0,0.0,0.00,0.000,0.0,1462.3,-878.0,113.88,120.67,113.88,133.87,85.87,-0.1246,10.0,23.326,0.0000,0.0000,0.0000,0.00,7.2223,3.4406,8.0000,64.53,80,500.0,40.0,7.2223,3.4406,8.0000,64.53,0.00,64.53,0.00,False,FORWARDS_RIGHT,1.000,0,0,SEARCHING,False,False,True,0,True,STUCK_DETECTED,0.00,0
1764574793.6991677,102.101,140,TEST2_OBSTACLE_BYPASS,False,0.0,0.0,0.0,0.00,0.000,0.0,1459.0,-870.7,114.83,123.19,114.83,135.53,86.11,-0.0245,10.0,23.569,0.0000,0.0000,0.0000,0.00,7.4834,2.8281,8.0000,69.30,87,500.0,40.0,7.4834,2.8281,8.0000,69.30,0.00,69.30,0.00,False,RIGHT,0.700,0,0,SEARCHING,False,False,True,0,True,STUCK_DETECTED,0.00,0
1764574793.7462778,102.148,141,TEST2_OBSTACLE_BYPASS,False,0.0,0.0,0.0,0.00,0.000,0.0,1459.0,-870.7,115.69,118.95,115.69,131.33,86.39,0.0330,10.0,23.815,0.0000,0.0000,0.0000,0.00,7.4834,2.8281,8.0000,69.30,87,500.0,40.0,7.4834,2.8281,8.0000,69.30,0.00,69.30,0.00,False,RIGHT,0.700,0,0,SEARCHING,False,False,True,0,True,STUCK_DETECTED,0.00,0
1764574793.7803464,102.182,142,TEST2_OBSTACLE_BYPASS,False,0.0,0.0,0.0,0.00,0.000,0.0,1459.0,-870.7,115.80,112.35,115.80,125.20,86.61,-0.0107,10.0,24.056,0.0000,0.0000,0.0000,0.00,7.8866,1.3424,8.0000,80.34,89,500.0,40.0,7.8866,1.3424,8.0000,80.34,0.00,80.34,0.00,False,RIGHT,0.700,0,0,SEARCHING,False,False,True,0,True,STUCK_DETECTED,0.00,0
1764574793.8259156,102.228,143,TEST2_OBSTACLE_BYPASS,False,0.0,0.0,0.0,0.00,0.000,0.0,1459.0,-870.7,115.89,111.05,115.89,124.07,86.80,-0.0490,10.0,24.292,0.0000,0.0000,0.0000,0.00,7.8866,1.3424,8.0000,80.34,89,500.0,40.0,7.8866,1.3424,8.0000,80.34,0.00,80.34,0.00,False,RIGHT,0.700,0,0,SEARCHING,False,False,True,0,True,STUCK_DETECTED,0.00,0
1764574793.8616543,102.263,144,TEST2_OBSTACLE_BYPASS,False,0.0,0.0,0.0,0.00,0.000,0.0,1459.0,-870.7,115.91,114.70,115.91,127.68,86.80,-0.0330,10.0,24.521,0.0000,0.0000,0.0000,0.00,7.6448,2.3573,8.0000,72.86,87,500.0,40.0,7.6448,2.3573,8.0000,72.86,0.00,72.86,0.00,False,RIGHT,0.700,0,0,SEARCHING,False,False,True,0,True,STUCK_DETECTED,0.00,0
1764574793.9097319,102.311,145,TEST2_OBSTACLE_BYPASS,False,0.0,0.0,0.0,0.00,0.000,0.0,1459.0,-870.7,116.06,118.01,116.06,131.05,86.66,0.0256,10.0,24.744,0.0000,0.0000,0.0000,0.00,7.8943,1.2959,8.0000,80.68,88,500.0,40.0,7.8943,1.2959,8.0000,80.68,0.00,80.68,0.00,False,RIGHT,0.700,0,0,SEARCHING,False,False,True,0,True,STUCK_DETECTED,0.00,0
1764574793.9468222,102.349,146,TEST2_OBSTACLE_BYPASS,False,0.0,0.0,0.0,0.00,0.000,0.0,1459.0,-870.7,116.36,116.46,116.36,129.53,86.86,0.0543,10.0,24.964,0.0000,0.0000,0.0000,0.00,7.8943,1.2959,8.0000,80.68,88,500.0,40.0,7.8943,1.2959,8.0000,80.68,0.00,80.68,0.00,False,RIGHT,0.700,0,0,SEARCHING,False,False,True,0,True,STUCK_DETECTED,0.00,0
1764574793.991284,102.393,147,TEST2_OBSTACLE_BYPASS,False,0.0,0.0,0.0,0.00,0.000,0.0,1459.0,-870.7,116.64,115.53,116.64,128.55,86.91,0.0288,10.0,25.185,0.0000,0.0000,0.0000,0.00,7.8536,-1.5236,8.0000,100.98,91,500.0,40.0,7.8536,-1.5236,8.0000,100.98,0.00,100.98,0.00,False,RIGHT,0.700,0,0,SEARCHING,False,False,True,0,True,STUCK_DETECTED,0.00,0
1764574794.0262127,102.428,148,TEST2_OBSTACLE_BYPASS,False,0.0,0.0,0.0,0.00,0.000,0.0,1459.0,-870.7,116.51,114.16,116.51,127.14,86.82,0.0202,10.0,25.401,0.0000,0.0000,0.0000,0.00,7.8536,-1.5236,8.0000,100.98,91,500.0,40.0,7.8536,-1.5236,8.0000,100.98,0.00,100.98,0.00,False,RIGHT,0.700,0,0,SEARCHING,False,False,True,0,True,STUCK_DETECTED,0.00,0
1764574794.0687943,102.470,149,TEST2_OBSTACLE_BYPASS,False,0.0,0.0,0.0,0.00,0.000,0.0,1459.0,-870.7,115.52,110.85,115.52,123.75,87.02,-0.0437,10.0,25.603,0.0000,0.0000,0.0000,0.00,7.2056,-3.4756,8.0000,115.75,88,500.0,40.0,7.2056,-3.4756,8.0000,115.75,0.00,115.75,0.00,False,BACKWARDS_RIGHT,0.500,0,0,SEARCHING,False,False,True,0,True,STUCK_DETECTED,0.00,0
1764574794.1075416,102.509,150,TEST2_OBSTACLE_BYPASS,False,0.0,0.0,0.0,0.00,0.000,0.0,1460.6,-874.3,114.30,110.95,114.30,123.91,87.10,-0.0522,10.0,25.785,0.0000,0.0000,0.0000,0.00,7.2056,-3.4756,8.0000,115.75,88,500.0,40.0,7.2056,-3.4756,8.0000,115.75,0.00,115.75,0.00,False,BACKWARDS_RIGHT,0.500,0,0,SEARCHING,False,False,True,0,True,STUCK_DETECTED,0.00,0
1764574794.1498475,102.552,151,TEST2_OBSTACLE_BYPASS,False,0.0,0.0,0.0,0.00,0.000,0.0,1462.4,-878.4,113.76,113.53,113.76,126.55,87.15,-0.0043,10.0,25.956,0.0000,0.0000,0.0000,0.00,6.8552,-4.1238,8.0000,121.03,87,500.0,40.0,6.8552,-4.1238,8.0000,121.03,0.00,121.03,0.00,False,BACKWARDS_RIGHT,0.500,0,0,SEARCHING,False,False,True,0,True,STUCK_DETECTED,0.00,0
1764574794.1857545,102.587,152,TEST2_OBSTACLE_BYPASS,False,0.0,0.0,0.0,0.00,0.000,0.0,1464.0,-881.9,113.95,114.28,113.95,127.38,87.12,0.0277,10.0,26.119,0.0000,0.0000,0.0000,0.00,6.8552,-4.1238,8.0000,121.03,87,500.0,40.0,6.8552,-4.1238,8.0000,121.03,0.00,121.03,0.00,False,BACKWARDS_RIGHT,0.500,0,0,SEARCHING,False,False,True,0,True,STUCK_DETECTED,0.00,0
1764574794.2309697,102.633,153,TEST2_OBSTACLE_BYPASS,False,0.0,0.0,0.0,0.00,0.000,0.0,1465.9,-886.1,114.22,113.73,114.22,126.83,87.08,0.0032,10.0,26.275,0.0000,0.0000,0.0000,0.00,7.9877,-0.4426,8.0000,93.17,76,500.0,40.0,7.9877,-0.4426,8.0000,93.17,0.00,93.17,0.00,False,RIGHT,0.700,0,0,SEARCHING,False,False,True,0,True,STUCK_DETECTED,0.00,0
1764574794.2687826,102.670,154,TEST2_OBSTACLE_BYPASS,False,0.0,0.0,0.0,0.00,0.000,0.0,1465.9,-886.1,114.05,112.98,114.05,126.06,87.04,0.0117,10.0,26.419,0.0000,0.0000,0.0000,0.00,7.9877,-0.4426,8.0000,93.17,76,500.0,40.0,7.9877,-0.4426,8.0000,93.17,0.00,93.17,0.00,False,RIGHT,0.700,0,0,SEARCHING,False,False,True,0,True,STUCK_DETECTED,0.00,0
1764574794.3109236,102.713,155,TEST2_OBSTACLE_BYPASS,False,0.0,0.0,0.0,0.00,0.000,0.0,1465.9,-886.1,113.43,111.88,113.43,125.01,87.04,-0.0032,10.0,26.550,0.0000,0.0000,0.0000,0.00,7.3596,3.1364,8.0000,66.92,69,500.0,40.0,7.3596,3.1364,8.0000,66.92,0.00,66.92,0.00,False,FORWARDS_RIGHT,1.000,0,0,SEARCHING,False,False,True,0,True,STUCK_DETECTED,0.00,0
1764574794.352563,102.754,156,TEST2_OBSTACLE_BYPASS,False,0.0,0.0,0.0,0.00,0.000,0.0,1462.6,-878.4,112.99,111.96,112.99,125.10,87.10,-0.0298,10.0,26.666,0.0000,0.0000,0.0000,0.00,7.3596,3.1364,8.0000,66.92,69,500.0,40.0,7.3596,3.1364,8.0000,66.92,0.00,66.92,0.00,False,FORWARDS_RIGHT,1.000,0,0,SEARCHING,False,False,True,0,True,STUCK_DETECTED,0.00,0
1764574794.3898232,102.792,157,TEST2_OBSTACLE_BYPASS,False,0.0,0.0,0.0,0.00,0.000,0.0,1459.5,-871.0,112.75,113.22,112.75,126.33,87.16,-0.0021,10.0,26.771,0.0000,0.0000,0.0000,0.00,5.6385,5.6752,8.0000,44.81,63,500.0,40.0,5.6385,5.6752,8.0000,44.81,0.00,44.81,0.00,False,FORWARDS_RIGHT,1.000,0,0,SEARCHING,False,False,True,0,True,STUCK_DETECTED,0.00,0
1764574794.4319477,102.834,158,TEST2_OBSTACLE_BYPASS,False,0.0,0.0,0.0,0.00,0.000,0.0,1456.0,-862.8,112.68,113.42,112.68,126.52,87.14,0.0266,10.0,26.863,0.0000,0.0000,0.0000,0.00,5.6385,5.6752,8.0000,44.81,63,500.0,40.0,5.6385,5.6752,8.0000,44.81,0.00,44.81,0.00,False,FORWARDS_RIGHT,1.000,0,0,SEARCHING,False,False,True,0,True,STUCK_DETECTED,0.00,0
1764574794.468176,102.870,159,TEST2_OBSTACLE_BYPASS,False,0.0,0.0,0.0,0.00,0.000,0.0,1453.0,-855.5,112.84,112.43,112.84,125.53,87.11,0.0330,10.0,26.948,0.0000,0.0000,0.0000,0.00,5.1558,6.1170,8.0000,40.13,61,500.0,40.0,5.1558,6.1170,8.0000,40.13,0.00,40.13,0.00,False,FORWARDS_RIGHT,1.000,0,0,SEARCHING,False,False,True,0,True,STUCK_DETECTED,0.00,0
1764574794.513358,102.915,160,TEST2_OBSTACLE_BYPASS,False,0.0,0.0,0.0,0.00,0.000,0.0,1449.4,-847.0,112.91,111.70,112.91,124.80,87.12,-0.0117,10.0,27.024,0.0000,0.0000,0.0000,0.00,5.1558,6.1170,8.0000,40.13,61,500.0,40.0,5.1558,6.1170,8.0000,40.13,0.00,40.13,0.00,False,FORWARDS_RIGHT,1.000,0,0,SEARCHING,False,False,True,0,True,STUCK_DETECTED,0.00,0
1764574794.551907,102.954,161,TEST2_OBSTACLE_BYPASS,False,0.0,0.0,0.0,0.00,0.000,0.0,1446.2,-839.5,112.75,111.90,112.75,125.03,87.08,-0.0309,10.0,27.092,0.0000,0.0000,0.0000,0.00,5.2756,6.0140,8.0000,41.26,52,500.0,40.0,5.2756,6.0140,8.0000,41.26,0.00,41.26,0.00,False,FORWARDS_RIGHT,1.000,0,0,SEARCHING,False,False,True,0,True,STUCK_DETECTED,0.00,0
1764574794.5984466,103.000,162,TEST2_OBSTACLE_BYPASS,False,0.0,0.0,0.0,0.00,0.000,0.0,1442.8,-831.2,112.57,112.47,112.57,125.59,87.22,-0.0075,10.0,27.150,0.0000,0.0000,0.0000,0.00,5.2756,6.0140,8.0000,41.26,52,500.0,40.0,5.2756,6.0140,8.0000,41.26,0.00,41.26,0.00,False,FORWARDS_RIGHT,1.000,0,0,SEARCHING,False,False,True,0,True,STUCK_DETECTED,0.00,0
1764574794.6323552,103.034,163,TEST2_OBSTACLE_BYPASS,False,0.0,0.0,0.0,0.00,0.000,0.0,1439.8,-824.0,112.47,112.78,112.47,125.88,87.31,0.0288,10.0,27.199,0.0000,0.0000,0.0000,0.00,4.3135,6.7375,8.0000,32.63,45,500.0,40.0,4.3135,6.7375,8.0000,32.63,0.00,32.63,0.00,False,FORWARDS_RIGHT,1.000,0,0,SEARCHING,False,False,True,0,True,STUCK_DETECTED,0.00,0
1764574794.6755877,103.077,164,TEST2_OBSTACLE_BYPASS,False,0.0,0.0,0.0,0.00,0.000,0.0,1436.4,-815.8,112.41,112.38,112.41,125.49,87.16,0.0522,10.0,27.239,0.0000,0.0000,0.0000,0.00,4.3135,6.7375,8.0000,32.63,45,500.0,40.0,4.3135,6.7375,8.0000,32.63,0.00,32.63,0.00,False,FORWARDS_RIGHT,1.000,0,0,SEARCHING,False,False,True,0,True,STUCK_DETECTED,0.00,0
1764574794.7109208,103.113,165,TEST2_OBSTACLE_BYPASS,False,0.0,0.0,0.0,0.00,0.000,0.0,1433.3,-808.3,112.37,111.49,112.37,124.61,87.04,0.0075,10.0,27.274,0.0000,0.0000,0.0000,0.00,2.8415,7.4784,8.0000,20.80,43,500.0,40.0,2.8415,7.4784,8.0000,20.80,0.00,20.80,0.00,False,FORWARDS,1.000,0,0,SEARCHING,False,False,True,0,True,STUCK_DETECTED,0.00,0
1764574794.760614,103.162,166,TEST2_OBSTACLE_BYPASS,False,0.0,0.0,0.0,0.00,0.000,0.0,1428.2,-795.8,112.31,111.30,112.31,124.40,87.14,-0.0490,10.0,27.309,0.0000,0.0000,0.0000,0.00,2.2484,7.6775,8.0000,16.32,42,500.0,40.0,2.2484,7.6775,8.0000,16.32,0.00,16.32,0.00,False,FORWARDS,1.000,0,0,SEARCHING,False,False,True,0,True,STUCK_DETECTED,0.00,0
1764574794.7960346,103.198,167,TEST2_OBSTACLE_BYPASS,False,0.0,0.0,0.0,0.00,0.000,0.0,1423.9,-785.3,112.16,111.74,112.16,124.84,87.16,-0.0533,10.0,27.343,0.0000,0.0000,0.0000,0.00,2.2484,7.6775,8.0000,16.32,42,500.0,40.0,2.2484,7.6775,8.0000,16.32,0.00,16.32,0.00,False,FORWARDS,1.000,0,0,SEARCHING,False,False,True,0,True,STUCK_DETECTED,0.00,0
1764574794.8398008,103.241,168,TEST2_OBSTACLE_BYPASS,False,0.0,0.0,0.0,0.00,0.000,0.0,1419.2,-773.5,112.05,112.36,112.05,125.46,87.30,0.0117,10.0,27.376,0.0000,0.0000,0.0000,0.00,2.4323,7.6213,8.0000,17.70,40,500.0,40.0,2.4323,7.6213,8.0000,17.70,0.00,17.70,0.00,False,FORWARDS,1.000,0,0,SEARCHING,False,False,True,0,True,STUCK_DETECTED,0.00,0
1764574794.875778,103.277,169,TEST2_OBSTACLE_BYPASS,False,0.0,0.0,0.0,0.00,0.000,0.0,1414.9,-763.1,112.04,112.27,112.04,125.37,87.29,0.0447,10.0,27.406,0.0000,0.0000,0.0000,0.00,2.4323,7.6213,8.0000,17.70,40,500.0,40.0,2.4323,7.6213,8.0000,17.70,0.00,17.70,0.00,False,FORWARDS,1.000,0,0,SEARCHING,False,False,True,0,True,STUCK_DETECTED,0.00,0
1764574794.918116,103.320,170,TEST2_OBSTACLE_BYPASS,False,0.0,0.0,0.0,0.00,0.000,0.0,1410.1,-751.2,112.06,111.91,112.06,125.01,87.13,0.0170,10.0,27.430,0.0000,0.0000,0.0000,0.00,2.4708,7.6089,8.0000,17.99,39,500.0,40.0,2.4708,7.6089,8.0000,17.99,0.00,17.99,0.00,False,FORWARDS,1.000,0,0,SEARCHING,False,False,False,0,False,,0.00,0
